time,cmd_L_hip_pitch,cmd_R_hip_pitch,cmd_L_hip_roll,cmd_R_hip_roll,cmd_L_hip_yaw,cmd_R_hip_yaw,cmd_L_knee,cmd_R_knee,cmd_L_foot_pitch,cmd_R_foot_pitch,cmd_L_foot_roll,cmd_R_foot_roll,pos_L_hip_pitch,pos_R_hip_pitch,pos_L_hip_roll,pos_R_hip_roll,pos_L_hip_yaw,pos_R_hip_yaw,pos_L_knee,pos_R_knee,pos_L_foot_pitch,pos_R_foot_pitch,pos_L_foot_roll,pos_R_foot_roll,act_R_hip_yaw,act_R_hip_roll,act_R_hip_pitch,act_R_knee,act_R_foot_pitch,act_R_foot_roll,act_L_hip_yaw,act_L_hip_roll,act_L_hip_pitch,act_L_knee,act_L_foot_pitch,act_L_foot_roll
0.0,0.0377308651804924,-0.028996406123042107,0.018681887537240982,0.022475481033325195,0.023095492273569107,0.010867934674024582,0.34380415081977844,0.3908522129058838,-0.42863592505455017,-0.3698756694793701,-0.20275481045246124,0.20993490517139435,-0.036157555934769395,0.03021589075558542,0.00558340967931884,0.00574872016339461,0.01589213563819918,0.0077139694349478765,0.30947687971214877,0.3309351963302399,-0.3393626126139515,-0.32370071571368664,-0.06245546923004033,0.06522964392612604,0.021735869348049164,0.04495096206665039,-0.21799281239509583,0.2817044258117676,-0.39975133538246155,0.8397396206855774,0.046190984547138214,0.037363775074481964,0.23546172678470612,0.18760831654071808,-0.517271876335144,-0.811019241809845
0.02,0.03215707838535309,-0.10310454666614532,0.0534885935485363,0.05270785838365555,0.013023306615650654,-0.02243719808757305,0.32247194647789,0.47224879264831543,-0.11944513022899628,-0.27312517166137695,-0.22736479341983795,0.10421077162027359,-0.004586969698872132,-0.02471457450375636,0.018036388902027887,0.018080687629620545,0.014719304309642734,-0.011023622086047943,0.32811676223492037,0.43308631711894424,-0.348543236960448,-0.35546554549466874,-0.1349975035099463,0.10653090348246924,-0.0448743961751461,0.1054157167673111,-0.36620908975601196,0.44449758529663086,-0.2062503546476364,0.41684308648109436,0.026046613231301308,0.1069771870970726,0.2243141531944275,0.14494390785694122,0.10110973566770554,-0.9094591736793518
0.04,0.030753983184695244,-0.11744625866413116,0.1230379119515419,0.10442312806844711,0.007097777910530567,-0.03580519184470177,0.3709546625614166,0.5590767860412598,0.012897836044430733,-0.2595329284667969,-0.24608884751796722,0.01947823166847229,0.011723802605067113,-0.06683218109999615,0.039790655885669095,0.04206525509909862,0.007699554605106298,-0.029214211325196495,0.3258561939642407,0.5113698279358709,-0.4014906872728469,-0.3796381037618098,-0.14451091316594858,0.07875089005538242,-0.07161038368940353,0.20884625613689423,-0.39489251375198364,0.6181535124778748,-0.17906585335731506,0.07791292667388916,0.014195555821061134,0.2460758239030838,0.2215079665184021,0.24190931022167206,0.36579567193984985,-0.9843553900718689
0.06,0.050948575139045715,-0.12659068405628204,0.14022022485733032,0.10213571786880493,0.0026948186568915844,-0.019921813160181046,0.36632823944091797,0.5516675710678101,-0.13448509573936462,-0.5940783619880676,-0.24880947172641754,0.052272360771894455,0.03146116205290373,-0.08990487231756025,0.0503216949261444,0.057004685094643945,0.008742668200293664,-0.02313586461612377,0.3502359894645152,0.5529283919942225,-0.4157679232182877,-0.4534585617423884,-0.07906066735112996,0.0570842957007348,-0.03984362632036209,0.20427143573760986,-0.4131813645362854,0.6033352017402649,-0.8481566905975342,0.20908944308757782,0.005389637313783169,0.28044044971466064,0.26189714670181274,0.23265650868415833,0.07102979719638824,-0.9952378869056702
0.08,0.05288901925086975,-0.1193007230758667,0.19001919031143188,0.08600423485040665,0.0034207941498607397,0.005940006580203772,0.3719498813152313,0.5324976444244385,-0.2690809965133667,-0.5595155358314514,-0.24915766716003418,0.06584867835044861,0.04570164622233919,-0.0975883670462228,0.059361988694813655,0.07559824716026867,0.008571414428104964,-0.0028208888872361206,0.37377445608223964,0.5483058406295034,-0.4306755980398931,-0.5160246323791075,-0.04039019221459841,0.05617990850198878,0.011880013160407543,0.1720084697008133,-0.3986014425754547,0.5649952292442322,-0.7790310978889465,0.26339471340179443,0.006841588299721479,0.38003838062286377,0.2657780349254608,0.24389974772930145,-0.1981620192527771,-0.9966306686401367
0.1,0.04875379800796509,-0.08278477191925049,0.1950763612985611,0.09834933280944824,0.010350803844630718,0.01735387183725834,0.42009255290031433,0.44586247205734253,-0.15092168748378754,-0.5189576745033264,-0.24867095053195953,0.10622820258140564,0.0532953649269943,-0.08569820222564588,0.06808563992481173,0.09292451950952249,0.008054904411594845,0.01211237434163436,0.3999388351331268,0.48763798160117083,-0.4481198149790997,-0.5300834929875493,-0.022814688615201213,0.07309395195980904,0.03470774367451668,0.19669866561889648,-0.3255695402622223,0.39172494411468506,-0.6979153752326965,0.42491281032562256,0.020701607689261436,0.3901527225971222,0.2575075924396515,0.34018510580062866,0.03815663233399391,-0.9946838021278381
0.12,0.03318921476602554,-0.03686845302581787,0.12015598267316818,0.0945959985256195,0.026511330157518387,0.026405520737171173,0.5315108895301819,0.3227781355381012,0.19215910136699677,-0.46313127875328064,-0.23810212314128876,0.17973372340202332,0.059342244353055774,-0.05234881938009561,0.06389186353991262,0.09652355028829299,0.01923115694459355,0.022335482441842483,0.4493633868123822,0.379326537508162,-0.46367514503878393,-0.5073044263417906,-0.024986918029859504,0.11383948246159993,0.052811041474342346,0.189191997051239,-0.23373690247535706,0.1455562710762024,-0.586262583732605,0.7189348936080933,0.053022660315036774,0.24031196534633636,0.2263784259557724,0.5630217790603638,0.7243182063102722,-0.952408492565155
0.14,0.05038943886756897,-0.05382722616195679,-0.0068739322014153,0.01759970560669899,0.04840380325913429,0.0347106046974659,0.6576003432273865,0.284791499376297,0.20697210729122162,-0.5062506198883057,-0.09992951154708862,0.23005232214927673,0.08322203712485247,-0.02581312066500125,0.04463212413984042,0.0815985079125631,0.04357863172625903,0.03081143398211558,0.5396402482193989,0.34692936761080956,-0.45567664272369585,-0.4132839046557486,-0.017548319410419563,0.10469069662463713,0.0694212093949318,0.03519941121339798,-0.2676544487476349,0.0695829838514328,-0.6725012063980103,0.9202092885971069,0.09680760651826859,-0.0137478644028306,0.26077887415885925,0.815200686454773,0.7539442181587219,-0.3997180461883545
0.16,0.09707063436508179,-0.05593469738960266,-0.07193295657634735,0.008840015158057213,0.043085262179374695,0.03331568464636803,0.6861424446105957,0.3103863000869751,-0.6558668613433838,-0.4238505959510803,0.03307949751615524,0.24244904518127441,0.11158627993096011,-0.0141894113209351,0.016667042750318443,0.060056512745821106,0.04338174824990042,0.027330014885968843,0.6400557538798537,0.35139112841239956,-0.5083780241854821,-0.39341265919040447,-0.0001207150294813815,0.087114233090135,0.06663136929273605,0.017680030316114426,-0.27186939120292664,0.12077257037162781,-0.5077012181282043,0.9697961807250977,0.08617052435874939,-0.1438659131526947,0.3541412651538849,0.8722849488258362,-0.9717337489128113,0.13231799006462097
0.18,0.13390439748764038,0.024331925436854362,-0.026114201173186302,-0.03738720342516899,0.009312785230576992,0.03708438575267792,0.7201370000839233,0.31320348381996155,-0.6591983437538147,-0.25765755772590637,0.03519783914089203,0.24423864483833313,0.12334951822291948,0.005130996146819651,-0.005640434840342372,0.051024313020394174,0.021189113970905046,0.02646068657857245,0.7070491699662078,0.3479196134070463,-0.5837463291904276,-0.39531157812129897,0.018343516587291643,0.09079953521269155,0.07416877150535583,-0.07477440685033798,-0.11133614927530289,0.1264069527387619,-0.17531514167785645,0.9769545793533325,0.018625570461153984,-0.052228402346372604,0.4278087913990021,0.9402740001678467,-0.9783967137336731,0.14079135656356812
0.2,0.13951334357261658,0.08296771347522736,-0.0063799661584198475,-0.07377667725086212,-0.010618968866765499,0.0377715602517128,0.7340196371078491,0.29790806770324707,-0.6625691652297974,-0.12411589175462723,0.003226284636184573,0.24476367235183716,0.1259370038058642,0.03478971795249308,-0.02119623074257997,0.04682179846421886,0.001189493765488423,0.027762001530662127,0.7350862289878679,0.318527657449096,-0.6291195246157175,-0.384686682147899,0.019038600449093713,0.09493968457614632,0.0755431205034256,-0.14755335450172424,0.005935424938797951,0.09581612050533295,0.09176821261644363,0.9790546894073486,-0.021237937733530998,-0.012759932316839695,0.43902668356895447,0.9680392146110535,-0.9851383566856384,0.012905138544738293
0.22,0.14043720066547394,0.1287328600883484,0.004780772142112255,-0.10178570449352264,-0.023136984556913376,0.036198876798152924,0.7392623424530029,0.2769283652305603,-0.6632840037345886,-0.04760599136352539,-0.016426771879196167,0.24562910199165344,0.12513338635594606,0.06832628136557471,-0.03059128546823863,0.04354824670196358,-0.011656298531048903,0.030703999722215974,0.740145085478815,0.2766859254980177,-0.6500514627678708,-0.36818153497793343,0.006211032779778004,0.09961920759513174,0.07239775359630585,-0.2035714089870453,0.09746571630239487,0.05385672673583031,0.2447880208492279,0.9825164079666138,-0.04627396911382675,0.00956154428422451,0.4408743977546692,0.9785247445106506,-0.9865679740905762,-0.06570708751678467
0.24,0.1459791362285614,0.1629907190799713,0.007861040532588959,-0.11630615592002869,-0.0336652509868145,0.03285207599401474,0.7408334016799927,0.25466883182525635,-0.6628326177597046,-0.006618810817599297,-0.02252131886780262,0.24613483250141144,0.12542913060749408,0.10043880252859494,-0.03575392760357234,0.039184263045383166,-0.0218564475965028,0.03366284031600386,0.739241328677403,0.23609676064956542,-0.6578146007389184,-0.35293568913067475,-0.007226244937182519,0.10401318995010152,0.06570415198802948,-0.23261231184005737,0.1659814417362213,0.009337679482996464,0.3267623782157898,0.9845393300056458,-0.067330501973629,0.015722081065177917,0.4519582688808441,0.9816668033599854,-0.9856652617454529,-0.09008527547121048
0.26,0.15500624477863312,0.18501250445842743,0.0023675234988331795,-0.1178668737411499,-0.04273061454296112,0.029251249507069588,0.740772008895874,0.233513742685318,-0.6612516045570374,0.017024653032422066,-0.023651491850614548,0.24620163440704346,0.12908346786463593,0.12796945585677044,-0.03773778763280564,0.03366907481056248,-0.03210370267901671,0.035480576505521604,0.7384967676472557,0.20350071170288256,-0.6595472545638095,-0.3426033319113556,-0.01577971888994015,0.10808218505822159,0.058502499014139175,-0.2357337474822998,0.21002499759197235,-0.032972510904073715,0.3740493059158325,0.9848065376281738,-0.08546122908592224,0.004735046997666359,0.47001248598098755,0.9815440773963928,-0.9825032353401184,-0.09460596740245819
0.28,0.16534003615379333,0.19696711003780365,-0.007657770998775959,-0.11276506632566452,-0.05024440586566925,0.025830259546637535,0.7398030757904053,0.21666261553764343,-0.6584858894348145,0.03853151202201843,-0.023781070485711098,0.24578973650932312,0.13653104002588087,0.1498652653193209,-0.03757030128690565,0.027294511042981046,-0.04214795970800478,0.035870044609347326,0.7375763987804504,0.18002879136766034,-0.6586487502722915,-0.3378531850662688,-0.020056887149353535,0.11170311109681595,0.05166051909327507,-0.22553013265132904,0.233934223651886,-0.06667476147413254,0.41706302762031555,0.9831589460372925,-0.1004888117313385,-0.015315541997551918,0.490680068731308,0.9796060919761658,-0.9769718050956726,-0.09512428194284439
0.3,0.17496506869792938,0.20260566473007202,-0.0198031198233366,-0.10523255914449692,-0.05636255070567131,0.02230040356516838,0.7383152842521667,0.20552924275398254,-0.6544972062110901,0.06471209228038788,-0.023139307275414467,0.24502502381801605,0.14691632537662141,0.166769172284771,-0.03653061995709678,0.02030028136754736,-0.05122533002065644,0.0349954297898034,0.7355764361944788,0.1645850250736542,-0.6561553688916967,-0.33813197073468304,-0.02178977178742962,0.11476853137211938,0.04460080713033676,-0.21046511828899384,0.24521131813526154,-0.08894150704145432,0.46942418813705444,0.9801000952720642,-0.11272510141134262,-0.0396062396466732,0.5099301338195801,0.9766305685043335,-0.9689943790435791,-0.09255722910165787
0.32,0.182405486702919,0.20493443310260773,-0.03173983469605446,-0.09929880499839783,-0.06157739460468292,0.018412794917821884,0.7364445924758911,0.19970203936100006,-0.6494037508964539,0.09460829198360443,-0.02289711870253086,0.24417319893836975,0.15873838758495099,0.18002747479103498,-0.035901181901057115,0.012855013591693486,-0.05899859861297054,0.0332846289128639,0.7325454519263674,0.1557772657698034,-0.6524811923972268,-0.34267980609567716,-0.02239068513818118,0.11714163758989767,0.03682558983564377,-0.19859760999679565,0.24986885488033295,-0.10059592872858047,0.5292165875434875,0.976692795753479,-0.12315478920936584,-0.06347966939210892,0.5248109698295593,0.9728891253471375,-0.9588075280189514,-0.09158847481012344
0.34,0.1879948228597641,0.2060135304927826,-0.042771078646183014,-0.0967717096209526,-0.06628259271383286,0.014097068458795547,0.7342699766159058,0.19817441701889038,-0.6432520151138306,0.12638287246227264,-0.022781740874052048,0.24351021647453308,0.17069988297429636,0.190812872159619,-0.036708533013579146,0.005067318195875198,-0.06555230982789859,0.03117152097517031,0.7290031758812227,0.1521981225650496,-0.6477675387362136,-0.3507038431969721,-0.022629829939519643,0.1187414792672412,0.028194136917591095,-0.1935434192419052,0.25202706456184387,-0.10365115851163864,0.592765748500824,0.9740408658981323,-0.1325651854276657,-0.08554215729236603,0.5359896421432495,0.9685398936271667,-0.9465040564537048,-0.09112696349620819
0.36,0.19262827932834625,0.2074495255947113,-0.05299588665366173,-0.09826429188251495,-0.0704817920923233,0.00938541628420353,0.7317603826522827,0.200663760304451,-0.6358354687690735,0.16051791608333588,-0.022816378623247147,0.24312791228294373,0.1819109599124921,0.1999481014418536,-0.03960723283344689,-0.003015348972010396,-0.07097141425358486,0.028930764700665496,0.7253462097411627,0.1524919876778413,-0.6419556716679956,-0.36144155029660185,-0.022792907541572,0.11952840878325498,0.01877083256840706,-0.1965285837650299,0.2548990547657013,-0.09867247939109802,0.6610358357429504,0.9725116491317749,-0.1409635841846466,-0.10599177330732346,0.5452565550804138,0.9635208249092102,-0.9316709637641907,-0.09126551449298859
0.38,0.19681917130947113,0.21015802025794983,-0.06349886953830719,-0.10365746170282364,-0.0739666149020195,0.004304675385355949,0.7287389636039734,0.20756369829177856,-0.6267245411872864,0.19747363030910492,-0.023277871310710907,0.2429475486278534,0.19172916778189542,0.20790555617721115,-0.0449885619665292,-0.011434634765831987,-0.07524236815133538,0.02664452351358467,0.7216569691258222,0.15590078155847226,-0.6347936485723681,-0.374463653346365,-0.023068286282500655,0.11947755036402986,0.008609350770711899,-0.20731492340564728,0.26031604409217834,-0.08487258851528168,0.7349472641944885,0.9717901945114136,-0.147933229804039,-0.12699773907661438,0.5536383390426636,0.9574779272079468,-0.9134490489959717,-0.09311148524284363
0.4,0.20052023231983185,0.21366116404533386,-0.0754258930683136,-0.11175467818975449,-0.07623189687728882,-0.0013534703757613897,0.7248035073280334,0.21971821784973145,-0.615588366985321,0.23614601790905,-0.023832298815250397,0.24276678264141083,0.19974574498459588,0.21472296050760642,-0.05306500042862226,-0.020265530652288224,-0.07815250856992877,0.024103271844023885,0.7176931469253907,0.1626543435671116,-0.6259381920273064,-0.3898768952373959,-0.023495406137221984,0.11857782638179648,-0.0027069407515227795,-0.22350935637950897,0.2673223316669464,-0.06056355684995651,0.8122920393943787,0.9710671305656433,-0.15246379375457764,-0.1508517861366272,0.561040461063385,0.9496070146560669,-0.891176700592041,-0.09532919526100159
0.42,0.203175887465477,0.2156776636838913,-0.09054309129714966,-0.11971934139728546,-0.07660776376724243,-0.007802273146808147,0.7191216349601746,0.23806409537792206,-0.6015802025794983,0.27162230014801025,-0.02437630668282509,0.24238194525241852,0.20553669654114692,0.21951580514167318,-0.06381317497885985,-0.029126071320640486,-0.07910459338198038,0.018318750067883915,0.7125759879831707,0.17453225642774836,-0.6149025075771959,-0.4087495695994422,-0.023998126796946566,0.11686052248638659,-0.015604546293616295,-0.23943868279457092,0.2713553309440613,-0.02387179620563984,0.8832445740699768,0.9695277810096741,-0.15321552753448486,-0.18108618259429932,0.5663517713546753,0.9382432699203491,-0.8631604313850403,-0.09750522673130035
0.44,0.21068181097507477,0.21778687834739685,-0.11231867969036102,-0.12279682606458664,-0.07536019384860992,-0.01539069414138794,0.7105740308761597,0.26506507396698,-0.5813606381416321,0.2972165048122406,-0.024961503222584724,0.2408992350101471,0.2094324497191981,0.2205696221293191,-0.07680611410327198,-0.037161903027508415,-0.07885675426620703,0.007985928969980297,0.70589910995271,0.19352665081516274,-0.6002260319404402,-0.43084300511763035,-0.02458308108751989,0.11521379518886177,-0.03078138828277588,-0.24559365212917328,0.2755737602710724,0.030130159109830856,0.9344329833984375,0.9635969400405884,-0.15072038769721985,-0.22463735938072205,0.5813636183738708,0.9211480617523193,-0.8227212429046631,-0.0998460128903389
0.46,0.22313548624515533,0.21853676438331604,-0.13602769374847412,-0.12382017821073532,-0.07182948291301727,-0.025104254484176636,0.6943668127059937,0.30276864767074585,-0.5480077266693115,0.31274405121803284,-0.02291085198521614,0.23899175226688385,0.2122052954681278,0.21672222457855925,-0.0916740630176844,-0.044001830327931875,-0.077204811145697,-0.004315212156586938,0.6953818722650094,0.22122711906337206,-0.5781896540361562,-0.4545992272895227,-0.024659280676169966,0.11462432928329117,-0.05020850896835327,-0.24764035642147064,0.27707353234291077,0.1055373102426529,0.965488076210022,0.9559670090675354,-0.14365896582603455,-0.27205538749694824,0.606270968914032,0.8887335658073425,-0.7560154795646667,-0.09164340794086456
0.48,0.2314779907464981,0.2065865397453308,-0.15332330763339996,-0.12060680985450745,-0.06425625085830688,-0.03758211061358452,0.6616454124450684,0.3512091040611267,-0.5042893886566162,0.3215482532978058,-0.022902384400367737,0.23690196871757507,0.21370591794562466,0.20575734347233082,-0.10673470902126028,-0.04848803665058442,-0.07160969265844129,-0.018393346807589632,0.6730247715529097,0.2609865429255138,-0.5462511728643865,-0.47859812194029977,-0.024480105309347498,0.11534089125542925,-0.07516422122716904,-0.2412136197090149,0.2531730830669403,0.2024182230234146,0.9830964803695679,0.9476078748703003,-0.12851250171661377,-0.3066466152667999,0.6229559779167175,0.8232908248901367,-0.6685788035392761,-0.09160953760147095
0.5,0.2343227118253708,0.17976811528205872,-0.15613436698913574,-0.10660029202699661,-0.05305091664195061,-0.051806773990392685,0.6028955578804016,0.4151003360748291,-0.45392170548439026,0.32559746503829956,-0.030943650752305984,0.2333514392375946,0.2126352185232278,0.1847955887676182,-0.11796415074926961,-0.04757342602024509,-0.061246719421754456,-0.0344174000309381,0.628347451058689,0.317396701082286,-0.5049142457511624,-0.5002824435417224,-0.026636650926115918,0.11944307334657425,-0.10361354798078537,-0.21320058405399323,0.19953623414039612,0.3302006423473358,0.9911949038505554,0.9334057569503784,-0.10610183328390121,-0.3122687339782715,0.6286454200744629,0.7057911157608032,-0.5678434371948242,-0.12377460300922394
0.52,0.2350868433713913,0.1463814228773117,-0.1274925023317337,-0.07187572866678238,-0.042724840342998505,-0.06410547345876694,0.5147702693939209,0.4998435974121094,-0.3792833089828491,0.3266988694667816,-0.06043203920125961,0.21852253377437592,0.20703542815472764,0.1528208309711319,-0.1176033382138725,-0.035245856411345665,-0.04884669172906813,-0.05169922546502997,0.5554093261045452,0.39469375641328625,-0.45025254817347204,-0.5134282352892209,-0.03833240599882421,0.1253953793115186,-0.12821094691753387,-0.14375145733356476,0.1327628493309021,0.49968719482421875,0.9933977127075195,0.8740901350975037,-0.08544968068599701,-0.2549850046634674,0.6301736831665039,0.5295405387878418,-0.41856661438941956,-0.24172815680503845
0.54,0.22744067013263702,0.10560598224401474,-0.06928998976945877,-0.006020260043442249,-0.040382396429777145,-0.07263382524251938,0.4286244213581085,0.6061049699783325,-0.2831310033798218,0.3208620250225067,-0.12353213131427765,0.16617755591869354,0.19679773541291212,0.11245521278001763,-0.09838745828891382,-0.006852226695843597,-0.04983158692523303,-0.06685609515070903,0.48341634244829274,0.4966698975696423,-0.3575921858845341,-0.5096011568019733,-0.06196842163484716,0.12374573225727989,-0.14526765048503876,-0.012040520086884499,0.05121196433901787,0.712209939956665,0.9817240238189697,0.6647102236747742,-0.08076479285955429,-0.13857997953891754,0.6148813366889954,0.35724884271621704,-0.22626203298568726,-0.4941285252571106
0.56,0.2223581224679947,0.06974972039461136,-0.03246269375085831,0.09696987271308899,-0.0427689254283905,-0.07893442362546921,0.4539938271045685,0.6967605352401733,-0.3818335235118866,-0.19160431623458862,-0.18547150492668152,0.07005888223648071,0.186568924634162,0.07269499053743324,-0.07016152591917754,0.016294387473041086,-0.04275082040531719,-0.07902785410112796,0.5008930876836942,0.6173180200745064,-0.35743636969041986,-0.4897373895095832,-0.05551094788420334,0.10977044150159199,-0.15786884725093842,0.19393974542617798,-0.020500551909208298,0.8935210704803467,-0.04320863261818886,0.28023552894592285,-0.085537850856781,-0.06492538750171661,0.6047162413597107,0.40798765420913696,-0.4236670732498169,-0.7418860197067261
0.58,0.12948136031627655,-0.05806010961532593,0.016266828402876854,0.07985322177410126,-0.05216291919350624,-0.07880622893571854,0.46139514446258545,0.7185333371162415,-0.04866147041320801,-0.6637507677078247,-0.22373735904693604,0.033049326390028,0.17377645935964445,0.03015607782371857,-0.05124671196810403,0.031000251572235203,-0.032386685941369245,-0.07791657970840321,0.4967138844132788,0.7108939074382371,-0.36987432337123705,-0.5299270177879255,-0.043527061182860406,0.08228277685163324,-0.15761245787143707,0.15970644354820251,-0.27612021565437317,0.9370666742324829,-0.9875015616416931,0.132197305560112,-0.10432583838701248,0.03253365680575371,0.4189627170562744,0.4227902591228485,0.24267706274986267,-0.8949494361877441
0.6,0.04906134307384491,-0.09626458585262299,0.06951988488435745,0.04787801578640938,-0.05581111088395119,-0.06802991777658463,0.4697393774986267,0.7405029535293579,0.20354099571704865,-0.6674937605857849,-0.2221948355436325,0.02871028706431389,0.14428794207524326,-0.0014202835853667694,-0.040147830788254624,0.04181749761987338,-0.031625040332007213,-0.07090056334632043,0.4602723935102887,0.7535068931372386,-0.36345750270748894,-0.5955116623890498,-0.030052235457563123,0.054418990657775106,-0.13605983555316925,0.09575603157281876,-0.3525291681289673,0.9810059070587158,-0.9949874877929688,0.11484114825725555,-0.11162222176790237,0.1390397697687149,0.25812268257141113,0.4394787549972534,0.747081995010376,-0.88877934217453
0.62,0.016933782026171684,-0.07157136499881744,0.11089877039194107,0.035799480974674225,-0.057005565613508224,-0.05143716186285019,0.44583749771118164,0.7436222434043884,0.25751474499702454,-0.6672807335853577,-0.23410993814468384,0.025714203715324402,0.10282316173698383,-0.020254507545894928,-0.029332608284214995,0.05207607272933834,-0.042157723649073504,-0.06020006456363264,0.4178958953076053,0.7575652048521172,-0.3514884249791466,-0.6358220668440923,-0.02335235757309078,0.037604530718672896,-0.10287432372570038,0.07159896194934845,-0.3031427264213562,0.9872444868087769,-0.9945614337921143,0.10285681486129761,-0.11401113122701645,0.22179754078388214,0.19386756420135498,0.3916749954223633,0.8550294637680054,-0.9364397525787354
0.64,0.040124550461769104,-0.0357493981719017,0.13158361613750458,0.04437752440571785,-0.055138371884822845,-0.03629270941019058,0.3953896760940552,0.7430295944213867,0.22799180448055267,-0.6659764051437378,-0.24292050302028656,0.014812762849032879,0.06563047814775622,-0.037402232378244415,-0.016875055792890344,0.062490841667792146,-0.05283317634316073,-0.04721031324683052,0.3842398930771636,0.7423041775747626,-0.3435019894122952,-0.6543249690449862,-0.024734977990262107,0.02604777919651127,-0.07258541882038116,0.0887550488114357,-0.23149879276752472,0.9860591888427734,-0.9919527769088745,0.059251051396131516,-0.11027674376964569,0.26316723227500916,0.24024909734725952,0.29077935218811035,0.795983612537384,-0.9716820120811462
0.66,0.05386221408843994,-0.04286307096481323,0.13959765434265137,0.04103802517056465,-0.05052916705608368,-0.01841489039361477,0.345292866230011,0.7432547211647034,0.15973298251628876,-0.6657686829566956,-0.24544760584831238,0.010706514120101929,0.038509467191640404,-0.060955769562712536,-0.005642282444238417,0.07011479824506439,-0.05555937507264956,-0.031757130179702664,0.35475958150256715,0.7282208510108071,-0.339338441012372,-0.6617688808381262,-0.03155110375359237,0.017501403942294838,-0.03682978078722954,0.0820760503411293,-0.24572613835334778,0.9865094423294067,-0.99153733253479,0.042826056480407715,-0.10105833411216736,0.27919530868530273,0.2677244246006012,0.19058571755886078,0.6594659686088562,-0.9817904233932495
0.68,0.04893076419830322,-0.07815626263618469,0.1420457661151886,0.03641455993056297,-0.04294967278838158,0.0017391251167282462,0.3096882104873657,0.7442399263381958,0.10908253490924835,-0.6663633584976196,-0.24626891314983368,0.00381131237372756,0.02040132031185255,-0.09010819662808413,0.0018735752671798149,0.07220113161125691,-0.04921687813518868,-0.013125133505838717,0.3254622660248715,0.7233564614208076,-0.3331902895312844,-0.6646909924898166,-0.03356659580999307,0.010495047845718534,0.0034782502334564924,0.07282911986112595,-0.3163125216960907,0.9884798526763916,-0.9927266836166382,0.01524524949491024,-0.08589934557676315,0.2840915322303772,0.25786152482032776,0.11937642842531204,0.5581650733947754,-0.9850756525993347
0.7000000000000001,0.026490500196814537,-0.13074232637882233,0.15580245852470398,0.028204064816236496,-0.03231768310070038,0.0298292338848114,0.27771347761154175,0.7451075315475464,0.07542389631271362,-0.6659965515136719,-0.246909961104393,-0.0045309229753911495,0.00652054847084469,-0.12342937688712104,0.008137104101925363,0.07046643652406116,-0.043981720534571694,0.013148639242427464,0.290769327851306,0.726657622824826,-0.32392235297811267,-0.6654132979522196,-0.03209061575817254,0.0033368950375908886,0.0596584677696228,0.05640812963247299,-0.42148464918136597,0.990215003490448,-0.9919931292533875,-0.018123691901564598,-0.06463536620140076,0.31160491704940796,0.21298100054264069,0.05542697757482529,0.49084779620170593,-0.987639844417572
0.72,0.01204206608235836,-0.16447652876377106,0.15729713439941406,0.029026063159108162,-0.01988152787089348,0.055178381502628326,0.2523014545440674,0.7456077933311462,0.07936078310012817,-0.6654625535011292,-0.2475120574235916,-0.007386769168078899,-0.005789602390538494,-0.15566761479104677,0.015062254864629454,0.06628741942240829,-0.03898419873332882,0.040778794832844634,0.25482192584941277,0.7303524255426223,-0.31421546878996603,-0.665147407702577,-0.029114580065446347,-0.002505066110092785,0.11035676300525665,0.058052126318216324,-0.4889530539512634,0.9912155866622925,-0.990925133228302,-0.029547076672315598,-0.03976305574178696,0.3145942687988281,0.18408413231372833,0.0046028983779251575,0.49872156977653503,-0.9900482296943665
0.74,0.0020610447973012924,-0.19098998606204987,0.1546630859375,0.0333578996360302,-0.008283893577754498,0.07851161062717438,0.22545793652534485,0.7456303238868713,0.0888979583978653,-0.6638567447662354,-0.24770556390285492,-0.009914026595652103,-0.016552221149855946,-0.1849796802266287,0.022911676744326172,0.060860216031027994,-0.03346877664012025,0.06712639745913201,0.22141371454819436,0.7316564475265059,-0.30634343001600284,-0.6642104176086008,-0.027539181603388578,-0.006462838518383681,0.15702322125434875,0.0667157992720604,-0.541979968547821,0.9912606477737427,-0.9877134561538696,-0.039656106382608414,-0.016567787155508995,0.309326171875,0.1641220897436142,-0.04908411204814911,0.5177959203720093,-0.9908222556114197
0.76,-0.005784908309578896,-0.2117643803358078,0.15034039318561554,0.0363280326128006,0.002377269556745887,0.09881536662578583,0.20190483331680298,0.7454032897949219,0.10515259206295013,-0.6615226864814758,-0.24779894948005676,-0.011660078540444374,-0.026195749859725868,-0.21085087756675017,0.0311773240632664,0.054820039853676866,-0.026919478904578745,0.09057514043031269,0.19165943139793998,0.7314259936749272,-0.30102074633439885,-0.6626918783907171,-0.02882141355113752,-0.009060177694214638,0.19763073325157166,0.0726560652256012,-0.5835287570953369,0.990806519985199,-0.9830453395843506,-0.046640314161777496,0.004754539113491774,0.3006807863712311,0.14843018352985382,-0.09619033336639404,0.550305187702179,-0.991195797920227
0.78,-0.014812754467129707,-0.22971101105213165,0.1472771167755127,0.036128442734479904,0.011674150824546814,0.11604801565408707,0.18400749564170837,0.7447375059127808,0.12417767941951752,-0.657667875289917,-0.24785608053207397,-0.011305717751383781,-0.03497577420399456,-0.23281578337956488,0.039196428133925,0.048462259129692396,-0.019640923077685283,0.11035446298026316,0.166550816356294,0.7309697992799595,-0.29874156956353015,-0.6603126988715157,-0.033322149921514325,-0.010278784124901352,0.23209603130817413,0.07225688546895981,-0.6194220185279846,0.9894749522209167,-0.9753357768058777,-0.045222871005535126,0.023348301649093628,0.2945542335510254,0.1303744912147522,-0.13198502361774445,0.5883553624153137,-0.9914243221282959
0.8,-0.02675476111471653,-0.24613775312900543,0.14547382295131683,0.0320793054997921,0.019056493416428566,0.13015685975551605,0.17234942317008972,0.743340790271759,0.14086027443408966,-0.6508278250694275,-0.2478666454553604,-0.007334655150771141,-0.04312723390287092,-0.2505092145475051,0.04640545602141583,0.041758681251012536,-0.01212032868782729,0.12630728743307149,0.14685110066995605,0.7308099731789337,-0.2998414657210528,-0.6562334753393526,-0.04035980888870277,-0.009575064709619973,0.2603137195110321,0.0641586109995842,-0.6522755026817322,0.9866815805435181,-0.9616556763648987,-0.029338620603084564,0.03811298683285713,0.29094764590263367,0.10649047791957855,-0.15530113875865936,0.621720552444458,-0.9914665818214417
0.8200000000000001,-0.04227493703365326,-0.2605566084384918,0.14451010525226593,0.025570517405867577,0.02408277802169323,0.14124776422977448,0.16777414083480835,0.7409212589263916,0.15289436280727386,-0.6394192576408386,-0.24786131083965302,-0.0004806887009181082,-0.05105792464015784,-0.26353323794574235,0.052414187817551174,0.03452053449353799,-0.004869522045644287,0.13869899600044666,0.13327378856900243,0.7306660020841921,-0.3046378814781194,-0.6491896302774967,-0.04867185296430348,-0.006252266184189917,0.28249552845954895,0.05114103481173515,-0.6811132431030273,0.981842577457428,-0.938838541507721,-0.001922754803672433,0.04816555604338646,0.28902021050453186,0.0754501223564148,-0.1644517183303833,0.6457887291908264,-0.9914452433586121
0.84,-0.06098974123597145,-0.2722542881965637,0.14415240287780762,0.018003590404987335,0.026702778413891792,0.14970357716083527,0.17090341448783875,0.7368346452713013,0.1588345319032669,-0.6218624114990234,-0.24778178334236145,0.008375369943678379,-0.05915230041334291,-0.27163924263754474,0.057095774426931735,0.02669821615973892,0.0017007817264526213,0.14808180117426228,0.1267066670422884,0.7297920858610155,-0.3135557243278586,-0.6377069795712271,-0.05680001369266556,-0.00029346657353380274,0.29940715432167053,0.03600718080997467,-0.7045086026191711,0.9736692905426025,-0.9037247896194458,0.033501479774713516,0.053405556827783585,0.28830480575561523,0.03802051395177841,-0.1581931859254837,0.6576690673828125,-0.9911271333694458
0.86,-0.08123122900724411,-0.2803477644920349,0.14493592083454132,0.010535497218370438,0.027444737032055855,0.15523174405097961,0.1826465129852295,0.7298829555511475,0.1608540266752243,-0.596402108669281,-0.24758487939834595,0.019432391971349716,-0.06749647458358585,-0.27486149582180597,0.060673983543507615,0.018498895475154722,0.007329117857599513,0.15457765945401225,0.12823165514416726,0.7268569163677854,-0.32711606671567683,-0.6201783113799278,-0.06342641507701963,0.008068154577801344,0.31046348810195923,0.021070994436740875,-0.7206955552101135,0.9597659111022949,-0.8528041839599609,0.07772956788539886,0.05488947406411171,0.28987184166908264,-0.0024624636862426996,-0.13470695912837982,0.6617080569267273,-0.9903395175933838
0.88,-0.09963980317115784,-0.2840062081813812,0.14521050453186035,0.004068299662321806,0.027028482407331467,0.15707434713840485,0.2044995129108429,0.7181097269058228,0.1679539531469345,-0.5640594959259033,-0.2472173273563385,0.03015083819627762,-0.07547897856759124,-0.2736507067359692,0.06347449051914422,0.010206658612968184,0.011765423541815256,0.15772686121763824,0.13932367091167094,0.7199352529375067,-0.34600491155677965,-0.5957788333827214,-0.06828538367824151,0.017912680805154943,0.3141486942768097,0.008136599324643612,-0.7280124425888062,0.9362193942070007,-0.7881190180778503,0.12060335278511047,0.05405696481466293,0.2904210090637207,-0.03927960619330406,-0.09100097417831421,0.6759079098701477,-0.988869309425354
0.9,-0.11314981430768967,-0.2827511429786682,0.13878501951694489,-0.001576578477397561,0.026469634845852852,0.15540491044521332,0.2388109415769577,0.6976046562194824,0.18690888583660126,-0.5285401344299316,-0.24618233740329742,0.04391690716147423,-0.08190004853671878,-0.2684972211049347,0.06490983049020428,0.0014551107885481225,0.01517675288395056,0.157605296963818,0.16200309468028404,0.70596832195766,-0.37027131929060114,-0.5654866159336212,-0.0722345668200056,0.02934445785586414,0.31080982089042664,-0.003153156954795122,-0.7255023121833801,0.8952093720436096,-0.717080295085907,0.1756676286458969,0.052939269691705704,0.27757003903388977,-0.06629962474107742,-0.022378122434020042,0.7138177752494812,-0.9847293496131897
0.92,-0.11925286799669266,-0.2760527729988098,0.117706298828125,-0.009994854219257832,0.027073340490460396,0.1497962921857834,0.2921905517578125,0.6558601260185242,0.21001599729061127,-0.4761480391025543,-0.24232147634029388,0.07117745280265808,-0.08432414687174856,-0.2588272502782428,0.06206298178482192,-0.010480364343516761,0.018801701265904927,0.1542032325829566,0.20073822251725842,0.676738504897615,-0.39647859016454123,-0.5263246105693233,-0.07299182385573541,0.04640393559255101,0.2995925843715668,-0.019989708438515663,-0.7121055722236633,0.8117202520370483,-0.6122961044311523,0.2847098112106323,0.05414668098092079,0.23541259765625,-0.0785057321190834,0.08438112586736679,0.7600319981575012,-0.9692859053611755
0.9400000000000001,-0.11312714964151382,-0.25692567229270935,0.07439865171909332,-0.031043682247400284,0.028863845393061638,0.14073854684829712,0.3790172040462494,0.5747780799865723,0.21616949141025543,-0.3934512734413147,-0.22371409833431244,0.1309385895729065,-0.07831830425345288,-0.24059106281359,0.0505877641750954,-0.03007570392795347,0.024517324063770746,0.14703897562363888,0.26680695732174226,0.6165985954086677,-0.42236785960415946,-0.46972402040453975,-0.06966414791582325,0.07931714195352509,0.28147709369659424,-0.06208736449480057,-0.6738513708114624,0.6495561599731445,-0.4469025731086731,0.523754358291626,0.057727690786123276,0.14879730343818665,-0.06625429540872574,0.2580344080924988,0.7723389863967896,-0.8948563933372498
0.96,-0.07354231923818588,-0.22080306708812714,-0.0067344713024795055,-0.06361368298530579,0.03001759573817253,0.12623700499534607,0.48561185598373413,0.5033013820648193,0.15097026526927948,-0.3490852117538452,-0.1084011122584343,0.1961042433977127,-0.05579808405625888,-0.2116632800139364,0.03898121514237048,-0.05067604827503547,0.03176787484367431,0.13767196533442885,0.3699228007952489,0.5904410783080917,-0.4406315888963417,-0.47945551168575756,-0.04846554800837941,0.06751394561009613,0.25247400999069214,-0.12722736597061157,-0.6016061305999756,0.5066027045249939,-0.35817044973373413,0.7844169735908508,0.06003519147634506,-0.013468942604959011,0.012915357016026974,0.47122371196746826,0.6419405341148376,-0.4336044490337372
0.98,-0.0101586002856493,-0.1645442098379135,-0.10516514629125595,-0.02348325029015541,0.0296467337757349,0.10477112233638763,0.5622376203536987,0.5268978476524353,-0.604774534702301,-0.04151080548763275,0.06935536861419678,0.22111524641513824,-0.024439770065121578,-0.1790756033089977,0.030175584892797452,-0.05640600095061785,0.02384841437655992,0.1279875119983156,0.5026847525912312,0.5725809942060671,-0.4937604986304212,-0.48116663498419165,-0.00597706459106196,0.04665910714111432,0.20954224467277527,-0.04696650058031082,-0.48908841609954834,0.5537956953048706,0.2569783926010132,0.884460985660553,0.0592934675514698,-0.2103302925825119,0.139682799577713,0.6244751811027527,-0.8695490956306458,0.2774214744567871
1.0,0.039466165006160736,-0.05226843059062958,-0.013811159878969193,-0.07958071678876877,0.015714358538389206,0.09994495660066605,0.660715639591217,0.5284419655799866,-0.6533828377723694,0.16202832758426666,0.009137381799519062,0.21654629707336426,-0.0022709328415493864,-0.13086753465093537,0.024661500903700003,-0.048745568936716034,0.013696047807037016,0.11059977867751901,0.628040655222537,0.5356043685128952,-0.5659155394931865,-0.47011960042146317,0.014901948150506765,0.04105160153347053,0.1998899132013321,-0.15916143357753754,-0.26453685760498047,0.5568839311599731,0.664056658744812,0.866185188293457,0.03142871707677841,-0.027622319757938385,0.23893232643604279,0.8214312791824341,-0.9667657017707825,0.03654952719807625
1.02,0.026335498318076134,-0.0003082510957028717,0.009133603423833847,-0.12149698287248611,0.0075352992862463,0.09433797001838684,0.699439287185669,0.5018919706344604,-0.6605582237243652,0.202177956700325,-0.0015250291908159852,0.23766618967056274,0.006101366854175536,-0.07892363728064392,0.017147438240241907,-0.038215283475972986,0.008813336141629944,0.09646649951309244,0.6993301571334274,0.492357155941191,-0.6160870031682344,-0.45349075668647865,0.011489161026213796,0.03884018210208124,0.18867594003677368,-0.24299396574497223,-0.16061650216579437,0.5037839412689209,0.7443559169769287,0.950664758682251,0.0150705985724926,0.018267206847667694,0.21267099678516388,0.8988785147666931,-0.9811164140701294,-0.006100116763263941
1.04,0.015410071238875389,0.03645683079957962,0.02643207274377346,-0.16634704172611237,-0.004739859141409397,0.08916459232568741,0.719947338104248,0.4627954959869385,-0.6634736657142639,0.18385960161685944,-0.014781036414206028,0.24596714973449707,0.008969447188469919,-0.030370507432573534,0.004198188493102521,-0.03273708419211026,0.0028834069219355885,0.0902459162242149,0.7229015042230265,0.448787906326189,-0.6424799841925456,-0.43902664580942724,0.0011728576510007431,0.03934465153592826,0.17832918465137482,-0.33269408345222473,-0.08708633482456207,0.42559099197387695,0.7077192068099976,0.9838685989379883,-0.009479718282818794,0.05286414548754692,0.1908201426267624,0.9398947358131409,-0.9869473576545715,-0.05912414565682411
1.06,0.001411302131600678,0.05467398837208748,0.03035210631787777,-0.19202932715415955,-0.010490485467016697,0.08407870680093765,0.7264084815979004,0.42569494247436523,-0.6639237403869629,0.18125341832637787,-0.02412085421383381,0.24851123988628387,0.011822326888088151,0.012431148785882772,-0.009730465905751485,-0.032600319884640155,-0.0006366688712695846,0.08824957542459162,0.7237277575419387,0.4097414940243494,-0.6545962530881251,-0.4290445772598756,-0.009849180251975054,0.03907025991632613,0.1681574136018753,-0.3840586543083191,-0.050652023404836655,0.3513898551464081,0.7025068402290344,0.9940449595451355,-0.020980970934033394,0.06070421263575554,0.16282260417938232,0.952816903591156,-0.9878475069999695,-0.09648341685533524
1.08,0.001860549789853394,0.07416841387748718,0.026233939453959465,-0.20362116396427155,-0.015437114983797073,0.0802152156829834,0.7277218103408813,0.39586788415908813,-0.6632475852966309,0.17286472022533417,-0.028747480362653732,0.24919506907463074,0.016833790472501033,0.04847493858666125,-0.021738007666726546,-0.03591322276251743,-0.0039002201064984392,0.08789068106721513,0.7191953293417833,0.3777601942507396,-0.6594185850556504,-0.42435403139949296,-0.018494386654966243,0.03782425713523156,0.1604304313659668,-0.4072423279285431,-0.011663171462714672,0.29173579812049866,0.685729444026947,0.996780276298523,-0.030874229967594147,0.05246787890791893,0.16372109949588776,0.9554436206817627,-0.9864951372146606,-0.11498992145061493
1.1,0.014379573985934258,0.09654276072978973,0.019911136478185654,-0.2091035395860672,-0.021037807688117027,0.07731516659259796,0.7266882658004761,0.3733980059623718,-0.6615884900093079,0.16406403481960297,-0.029642103239893913,0.2494455873966217,0.024748537202882392,0.07840144765946255,-0.03064652492825822,-0.04140744280332442,-0.008900415927049968,0.0876052207382329,0.7163278752267962,0.3519581893844698,-0.6605731885202892,-0.42505417642333615,-0.023717339524861054,0.036625894372741635,0.15463033318519592,-0.4182070791721344,0.033085525035858154,0.24679598212242126,0.6681280732154846,0.9977823495864868,-0.042075615376234055,0.03982227295637131,0.18875914812088013,0.9533764719963074,-0.9831770062446594,-0.11856841295957565
1.12,0.03431854397058487,0.12143436074256897,0.0128608588129282,-0.2126452475786209,-0.027985751628875732,0.07450642436742783,0.7239112257957458,0.35682377219200134,-0.6585301756858826,0.1594165712594986,-0.030062323436141014,0.24956847727298737,0.034354431055300824,0.10272107352541972,-0.03492981678414874,-0.04709500962959757,-0.016199561164825453,0.08324672247540281,0.7146349304342613,0.3322715171479252,-0.6595747917183217,-0.4249625603232524,-0.02637861315589748,0.027342345802562867,0.14901284873485565,-0.4252904951572418,0.08286872506141663,0.2136475294828415,0.6588331460952759,0.9982739090919495,-0.055971503257751465,0.0257217176258564,0.22863708436489105,0.9478224515914917,-0.9770603775978088,-0.12024929374456406
1.1400000000000001,0.061925068497657776,0.15096864104270935,0.009663700126111507,-0.22159965336322784,-0.03715040162205696,0.06957172602415085,0.7199307084083557,0.3414975702762604,-0.6533974409103394,0.14075146615505219,-0.02784825675189495,0.2496923804283142,0.04639393342611204,0.12404347348600737,-0.036741119402658076,-0.05430072735060357,-0.026011674388199353,0.07844351606672037,0.7133661493700517,0.31389847647289626,-0.6564805891782832,-0.4252884671300425,-0.027100583031255714,0.019044593289919073,0.1391434520483017,-0.4431993067264557,0.1419372707605362,0.18299515545368195,0.6215029358863831,0.9987695217132568,-0.07430080324411392,0.019327400252223015,0.28385013341903687,0.9398614168167114,-0.9667948484420776,-0.1113930270075798
1.16,0.08409492671489716,0.17164994776248932,0.0031948171090334654,-0.22629275918006897,-0.043349023908376694,0.06169803440570831,0.7154691815376282,0.3316764831542969,-0.6466445326805115,0.1441691368818283,-0.025231361389160156,0.24975377321243286,0.06070404659176556,0.1429178084441533,-0.03694449698652995,-0.06361560379469476,-0.034607577626211014,0.07287274996840214,0.7108451791209209,0.29720906639122774,-0.6514790780525546,-0.4268194684281107,-0.026343194782364635,0.013653635927706444,0.12339606881141663,-0.45258551836013794,0.18329989910125732,0.16335296630859375,0.6283382773399353,0.9990150928497314,-0.08669804781675339,0.006389634218066931,0.3281898498535156,0.9309383630752563,-0.9532890319824219,-0.10092544555664062
1.18,0.10319642722606659,0.18351547420024872,-0.006904438603669405,-0.22634759545326233,-0.04826414957642555,0.0513419471681118,0.7089821100234985,0.3267849385738373,-0.6365249156951904,0.15705989301204681,-0.021489277482032776,0.2497684210538864,0.07681561322857541,0.15848280136234127,-0.03667539439638164,-0.07483733834407433,-0.04177406063524315,0.0665048962358612,0.7058718871866358,0.28507929335639415,-0.6443006366101737,-0.43112109107749824,-0.02431950181711857,0.01310751604155284,0.1026838943362236,-0.45269519090652466,0.20703093707561493,0.15356989204883575,0.6541197896003723,0.9990736842155457,-0.0965282991528511,-0.01380887720733881,0.3663928508758545,0.9179642200469971,-0.9330497980117798,-0.0859571099281311
1.2,0.11964869499206543,0.1854998767375946,-0.020655417814850807,-0.2225843071937561,-0.05170843377709389,0.039176326245069504,0.697151780128479,0.3297417163848877,-0.618530809879303,0.17616553604602814,-0.016223352402448654,0.24974608421325684,0.09418020837534322,0.16931115027318586,-0.03698795947381338,-0.08745328726594546,-0.047744432178192964,0.05885676847519195,0.6964020218804448,0.28061045270764895,-0.6330149827716424,-0.4398614598560973,-0.021020683537849576,0.018471321231516322,0.07835265249013901,-0.4451686143875122,0.2109997421503067,0.1594834178686142,0.692331075668335,0.9989843368530273,-0.10341686755418777,-0.041310835629701614,0.3992973864078522,0.8943035006523132,-0.8970615863800049,-0.06489340960979462
1.22,0.13521267473697662,0.17800138890743256,-0.0384247824549675,-0.2136242836713791,-0.0536404587328434,0.025169694796204567,0.6733242273330688,0.34572654962539673,-0.5833733081817627,0.20308004319667816,-0.011460636742413044,0.24965016543865204,0.11088056503011884,0.17238425602604882,-0.03785848940742708,-0.09983232390587647,-0.05210283139464444,0.043428833517875576,0.6775404466104507,0.2888473176897261,-0.6127321887036815,-0.4525943744863734,-0.016978206106406976,0.02518929931861659,0.050339389592409134,-0.4272485673427582,0.1960027813911438,0.19145308434963226,0.746160089969635,0.9986006617546082,-0.1072809174656868,-0.076849564909935,0.43042534589767456,0.8466483950614929,-0.8267465829849243,-0.045842546969652176
1.24,0.16414043307304382,0.1683567762374878,-0.058445680886507034,-0.19524487853050232,-0.05535202845931053,0.007749659009277821,0.6240549087524414,0.3798425793647766,-0.5108105540275574,0.21750347316265106,-0.009919334203004837,0.24938137829303741,0.12715403371404907,0.16449198084822936,-0.03876866890010269,-0.10996616259095827,-0.056847198985048225,0.02294074795655261,0.6417965600899763,0.3117203246539247,-0.5724528455302844,-0.4662657267773405,-0.01378468307327163,0.03374559841660546,0.015499318018555641,-0.39048975706100464,0.17671354115009308,0.2596851885318756,0.7750069499015808,0.9975255131721497,-0.11070405691862106,-0.11689136177301407,0.48828086256980896,0.748109757900238,-0.6816211342811584,-0.03967733681201935
1.26,0.18323753774166107,0.13862626254558563,-0.0653068795800209,-0.1496550738811493,-0.052139852195978165,-0.01554718054831028,0.533159077167511,0.4460271894931793,-0.4166368246078491,0.25142383575439453,-0.02904532477259636,0.24807633459568024,0.13970523223690123,0.14194234954878124,-0.03434656612070667,-0.11207528777417965,-0.05794469041689813,-0.003164851035892527,0.5736462685866606,0.35760809547739514,-0.5069504461983221,-0.47697091462525154,-0.018069003523749724,0.04597471541016949,-0.03109436109662056,-0.2993101477622986,0.11725253611803055,0.39205437898635864,0.8428476452827454,0.992305338382721,-0.10427970439195633,-0.1306137591600418,0.5264750719070435,0.566318154335022,-0.49327367544174194,-0.11618129909038544
1.28,0.189878448843956,0.08452240377664566,-0.02232009917497635,-0.06375201046466827,-0.04975751414895058,-0.040303897112607956,0.4254416227340698,0.5484349131584167,-0.3438320755958557,0.27027979493141174,-0.10099543631076813,0.23572668433189392,0.14143914693861828,0.09825011861959625,-0.019345773833129208,-0.10028940991724435,-0.0596312546362941,-0.030511866404134672,0.5239272766244341,0.4395940503407165,-0.4123182855348858,-0.47528265366810474,-0.008382924883488426,0.06571127720652221,-0.08060779422521591,-0.12750402092933655,0.009044813923537731,0.5968698263168335,0.8805595636367798,0.9429067373275757,-0.09951502829790115,-0.0446401983499527,0.5397568941116333,0.35088324546813965,-0.3476641774177551,-0.4039817452430725
1.3,0.20989038050174713,0.06517016887664795,0.0064187804237008095,0.04671985283493996,-0.05017772689461708,-0.06821097433567047,0.4592503309249878,0.6475198268890381,-0.1665782332420349,-0.44244641065597534,-0.1826764941215515,0.13605155050754547,0.13835767237074245,0.05130262508967251,-0.005303543037218688,-0.0775757318971414,-0.058943365440192956,-0.054241472191454504,0.5155730601887958,0.5629207253117278,-0.41745885425754653,-0.465679147207375,0.0007478989627661598,0.09776289617599153,-0.13642194867134094,0.09343970566987991,-0.029659658670425415,0.7950396537780762,-0.5448928475379944,0.5442062020301819,-0.10035545378923416,0.012837560847401619,0.5797807574272156,0.418500691652298,0.00684353755787015,-0.730705976486206
1.32,0.04780013859272003,-0.13607187569141388,0.07977966964244843,0.006937176454812288,-0.050027113407850266,-0.05692223086953163,0.47818803787231445,0.7133058309555054,0.12512777745723724,-0.6643208861351013,-0.1635657250881195,0.019351335242390633,0.12647262316269706,-0.0017915336792356533,0.0005852419764934133,-0.054586471954903015,-0.045046408652087144,-0.05154316215146871,0.4843146493003094,0.6932646075066551,-0.4123129743648941,-0.5191962335390105,-0.0023283985032516176,0.08392053823152493,-0.11384446173906326,0.013874352909624577,-0.4321437478065491,0.9266116619110107,-0.9886417984962463,0.07740534096956253,-0.10005422681570053,0.15955933928489685,0.2556002736091614,0.4563761055469513,0.5902555584907532,-0.654262900352478
1.34,0.012052981182932854,-0.12217941880226135,0.10247690975666046,0.023053176701068878,-0.050283536314964294,-0.059262748807668686,0.48835331201553345,0.7403643727302551,0.28980401158332825,-0.668062150478363,-0.1849323958158493,0.02039327844977379,0.09978894642698445,-0.03321105655754729,0.008266310612354296,-0.02475519938819166,-0.04102406973499398,-0.054689205332811436,0.44480903800046967,0.757000256274625,-0.4013887314204597,-0.5907715849934418,-0.00862783396458628,0.05278111174598709,-0.11852549761533737,0.046106353402137756,-0.404358834028244,0.9807287454605103,-0.996124267578125,0.08157311379909515,-0.10056707262992859,0.20495381951332092,0.18410596251487732,0.4767065942287445,0.9196079969406128,-0.7397295832633972
1.36,0.0032239537686109543,-0.08775350451469421,0.11937563866376877,0.020196128636598587,-0.05281560495495796,-0.046061210334300995,0.4509960114955902,0.7433013916015625,0.2852465808391571,-0.6680619120597839,-0.2080269306898117,0.030972765758633614,0.06860363387577643,-0.047733370556495534,0.014717529851750287,0.006240132264867234,-0.050348463829660246,-0.05250867303453521,0.411552271542761,0.7626748871858907,-0.3883885138075018,-0.6342376932260642,-0.019601450382739256,0.036762100378795334,-0.09212242066860199,0.040392257273197174,-0.33550700545310974,0.9866027235984802,-0.9961237907409668,0.12389106303453445,-0.10563120990991592,0.23875127732753754,0.16644790768623352,0.4019920229911804,0.9104931354522705,-0.8321077227592468
1.3800000000000001,0.02425873838365078,-0.04619342088699341,0.1468520164489746,0.03598540276288986,-0.055248286575078964,-0.0328601598739624,0.39913833141326904,0.7428507208824158,0.2507379353046417,-0.6666455864906311,-0.23786161839962006,0.015921471640467644,0.03943394236248331,-0.05747598091378653,0.01855982585211918,0.034295400318012266,-0.06079583872320538,-0.04302200144729539,0.38361877790173343,0.7438376629579505,-0.37627856274401317,-0.6544191159119563,-0.03723521008737001,0.0268394785190976,-0.0657203197479248,0.07197080552577972,-0.25238683819770813,0.9857014417648315,-0.9932911396026611,0.06368588656187057,-0.11049657315015793,0.2937040328979492,0.20851747691631317,0.2982766926288605,0.8414758443832397,-0.9514464735984802
1.4000000000000001,0.03825846314430237,-0.03641887009143829,0.16163812577724457,0.040439214557409286,-0.054850704967975616,-0.017544368281960487,0.3549036383628845,0.7428033351898193,0.20354421436786652,-0.6660963892936707,-0.24357052147388458,0.013250211253762245,0.01641805043538881,-0.07045781939583252,0.021267471942600976,0.05833726273207327,-0.06687761881671189,-0.03084938099680145,0.35658329662031135,0.7275486076061368,-0.36579536254969397,-0.6624384608158314,-0.05106825735200373,0.019044056368702683,-0.035088736563920975,0.08087842911481857,-0.2328377366065979,0.9856066107749939,-0.992192804813385,0.05300084501504898,-0.10970140993595123,0.32327625155448914,0.23651692271232605,0.20980727672576904,0.7470884323120117,-0.9742820858955383
1.42,0.03228854387998581,-0.055585891008377075,0.16870301961898804,0.038731031119823456,-0.0519576370716095,-9.043141290021595e-06,0.32308006286621094,0.7435630559921265,0.17236734926700592,-0.6664133071899414,-0.2449830174446106,0.00710736820474267,-0.00109235101802666,-0.08783129126584195,0.022823436384265754,0.07657671782444596,-0.06824249658796729,-0.016218729652974804,0.327439722333159,0.7229147646747436,-0.35795937993990445,-0.6653416103797879,-0.061037143036248714,0.012636033016782101,-1.808628258004319e-05,0.07746206223964691,-0.27117177844047546,0.9871260523796082,-0.9928265810012817,0.02842947281897068,-0.103915274143219,0.3374060392379761,0.22457708418369293,0.14616014063358307,0.6847347021102905,-0.9799320697784424
1.44,0.014140618965029716,-0.08338969945907593,0.17417827248573303,0.038599297404289246,-0.04707838594913483,0.018563540652394295,0.2973160445690155,0.744435727596283,0.1690075844526291,-0.6666381359100342,-0.2455166131258011,0.0002582285669632256,-0.015352554555640234,-0.10641821726438316,0.024035959716812338,0.08875892644167852,-0.06581595311914017,0.0009063022758470823,0.29597697874685164,0.7255246204917505,-0.35310957808523397,-0.6661279664106212,-0.06519827400367469,0.006221090619059105,0.03712708130478859,0.07719859480857849,-0.32677939534187317,0.9888714551925659,-0.9932762980461121,0.0010329142678529024,-0.09415677189826965,0.34835654497146606,0.18828123807907104,0.0946321114897728,0.6780151724815369,-0.9820664525032043
1.46,-0.008576760068535805,-0.1109066754579544,0.1778208166360855,0.03964879363775253,-0.04020896926522255,0.03789850324392319,0.27103888988494873,0.7452118396759033,0.18042956292629242,-0.6665939688682556,-0.24548663198947906,-0.004017099738121033,-0.028245896542761433,-0.12405087123600192,0.02583219530083022,0.0953779559571862,-0.060673986106429156,0.02008642767480598,0.26209938852319764,0.7297030518674328,-0.35107681540582997,-0.6661986559293669,-0.0634878444224026,0.00043154751916501345,0.07579700648784637,0.07929758727550507,-0.3818133473396301,0.9904236793518066,-0.9931879043579102,-0.01606839895248413,-0.0804179385304451,0.355641633272171,0.14284648001194,0.04207776486873627,0.7008591294288635,-0.9819465279579163
1.48,-0.030559787526726723,-0.13568828999996185,0.17875432968139648,0.04126507416367531,-0.031136615201830864,0.057046204805374146,0.24350516498088837,0.745846152305603,0.1958942860364914,-0.6663956046104431,-0.2451612651348114,-0.008083789609372616,-0.040074523761886055,-0.13991633927855834,0.026602701944888393,0.09483975276312614,-0.052081899914071556,0.040850903326025215,0.22720804641199657,0.7328124129507942,-0.3440001596566093,-0.665910577504869,-0.04659785772751837,-0.0043629628248110525,0.11409240961074829,0.08253014832735062,-0.431376576423645,0.9916923642158508,-0.9927912354469299,-0.03233515843749046,-0.06227323040366173,0.35750865936279297,0.09888042509555817,-0.012989673763513565,0.7317885756492615,-0.9806450605392456
1.5,-0.04922323301434517,-0.1560228168964386,0.19100406765937805,0.03763963654637337,-0.020168863236904144,0.07675546407699585,0.21422794461250305,0.7462086081504822,0.1939283162355423,-0.6655562520027161,-0.24659669399261475,-0.011639093048870564,-0.05143775294513886,-0.15425410835642334,0.026554022891481358,0.08954310893179218,-0.04316625403180294,0.06238665534393148,0.1922396654486927,0.7341310589997789,-0.334463278043063,-0.6650886867920104,-0.038076292001173455,-0.008332000124878206,0.1535109281539917,0.07527927309274673,-0.4720456302165985,0.9924172163009644,-0.9911125302314758,-0.046556372195482254,-0.04033772647380829,0.3820081353187561,0.061553534120321274,-0.0715440958738327,0.7278566360473633,-0.986386775970459
1.52,-0.0606120340526104,-0.17562778294086456,0.1976051926612854,0.03699231520295143,-0.009471852332353592,0.09365610778331757,0.19030830264091492,0.74627685546875,0.1968132108449936,-0.6642082333564758,-0.24646303057670593,-0.008908303454518318,-0.06061340911442529,-0.16865623004153849,0.029412441439193866,0.08397052678627105,-0.03400007783677872,0.08149211385783169,0.15940171656773486,0.7341757261892328,-0.32604681907861166,-0.6638214598887165,-0.04050759845968616,-0.009868645218972457,0.18731221556663513,0.07398463040590286,-0.5112555623054504,0.9925537705421448,-0.9884164333343506,-0.03563321381807327,-0.018943704664707184,0.3952103853225708,0.03877592831850052,-0.11938337981700897,0.7336264252662659,-0.9858521223068237
1.54,-0.07055606693029404,-0.19829581677913666,0.17767173051834106,0.03715747222304344,0.0012302093673497438,0.1059965267777443,0.1732703447341919,0.746351957321167,0.19596819579601288,-0.6644795536994934,-0.24555255472660065,-0.0018031902145594358,-0.06701168765785505,-0.18375572623422398,0.0352409233297792,0.07777827612013384,-0.024548678188811415,0.0964529560653107,0.13199467633590067,0.7361017252287454,-0.32086611252279357,-0.663086844920891,-0.0420593278196239,-0.007853720232588585,0.2119930535554886,0.07431494444608688,-0.5565916299819946,0.9927039742469788,-0.9889590740203857,-0.007212760858237743,0.0024604187346994877,0.35534346103668213,0.01888786070048809,-0.1534593105316162,0.7319363951683044,-0.9822102189064026
1.56,-0.07514669001102448,-0.2182258516550064,0.16287225484848022,0.040683161467313766,0.009560680948197842,0.11572407186031342,0.16062285006046295,0.745966911315918,0.20111612975597382,-0.6632663607597351,-0.24513134360313416,-0.0026259589940309525,-0.07067038092054824,-0.1990293243812117,0.041231167531456295,0.06964426288056932,-0.014808465377934406,0.10904161584881215,0.11205781759964052,0.7385458802761186,-0.319951848021364,-0.6624271962595848,-0.042786309171312945,-0.005399674316642619,0.23144814372062683,0.08136632293462753,-0.5964516997337341,0.9919338226318359,-0.9865326881408691,-0.01050383597612381,0.019121361896395683,0.32574450969696045,0.009706615470349789,-0.1787542998790741,0.7422322630882263,-0.9805253744125366
1.58,-0.07835248857736588,-0.23575200140476227,0.1535758674144745,0.03900701180100441,0.015570360235869884,0.12424369901418686,0.1519974023103714,0.7451047897338867,0.20276184380054474,-0.6606001853942871,-0.2452821433544159,0.0008782264194451272,-0.0724065589376251,-0.21361463547112078,0.04631099817697946,0.05988317840192063,-0.0056835474104545555,0.1198069523733284,0.09900573033930196,0.739705321433321,-0.32283065565130453,-0.6610346969337129,-0.04391338316609554,-0.0028964714513556276,0.24848739802837372,0.07801402360200882,-0.6315039992332458,0.9902096390724182,-0.9812003970146179,0.003512905677780509,0.03114072047173977,0.307151734828949,0.003295021830126643,-0.1960051953792572,0.7455236911773682,-0.9811285734176636
1.6,-0.08315175026655197,-0.251918226480484,0.15018293261528015,0.03406822681427002,0.019267313182353973,0.13247694075107574,0.14760011434555054,0.7436295747756958,0.20098929107189178,-0.6553811430931091,-0.24586330354213715,0.004239035304635763,-0.07344101178283063,-0.22693233743114807,0.05042075457206917,0.04942997471399339,0.0022142243735409316,0.129304053534534,0.0912758072324211,0.7395256745504055,-0.3285233723740298,-0.6581347917870568,-0.04538433694172402,0.00014009357585456,0.2649538815021515,0.06813645362854004,-0.6638364791870117,0.9872590899467468,-0.970762312412262,0.016956141218543053,0.03853462636470795,0.3003658652305603,-0.006303499452769756,-0.20479975640773773,0.7419785857200623,-0.9834532141685486
