time,cmd_L_hip_pitch,cmd_R_hip_pitch,cmd_L_hip_roll,cmd_R_hip_roll,cmd_L_hip_yaw,cmd_R_hip_yaw,cmd_L_knee,cmd_R_knee,cmd_L_foot_pitch,cmd_R_foot_pitch,cmd_L_foot_roll,cmd_R_foot_roll,pos_L_hip_pitch,pos_R_hip_pitch,pos_L_hip_roll,pos_R_hip_roll,pos_L_hip_yaw,pos_R_hip_yaw,pos_L_knee,pos_R_knee,pos_L_foot_pitch,pos_R_foot_pitch,pos_L_foot_roll,pos_R_foot_roll,act_R_hip_yaw,act_R_hip_roll,act_R_hip_pitch,act_R_knee,act_R_foot_pitch,act_R_foot_roll,act_L_hip_yaw,act_L_hip_roll,act_L_hip_pitch,act_L_knee,act_L_foot_pitch,act_L_foot_roll
0.0,0.0377308651804924,-0.028996406123042107,0.018681887537240982,0.022475481033325195,0.023095492273569107,0.010867934674024582,0.34380415081977844,0.3908522129058838,-0.42863592505455017,-0.3698756694793701,-0.20275481045246124,0.20993490517139435,-0.045982782794557496,0.04165140420575368,0.004066222036177398,0.0037811788308402036,0.012662664125212901,0.0060160849042635006,0.29285708015485457,0.3069380412845654,-0.3140077373165722,-0.3064002223672878,-0.04136047691859379,0.04301636747679511,0.021735869348049164,0.04495096206665039,-0.21799281239509583,0.2817044258117676,-0.39975133538246155,0.8397396206855774,0.046190984547138214,0.037363775074481964,0.23546172678470612,0.18760831654071808,-0.517271876335144,-0.811019241809845
0.02,0.02903815172612667,-0.10356327891349792,0.05660714954137802,0.05306875705718994,0.012521813623607159,-0.027141783386468887,0.3254591226577759,0.47441166639328003,-0.06216753274202347,-0.24551984667778015,-0.2307431399822235,0.10835248976945877,-0.010633388896175246,-0.012358135731512515,0.015170095217298857,0.014466011592165548,0.016158790513920912,-0.008687468660663009,0.32763846718221945,0.4080261826773222,-0.3407176831032694,-0.35024401477496303,-0.12050605047395882,0.10249654586848843,-0.054283566772937775,0.10613751411437988,-0.36712655425071716,0.44882333278656006,-0.15103968977928162,0.4334099590778351,0.025043627247214317,0.11321429908275604,0.21807630360126495,0.15091821551322937,0.21566493809223175,-0.922972559928894
0.04,0.026749951764941216,-0.12443365156650543,0.12855403125286102,0.10019242763519287,0.00706512713804841,-0.04231422394514084,0.37369778752326965,0.5585048198699951,0.0725097805261612,-0.25909528136253357,-0.24585197865962982,0.012176888063549995,0.007111337361657578,-0.06056096897452431,0.03337060221308382,0.0341124942135948,0.009203478607962976,-0.030869645071330516,0.32120681777945315,0.4896069629172525,-0.3916665615696459,-0.37991283713006757,-0.13918554207364597,0.08641755457602521,-0.08462844789028168,0.20038485527038574,-0.4088672995567322,0.6170095801353455,-0.17819054424762726,0.04870755225419998,0.01413025427609682,0.25710806250572205,0.21349990367889404,0.2473955601453781,0.4850195646286011,-0.9834079146385193
0.06,0.04325494170188904,-0.12678836286067963,0.1598356068134308,0.10430444777011871,0.002324402332305908,-0.025211866945028305,0.37821632623672485,0.5628706216812134,0.06111590564250946,-0.5740129947662354,-0.24792872369289398,0.04613815248012543,0.022596539435384706,-0.08875081657784822,0.04815149971830676,0.0516207353723705,0.010034628245712763,-0.03181944052139811,0.34276050797498514,0.5492972229339791,-0.4130306288800855,-0.428621567917222,-0.07822277800504643,0.055910324835513656,-0.05042373389005661,0.20860889554023743,-0.41357672214508057,0.625741183757782,-0.8080259561538696,0.1845526099205017,0.004648804664611816,0.3196712136268616,0.2465098798274994,0.2564326524734497,0.4622318148612976,-0.9917148947715759
0.08,0.05384191870689392,-0.12777045369148254,0.1824115365743637,0.07424052804708481,0.004313595127314329,0.005748177412897348,0.3649680018424988,0.5436796545982361,-0.26747408509254456,-0.5704109072685242,-0.24901100993156433,0.06124568730592728,0.03775106048805745,-0.1022100850353211,0.05780467300882547,0.07076024012645696,0.007018254419334091,-0.01112943006635064,0.36672604956420446,0.5626819814520724,-0.42627725507492154,-0.49840638018261074,-0.037272545284794595,0.05024331048535605,0.011496354825794697,0.14848105609416962,-0.4155409038066864,0.5873593091964722,-0.800821840763092,0.2449827492237091,0.008627190254628658,0.3648230731487274,0.26768383383750916,0.22993597388267517,-0.19494816660881042,-0.9960440397262573
0.1,0.05244280397891998,-0.09761856496334076,0.19390694797039032,0.08767136186361313,0.01060386560857296,0.021411124616861343,0.3949587941169739,0.4778974652290344,-0.260716050863266,-0.5328718423843384,-0.24881425499916077,0.0959140732884407,0.04671820895626112,-0.10089594730961082,0.06407387568855488,0.08604394430913123,0.006502685109524646,0.010308928130382604,0.3867283781971564,0.5245777424773087,-0.4390525664209493,-0.5316000873076919,-0.020358616469084826,0.06150644851079759,0.04282224923372269,0.17534272372722626,-0.35523712635040283,0.45579493045806885,-0.7257437109947205,0.3836562931537628,0.02120773121714592,0.38781389594078064,0.2648856043815613,0.28991761803627014,-0.18143212795257568,-0.9952570199966431
0.12,0.03232826292514801,-0.051780879497528076,0.1555207222700119,0.09738389402627945,0.02460622601211071,0.029458243399858475,0.4886341989040375,0.36013269424438477,0.04491239786148071,-0.4822179675102234,-0.24403531849384308,0.1615609973669052,0.049747521533807876,-0.07840482480691575,0.06781416869130982,0.09664840675968339,0.011724650213038687,0.0232313866222104,0.4184711085430566,0.4368810799266124,-0.45807528076280685,-0.524164554631925,-0.02359714382985048,0.09247288869239398,0.05891648679971695,0.1947677880525589,-0.26356175541877747,0.22026540338993073,-0.6244359612464905,0.6462439894676208,0.04921245202422142,0.3110414445400238,0.22465652227401733,0.47726839780807495,0.4298247992992401,-0.9761412739753723
0.14,0.030405079945921898,-0.05128665268421173,0.024014994502067566,0.05221353471279144,0.045227084308862686,0.036254264414310455,0.6152777671813965,0.2917162775993347,0.264497309923172,-0.4736849069595337,-0.16241681575775146,0.21778404712677002,0.06133754874759104,-0.048314200687180404,0.0603097610265113,0.0943960321474165,0.03288246837422326,0.03295369043045977,0.4837901264960806,0.3737484623768221,-0.46868031236528224,-0.44601577743212384,-0.02921352528804717,0.10314169706013882,0.07250852882862091,0.10442706942558289,-0.2625733017921448,0.08343253284692764,-0.6073698401451111,0.8711361885070801,0.09045416861772537,0.04802998900413513,0.2208101600408554,0.730555534362793,0.8689945936203003,-0.6496672630310059
0.16,0.07062187790870667,-0.0657682865858078,-0.06788996607065201,0.015859246253967285,0.05311930179595947,0.03689105436205864,0.6718930006027222,0.3232121765613556,-0.5712206363677979,-0.46164605021476746,0.0004820183967240155,0.24029894173145294,0.08707167493416922,-0.02775236082036559,0.03666270336427151,0.076271192303644,0.04628612815961705,0.0314751667052026,0.5857072273752925,0.35888309440968924,-0.4818414063315304,-0.38914767005295636,-0.021998641904514254,0.09073382798561293,0.07378210872411728,0.03171849250793457,-0.2915365695953369,0.14642436802387238,-0.5832921266555786,0.9611957669258118,0.10623860359191895,-0.13577993214130402,0.30124375224113464,0.8437860608100891,-0.8024412393569946,0.001928073586896062
0.18,0.11543545126914978,0.008179547265172005,-0.02716710977256298,-0.035403504967689514,0.025060202926397324,0.04469077289104462,0.7042497396469116,0.33270037174224854,-0.6572356820106506,-0.2919671833515167,0.059189241379499435,0.24676211178302765,0.10051237276357838,-0.013058321729502892,0.01179993536412596,0.06471991105887448,0.03648954444258796,0.031010386658176518,0.6746451183629791,0.36601018599948826,-0.5401938851516384,-0.39633228459532754,0.001185542167615413,0.08928965693358742,0.08938154578208923,-0.07080700993537903,-0.1436409056186676,0.16540072858333588,-0.24393439292907715,0.9870484471321106,0.05012040585279465,-0.05433421954512596,0.3908708989620209,0.908499538898468,-0.974471390247345,0.23675696551799774
0.2,0.1311338245868683,0.06348603963851929,-0.0019351294031366706,-0.07093502581119537,0.0002734269364736974,0.04482501745223999,0.7273226380348206,0.3193422555923462,-0.6620208621025085,-0.15950171649456024,0.016390159726142883,0.24552476406097412,0.10616384355585438,0.009721195927413575,-0.010178342185880224,0.057877790137455455,0.017256507525698652,0.031295585920857266,0.7216312621249488,0.3488582443619313,-0.6011439490995024,-0.3920319534644912,0.022340110124662808,0.09319367197984973,0.08965003490447998,-0.14187005162239075,-0.03302791714668274,0.1386844962835312,0.02099655382335186,0.9820990562438965,0.0005468538729473948,-0.003870258806273341,0.4222676455974579,0.9546452760696411,-0.9840417504310608,0.06556063890457153
0.22,0.12647750973701477,0.10455352067947388,0.007273063529282808,-0.09746954590082169,-0.009568201377987862,0.04326901584863663,0.7359668016433716,0.30413252115249634,-0.6635851263999939,-0.050880394876003265,-0.011236963793635368,0.2459888458251953,0.10730125426800885,0.03897899274883097,-0.024963026773922724,0.053476895523966825,0.0036866670879513504,0.03212391662213211,0.7372302184859126,0.31310372891278515,-0.636835136322702,-0.37885208930657993,0.017473199917824762,0.09761873211425405,0.08653803169727325,-0.19493909180164337,0.04910704120993614,0.10826507210731506,0.23823921382427216,0.9839553833007812,-0.019136402755975723,0.014546127058565617,0.41295501589775085,0.9719335436820984,-0.9871702790260315,-0.04494785517454147
0.24,0.12760567665100098,0.13873648643493652,0.01105895359069109,-0.11465912312269211,-0.018946180120110512,0.040328025817871094,0.7393542528152466,0.2827177047729492,-0.6638681292533875,-0.004233537241816521,-0.02107073925435543,0.24646402895450592,0.1065557678570249,0.06944149084914536,-0.034022764361036024,0.0487137041767702,-0.004865309389125737,0.034547423734693855,0.7390435013587994,0.27452093066230315,-0.6531009577251018,-0.3645064451276475,0.0023240530974641457,0.10193175838508016,0.08065605163574219,-0.22931824624538422,0.11747296154499054,0.06543543934822083,0.33153292536735535,0.9858561158180237,-0.037892360240221024,0.02211790718138218,0.41521134972572327,0.9787085652351379,-0.9877362251281738,-0.08428295701742172
0.26,0.13480144739151,0.16416721045970917,0.008766654878854752,-0.1201464906334877,-0.027238754555583,0.036637481302022934,0.7402383089065552,0.26062628626823425,-0.6631689667701721,0.014877768233418465,-0.02150431089103222,0.24673567712306976,0.10775033680820188,0.09774154865835649,-0.038538396807820945,0.043010457890732226,-0.013514344034883063,0.03655440940008686,0.7388389661116834,0.2407084348368109,-0.658989555254356,-0.35313416549041327,-0.009786023444122258,0.10604006178986423,0.07327496260404587,-0.2402929812669754,0.16833442449569702,0.021252581849694252,0.3697555363178253,0.986942708492279,-0.054477509111166,0.017533309757709503,0.42960289120674133,0.9804766774177551,-0.9863379001617432,-0.08601724356412888
0.28,0.1447058618068695,0.18065690994262695,0.0006914972327649593,-0.11643239110708237,-0.03425656259059906,0.03311213478446007,0.7399190664291382,0.2414286732673645,-0.661597490310669,0.026969315484166145,-0.02100219950079918,0.24664664268493652,0.11255036396599528,0.1220469660240258,-0.039373071063376876,0.03646051575253864,-0.022647850508606175,0.03732009430726342,0.7387015638522431,0.21391097247773416,-0.6602011186122761,-0.3460388371925119,-0.01598889371302822,0.10986388790978178,0.06622426956892014,-0.23286478221416473,0.2013138085603714,-0.01714266650378704,0.3939386308193207,0.9865865707397461,-0.06851312518119812,0.0013829944655299187,0.4494117200374603,0.9798381328582764,-0.9831949472427368,-0.08400879800319672
0.3,0.1552097648382187,0.1899619698524475,-0.009992546401917934,-0.10862434655427933,-0.040708258748054504,0.02986881136894226,0.7389169931411743,0.22675251960754395,-0.6591499447822571,0.04226413369178772,-0.02166089229285717,0.2461400330066681,0.12100427710838221,0.14187344644053757,-0.03785186938834245,0.029250354852435476,-0.03179481236181895,0.036946704210541595,0.7377090999669667,0.1939910275080434,-0.659400859653916,-0.34319455798987486,-0.018714894949953893,0.11326121643682825,0.05973762273788452,-0.21724869310855865,0.2199239432811737,-0.046494971960783005,0.4245282709598541,0.9845601320266724,-0.08141651749610901,-0.01998509280383587,0.4704195261001587,0.9778339266777039,-0.9782998561859131,-0.08664356917142868
0.32,0.16534197330474854,0.19529174268245697,-0.021589497104287148,-0.10035549104213715,-0.0469324067234993,0.026619797572493553,0.7374871969223022,0.2165941298007965,-0.6556811928749084,0.06250326335430145,-0.02184065617620945,0.24541766941547394,0.13224453815509413,0.15781250420782728,-0.03544256192645695,0.02162151760103284,-0.04073896896179951,0.035844467548618975,0.735569240515989,0.18000872746490326,-0.6573921663590911,-0.3441061961447577,-0.02012523327652005,0.11610129864792615,0.053239595144987106,-0.2007109820842743,0.23058348894119263,-0.06681174784898758,0.4650065302848816,0.9816706776618958,-0.0938648134469986,-0.043178994208574295,0.4906839430332184,0.9749744534492493,-0.9713624119758606,-0.0873626247048378
0.34,0.17428933084011078,0.19891966879367828,-0.032130662351846695,-0.09478068351745605,-0.05309170112013817,0.02304445393383503,0.7357208728790283,0.2103058397769928,-0.6511088609695435,0.08651448786258698,-0.021636005491018295,0.2447572946548462,0.1450391734593861,0.17096212067951444,-0.03346148905787718,0.013785040043997271,-0.04924025652675488,0.03437288998815959,0.7327118631655184,0.1708310836692813,-0.6544061294269826,-0.34817296758411403,-0.020905748190885216,0.11826672871048674,0.04608890786767006,-0.1895613670349121,0.23783932626247406,-0.0793883353471756,0.5130289793014526,0.9790291786193848,-0.10618340224027634,-0.06426132470369339,0.5085786581039429,0.9714416861534119,-0.9622177481651306,-0.08654402196407318
0.36,0.1815507560968399,0.20207412540912628,-0.041270457208156586,-0.0934232622385025,-0.05905943363904953,0.018964696675539017,0.7336735725402832,0.20730796456336975,-0.6453731656074524,0.1135295182466507,-0.021427564322948456,0.24443121254444122,0.15817013394063886,0.1823536158281008,-0.0328901668570011,0.005860514787048799,-0.056996911988320055,0.03279274948582508,0.7295288653709676,0.16538898264945215,-0.6504175252271698,-0.3548339639532,-0.02128993997417823,0.11967699755276937,0.03792939335107803,-0.186846524477005,0.24414823949337006,-0.0853840783238411,0.5670590400695801,0.9777248501777649,-0.11811886727809906,-0.08254091441631317,0.5231015086174011,0.9673470854759216,-0.9507463574409485,-0.08571025729179382
0.38,0.18760095536708832,0.20550762116909027,-0.049623750150203705,-0.09640119969844818,-0.0646270364522934,0.01431503426283598,0.7313263416290283,0.20751702785491943,-0.6382634043693542,0.1440887302160263,-0.021295012906193733,0.24442681670188904,0.17072636052797155,0.19263009582300678,-0.03439249280629408,-0.0021486916213006167,-0.06380803058881662,0.031219566016336575,0.7261785639648005,0.16283473317468555,-0.6452963026843238,-0.3636528638115989,-0.021450032983341975,0.1202853740314116,0.02863006852567196,-0.19280239939689636,0.25101524591445923,-0.08496592938899994,0.6281774640083313,0.9777072668075562,-0.1292540729045868,-0.09924750030040741,0.535201907157898,0.9626526832580566,-0.9365267753601074,-0.08518005162477493
0.4,0.19291378557682037,0.2096201330423355,-0.058446254581213,-0.10315583646297455,-0.06943158805370331,0.009061139076948166,0.7284708023071289,0.21161022782325745,-0.6292958855628967,0.17935894429683685,-0.021499808877706528,0.24454843997955322,0.1821168906687993,0.2020561514771003,-0.03839976665757921,-0.010355318466982778,-0.0695147343377093,0.029597975800248602,0.7226527602873781,0.1627309261781305,-0.6387911853453192,-0.3744193993625828,-0.021557998705226504,0.12003340196310094,0.018122278153896332,-0.2063116729259491,0.2592402696609497,-0.07677952945232391,0.6987178921699524,0.9781937599182129,-0.13886317610740662,-0.116892509162426,0.5458275675773621,0.956941545009613,-0.9185917377471924,-0.08599923551082611
0.42,0.1976134330034256,0.21413666009902954,-0.0692543312907219,-0.11245247721672058,-0.07299221307039261,0.0030895909294486046,0.7247217893600464,0.2207547128200531,-0.6179814338684082,0.21877555549144745,-0.021925337612628937,0.24461433291435242,0.19193111619749087,0.21054012103927489,-0.04518804252423628,-0.01893552417885367,-0.07390936732464602,0.027733745703585857,0.7187797262667185,0.16544960831389793,-0.6305150750612333,-0.3873508024859641,-0.021764503815884132,0.11896176095595297,0.006179181858897209,-0.22490495443344116,0.26827332377433777,-0.05849058926105499,0.7775511145591736,0.9784573316574097,-0.14598442614078522,-0.1385086625814438,0.5552268624305725,0.9494436383247375,-0.8959628939628601,-0.08770135045051575
0.44,0.20123045146465302,0.21714948117733002,-0.08316120505332947,-0.12163146585226059,-0.07469277828931808,-0.003818971337750554,0.7193363904953003,0.23599351942539215,-0.603715181350708,0.2576715648174286,-0.022193074226379395,0.24445447325706482,0.19989238163014328,0.2174782844239122,-0.05491235754886695,-0.027911853408973283,-0.07654800545630461,0.02423703586271927,0.7140493978448448,0.17244485895531733,-0.6199944587717109,-0.4033421653025315,-0.022051314828691652,0.11697550579454845,-0.007637942675501108,-0.24326293170452118,0.2742989659309387,-0.028012966737151146,0.8553431034088135,0.9778178930282593,-0.14938555657863617,-0.16632241010665894,0.5624608993530273,0.9386728405952454,-0.8674303889274597,-0.08877229690551758
0.46,0.20617274940013885,0.21762895584106445,-0.10420704632997513,-0.1258544921875,-0.07412999123334885,-0.011789889074862003,0.7110568284988403,0.25997135043144226,-0.5838350653648376,0.289678692817688,-0.023148108273744583,0.24349838495254517,0.20556876300779467,0.22101996807823515,-0.06722940066926199,-0.03648803738218183,-0.0771710627791016,0.014991375105004768,0.7074752123546033,0.1865414540129147,-0.6062944130107855,-0.42363172641088603,-0.0224859247903702,0.1143663199685955,-0.023579778149724007,-0.251708984375,0.2752579152584076,0.019942697137594223,0.9193573594093323,0.9739935398101807,-0.1482599824666977,-0.20841409265995026,0.572345495223999,0.9221135973930359,-0.827670156955719,-0.09259243309497833
0.48,0.21985949575901031,0.21895931661128998,-0.1320522129535675,-0.12413336336612701,-0.07171540707349777,-0.02157784253358841,0.6966047286987305,0.29595860838890076,-0.5517538785934448,0.3092934489250183,-0.02223656140267849,0.2413586676120758,0.2097398546955078,0.21946468989027243,-0.08163872432539655,-0.044011754173804395,-0.07697883789787466,0.0028013170843478787,0.6983847407481336,0.20950670510764716,-0.5866998881542372,-0.4465659678454219,-0.022892152079170135,0.11242645127330497,-0.04315568506717682,-0.24826672673225403,0.27791863679885864,0.09191719442605972,0.9585868716239929,0.9654346704483032,-0.14343081414699554,-0.264104425907135,0.5997189879417419,0.8932093977928162,-0.7635077834129333,-0.08894624561071396
0.5,0.23263202607631683,0.21085092425346375,-0.15480926632881165,-0.11930789053440094,-0.06514690816402435,-0.034216124564409256,0.6661950349807739,0.34434351325035095,-0.506797730922699,0.32049620151519775,-0.021669462323188782,0.2383696585893631,0.21298534447611117,0.21129379574401505,-0.09751552098334214,-0.04967697256007619,-0.07388637381698007,-0.011654489559043421,0.6814422928029313,0.24399119221086576,-0.5575279343374665,-0.47078715212421257,-0.02296939150729077,0.11214366662309128,-0.06843224912881851,-0.23861578106880188,0.2617018520832062,0.1886870265007019,0.9809923768043518,0.9534786343574524,-0.1302938163280487,-0.3096185326576233,0.625264048576355,0.8323900103569031,-0.6735954284667969,-0.08667784929275513
0.52,0.23929889500141144,0.18670856952667236,-0.1638164520263672,-0.10264270752668381,-0.054081182926893234,-0.04933685064315796,0.6091936826705933,0.4075615406036377,-0.45898669958114624,0.32548144459724426,-0.02981298416852951,0.23435398936271667,0.2143681495391868,0.19382560501795176,-0.11174298535165553,-0.0510664277028232,-0.06549583507805935,-0.02825406358985627,0.6454976480725833,0.29429758231268904,-0.5185888908306217,-0.4940919567072081,-0.02461102927088798,0.11516777860656036,-0.09867370128631592,-0.20528541505336761,0.21341712772846222,0.315123051404953,0.9909628629684448,0.9374159574508667,-0.10816236585378647,-0.3276329040527344,0.6385977864265442,0.7183874249458313,-0.5779734253883362,-0.11925193667411804
0.54,0.2424466460943222,0.15514476597309113,-0.13861148059368134,-0.06766155362129211,-0.04346783459186554,-0.06287262588739395,0.523303210735321,0.49046552181243896,-0.38855528831481934,0.3270873427391052,-0.05727507174015045,0.21981459856033325,0.21184139780815223,0.16561472866513718,-0.1173738173223329,-0.04267626856166319,-0.05320330278979151,-0.04656694680247046,0.5818405486544825,0.36464207513062175,-0.46911561959032866,-0.5108138712609939,-0.03325656580061759,0.1203084165739091,-0.1257452517747879,-0.13532310724258423,0.15028953552246094,0.48093104362487793,0.9941746592521667,0.879258394241333,-0.08693566918373108,-0.27722296118736267,0.6448932886123657,0.5466064214706421,-0.43711057305336,-0.2291002869606018
0.56,0.23809219896793365,0.11889620125293732,-0.07917582243680954,-0.005612457171082497,-0.040828462690114975,-0.0733884796500206,0.4352840185165405,0.5926978588104248,-0.28954410552978516,0.3233855962753296,-0.1155056282877922,0.16932013630867004,0.20470025210437962,0.1290083136250666,-0.10522054594852498,-0.017104716052523897,-0.04397017152851978,-0.0644955304288765,0.4975753265507302,0.45715135935016094,-0.40293985682854516,-0.5124875512339488,-0.05772878885367199,0.12268788751388945,-0.1467769593000412,-0.011224914342164993,0.07779239863157272,0.6853957772254944,0.9867711663246155,0.6772805452346802,-0.08165692538022995,-0.15835164487361908,0.6361843943595886,0.37056800723075867,-0.23908820748329163,-0.4620225131511688
0.58,0.21733714640140533,0.05379093810915947,0.024284182116389275,0.06830671429634094,-0.05127227306365967,-0.07415987551212311,0.43338149785995483,0.6836702823638916,-0.3083626329898834,0.17135970294475555,-0.18756386637687683,0.06428471952676773,0.19440693289758043,0.08481860681417448,-0.07346020505726411,0.010810320348229563,-0.04450700983603282,-0.07460929411208063,0.49493342148644714,0.5702254602062476,-0.3479036696487981,-0.49013284143063685,-0.04997607398638716,0.10817827003438182,-0.14831975102424622,0.13661342859268188,-0.052418120205402374,0.867340624332428,0.6827194094657898,0.2571388781070709,-0.10254454612731934,0.04856836423277855,0.594674289226532,0.36676299571990967,-0.27672526240348816,-0.7502554655075073
0.6,0.16160374879837036,-0.023446982726454735,-0.007020712364464998,0.08861412853002548,-0.05090953782200813,-0.08846253156661987,0.48178473114967346,0.711196780204773,0.007578151300549507,-0.6669931411743164,-0.2105972319841385,0.03699493780732155,0.18095787893364965,0.041551499756456896,-0.04270314332301646,0.03295586526728026,-0.03653709463691727,-0.08385688273427233,0.4946898137447062,0.6734870546390154,-0.36212811152250046,-0.49894064194824495,-0.043979715098245956,0.08109230451802922,-0.17692506313323975,0.17722825706005096,-0.20689396560192108,0.9223936200141907,-0.9939863085746765,0.1479797512292862,-0.10181907564401627,-0.014041424728929996,0.48320749402046204,0.4635694622993469,0.3551563024520874,-0.842388927936554
0.62,0.07541480660438538,-0.10703274607658386,0.05227518081665039,0.05112156644463539,-0.04991954565048218,-0.07747896015644073,0.47858554124832153,0.7384078502655029,0.1829461008310318,-0.6684439182281494,-0.12819279730319977,0.020724985748529434,0.1627768434701441,0.004486459882797676,-0.029352810809922605,0.04464725888289045,-0.04033717001235897,-0.0812782351717136,0.47248606467051374,0.7382351526152611,-0.3600619947865618,-0.5739457359268878,-0.03913973659406179,0.05377119952374823,-0.15495792031288147,0.10224313288927078,-0.37406548857688904,0.9768157601356506,-0.9968878626823425,0.08289994299411774,-0.09983909130096436,0.10455036163330078,0.31082960963249207,0.4571710526943207,0.7058922052383423,-0.5127711892127991
0.64,0.037430860102176666,-0.08713877201080322,0.07702351361513138,0.044037118554115295,-0.05208470672369003,-0.06614695489406586,0.4652068018913269,0.7437469959259033,0.25795525312423706,-0.6683471202850342,-0.19652238488197327,0.024083590134978294,0.12908049795244422,-0.022263831704006653,-0.019657232469775552,0.05001674428012872,-0.04758585217015918,-0.07241324120127784,0.4349076939982247,0.7609601540465367,-0.34879657396161323,-0.6260716878939392,-0.024555399177092076,0.03559000146332843,-0.1322939097881317,0.08807423710823059,-0.33427754044532776,0.9874939322471619,-0.9966942071914673,0.09633436053991318,-0.10416941344738007,0.15404702723026276,0.23486171662807465,0.4304136037826538,0.8559104800224304,-0.7860895395278931
0.66,0.056385338306427,-0.045808956027030945,0.10582342743873596,0.05645839124917984,-0.05640948936343193,-0.055608052760362625,0.4249669313430786,0.7430073022842407,0.2468143254518509,-0.667192816734314,-0.23303470015525818,0.012528019957244396,0.09353984105132623,-0.03949448938382567,-0.011475303259428339,0.055752676029696004,-0.05776048920718334,-0.0629826561346841,0.4072116603253354,0.751035678900455,-0.3463173008267136,-0.6511372626622931,-0.03504308334315186,0.025373711668837326,-0.11121610552072525,0.11291678249835968,-0.2516179084777832,0.9860146641731262,-0.9943856596946716,0.050112079828977585,-0.11281897872686386,0.21164685487747192,0.2727706730365753,0.3499338924884796,0.8336286544799805,-0.9321388006210327
0.68,0.07658766210079193,-0.041012704372406006,0.11738403886556625,0.05870326608419418,-0.05727710947394371,-0.041380953043699265,0.37712258100509644,0.742121696472168,0.18080206215381622,-0.6663188338279724,-0.24049541354179382,0.008316771127283573,0.06618321163785365,-0.05809185302644235,-0.003211498622388934,0.06318345812645845,-0.06393052508391978,-0.05190431275882468,0.38736132825277686,0.7328116696481499,-0.3481389499461745,-0.6611551880513014,-0.04384396112055227,0.017091970335442765,-0.08276190608739853,0.11740653216838837,-0.24202540516853333,0.9842434525489807,-0.9926376342773438,0.03326708450913429,-0.11455421894788742,0.2347680777311325,0.3131753206253052,0.2542451322078705,0.7016041278839111,-0.9619816541671753
0.7000000000000001,0.07799634337425232,-0.06768105924129486,0.12108664214611053,0.052790116518735886,-0.05312732607126236,-0.023018034175038338,0.34338927268981934,0.7428381443023682,0.11455951631069183,-0.6666316986083984,-0.24299739301204681,0.0030422646086663008,0.04758759874100197,-0.08239185876547514,0.002067297373433167,0.06801871267049947,-0.05920304459230024,-0.03754992051843331,0.36700995960154226,0.7225330725499817,-0.34722738666911657,-0.6648644601978997,-0.042657452098085746,0.010569388985713654,-0.046036068350076675,0.10558023303747177,-0.29536211490631104,0.9856763482093811,-0.9932633638381958,0.012169058434665203,-0.10625465214252472,0.24217328429222107,0.31599268317222595,0.18677854537963867,0.5691190361976624,-0.9719895720481873
0.72,0.055284902453422546,-0.11506399512290955,0.14159978926181793,0.03388453647494316,-0.044301073998212814,0.005447240546345711,0.31043365597724915,0.7439329028129578,0.0654682070016861,-0.6664775013923645,-0.24555669724941254,-0.0034767109900712967,0.03324258317571108,-0.11106230904011699,0.004276493851750929,0.06908399390634139,-0.054715191229232026,-0.015155384235258232,0.3392611298276455,0.723193235037234,-0.3411260069838285,-0.665986010324115,-0.03751419680460787,0.00450343326902018,0.010894481092691422,0.06776907294988632,-0.3901279866695404,0.9878658056259155,-0.9929550290107727,-0.013906843960285187,-0.08860214799642563,0.28319957852363586,0.2705698013305664,0.1208673045039177,0.4709364175796509,-0.9822267889976501
0.74,0.038807228207588196,-0.1445642113685608,0.1553463190793991,0.028720226138830185,-0.03263050317764282,0.032188765704631805,0.28558626770973206,0.7449226379394531,0.06511874496936798,-0.6660704612731934,-0.24729958176612854,-0.008025562390685081,0.01941656019299574,-0.14027021378856683,0.006413757176323202,0.06737702396102122,-0.0499736413467404,0.011618016190123188,0.3047854856965565,0.7273663349863304,-0.33179874746598775,-0.6659075225154849,-0.03140941201830094,-0.0013139847991628,0.06437753140926361,0.05744045227766037,-0.4491284191608429,0.989845335483551,-0.9921408891677856,-0.032102249562740326,-0.06526100635528564,0.3106926381587982,0.2376144528388977,0.07117254287004471,0.47023749351501465,-0.9891983270645142
0.76,0.02742440067231655,-0.16474902629852295,0.16649675369262695,0.0286348108202219,-0.021184295415878296,0.057011429220438004,0.2582857310771942,0.7452173233032227,0.07964019477367401,-0.6646946668624878,-0.2476595640182495,-0.010609444230794907,0.006645547931918404,-0.16607532299439512,0.009905055852867238,0.06465530914620819,-0.045129803789807695,0.038349129897602904,0.2709055251271044,0.7289866719641724,-0.32293538050099885,-0.6650990734243336,-0.0334240104031253,-0.005997689534398583,0.11402285844087601,0.0572696216404438,-0.4894980490207672,0.9904345870018005,-0.9893893599510193,-0.042437776923179626,-0.04236859083175659,0.3329935073852539,0.21484880149364471,0.016571486368775368,0.4992803931236267,-0.990638256072998
0.78,0.016555001959204674,-0.18178798258304596,0.15735195577144623,0.031496912240982056,-0.009774514473974705,0.07735224813222885,0.23355765640735626,0.7454980611801147,0.09710441529750824,-0.6640933752059937,-0.24751952290534973,-0.010096348822116852,-0.005196760998061654,-0.1883559368970749,0.016906567993769116,0.062385295481768736,-0.03945528226204905,0.06198448707259753,0.2385841802038662,0.7291165347384675,-0.31565295796334236,-0.6641813403011739,-0.03439414612990738,-0.008812493353486054,0.1547044962644577,0.06299382448196411,-0.5235759615898132,0.9909960627555847,-0.9881867170333862,-0.04038539528846741,-0.01954902894794941,0.31470391154289246,0.19311000406742096,-0.03288469836115837,0.5342088341712952,-0.9900780916213989
0.8,0.005777051672339439,-0.19872097671031952,0.14595617353916168,0.03709106892347336,0.0002473974018357694,0.09412025660276413,0.21300768852233887,0.7455264329910278,0.1209339052438736,-0.6631206274032593,-0.24731066823005676,-0.011871014721691608,-0.015770934106063617,-0.20756676774309132,0.024805275908067387,0.05884886609398543,-0.0325821541088732,0.08232691031550882,0.2092368665148519,0.729820503940281,-0.3105909041866934,-0.6634633281578067,-0.035555260966940144,-0.010190393093069,0.18824051320552826,0.07418213784694672,-0.5574419498443604,0.9910529255867004,-0.9862412810325623,-0.047484058886766434,0.0004947948036715388,0.29191234707832336,0.1715541034936905,-0.07398463040590286,0.5818678140640259,-0.989242672920227
0.8200000000000001,-0.006761485710740089,-0.21501807868480682,0.1416928917169571,0.039626605808734894,0.008425679989159107,0.10854868590831757,0.19665594398975372,0.7451202869415283,0.14795832335948944,-0.6608089804649353,-0.2472521960735321,-0.012619744054973125,-0.025035696191620292,-0.22367210255484013,0.032170366496465846,0.05405021801120586,-0.02490800497983305,0.0998776986517975,0.18370489207438706,0.7309479058284352,-0.30802627549029593,-0.6623814471867557,-0.038688703176921906,-0.011173961525640748,0.21709737181663513,0.07925321161746979,-0.590036153793335,0.9902406334877014,-0.9816179871559143,-0.0504789762198925,0.016851359978318214,0.2833857834339142,0.14647702872753143,-0.10668811947107315,0.6359166502952576,-0.9890087842941284
0.84,-0.021616006270051003,-0.22983558475971222,0.14220786094665527,0.037603624165058136,0.014894937165081501,0.12074314057826996,0.18486115336418152,0.7441951036453247,0.17172379791736603,-0.6565312743186951,-0.24732810258865356,-0.010550145991146564,-0.03345087461770418,-0.23644398041797743,0.038971604342651206,0.04877485537896079,-0.016841219466840196,0.11437836475215703,0.16211030888282174,0.7319800374375307,-0.30809712706683645,-0.6602182420414904,-0.043275181634063936,-0.01144261592470931,0.24148628115653992,0.07520724833011627,-0.6196711659431458,0.9883901476860046,-0.9730625152587891,-0.04220058396458626,0.029789874330163002,0.28441572189331055,0.1167679876089096,-0.13027770817279816,0.6834475994110107,-0.9893124103546143
0.86,-0.038514938205480576,-0.24382080137729645,0.14387142658233643,0.03202143311500549,0.019536925479769707,0.1307944804430008,0.17822960019111633,0.7425433397293091,0.18825705349445343,-0.6493548154830933,-0.24748249351978302,-0.005163089372217655,-0.04130279933745602,-0.24590792305441414,0.04504336759059288,0.043148003789521744,-0.008921220467486323,0.12586224991668216,0.14486319955132462,0.7328067943252229,-0.31084505875021406,-0.6562659918667857,-0.04839567455444134,-0.00997725155683612,0.2615889608860016,0.06404286623001099,-0.6476415991783142,0.9850866198539734,-0.9587095975875854,-0.02065235748887062,0.03907385095953941,0.28774285316467285,0.08297012001276016,-0.14354081451892853,0.7165141105651855,-0.9899299740791321
0.88,-0.057362150400877,-0.2567977011203766,0.14605844020843506,0.02552267350256443,0.022236615419387817,0.13898850977420807,0.17737653851509094,0.7398933172225952,0.19669319689273834,-0.6382442116737366,-0.24766628444194794,0.001387599390000105,-0.048825925685844734,-0.2522275775703188,0.05012596591779304,0.03702751219196042,-0.0016257902774079944,0.1349522107538435,0.13276040161871758,0.7332830402284485,-0.3165443180299059,-0.6496707761029451,-0.05338293940910054,-0.00622910292952564,0.27797701954841614,0.05104534700512886,-0.6735954284667969,0.9797865748405457,-0.9364884495735168,0.00555039756000042,0.044473230838775635,0.2921168804168701,0.045275699347257614,-0.14524692296981812,0.7333863973617554,-0.9906651377677917
0.9,-0.07725754380226135,-0.26785558462142944,0.14890499413013458,0.01939493790268898,0.023095909506082535,0.1453849822282791,0.1829809546470642,0.735590934753418,0.19774411618709564,-0.6218766570091248,-0.2477956861257553,0.00960057694464922,-0.056249912178906986,-0.2555642243141182,0.0542888349863786,0.030544883709542916,0.0047679309656757625,0.14214515670753372,0.12683806107981574,0.7328626956551615,-0.32565602997478704,-0.6394020667449718,-0.0573791501098728,-0.0005328074457438935,0.2907699644565582,0.03878987580537796,-0.6957111954689026,0.9711819291114807,-0.9037533402442932,0.03840230777859688,0.04619181901216507,0.29780998826026917,0.005484912544488907,-0.13403809070587158,0.73548823595047,-0.9911827445030212
0.92,-0.0962722897529602,-0.27572280168533325,0.15167474746704102,0.014273414388298988,0.022796504199504852,0.14932094514369965,0.19573703408241272,0.7286159992218018,0.1964615136384964,-0.5990505814552307,-0.24782952666282654,0.018143430352211,-0.06363191017945519,-0.2561364447977694,0.057838669408130594,0.024004071331324282,0.010006938363844392,0.14730349238552437,0.12820882811399764,0.7304429165468858,-0.33869252351062207,-0.6243075869700062,-0.05994170517472974,0.006660048691081484,0.2986418902873993,0.028546828776597977,-0.7114456295967102,0.9572319388389587,-0.8581011295318604,0.072573721408844,0.045593008399009705,0.30334949493408203,-0.0325445830821991,-0.10852593183517456,0.7329230308532715,-0.9913181066513062
0.9400000000000001,-0.11183484643697739,-0.2797970771789551,0.15258324146270752,0.010101101361215115,0.022146262228488922,0.15015245974063873,0.21675097942352295,0.7174467444419861,0.1994137316942215,-0.5711190700531006,-0.24768789112567902,0.025865012779831886,-0.07069247613496367,-0.25444100372374356,0.06103012703684861,0.017644689178904768,0.01345924499886773,0.14991110927635407,0.13798583476632828,0.724574219546089,-0.35617176076938434,-0.6037360426994801,-0.06187589016382322,0.014520617663536578,0.30030491948127747,0.02020220272243023,-0.7195941805839539,0.9348934888839722,-0.8022381067276001,0.10346005111932755,0.044292524456977844,0.30516648292541504,-0.06366969645023346,-0.06649802625179291,0.7388274669647217,-0.9907515645027161
0.96,-0.1211874857544899,-0.2784421145915985,0.1482023447751999,0.005128225777298212,0.021810563281178474,0.14824260771274567,0.2473001629114151,0.6985580921173096,0.20886488258838654,-0.5408196449279785,-0.24706155061721802,0.03789275884628296,-0.0771137136815993,-0.25120769596941506,0.06362334464062382,0.011216413298960072,0.013183216655116669,0.14999912146561017,0.1571741603529829,0.7129549652046986,-0.37788465915829794,-0.5782937619189606,-0.06473812616958396,0.02333930502706818,0.29648521542549133,0.010256451554596424,-0.7168842554092407,0.8971162438392639,-0.7416393160820007,0.15157103538513184,0.04362112656235695,0.2964046895503998,-0.08237496763467789,-0.005399676971137524,0.7577297687530518,-0.9882462024688721
0.98,-0.11949803680181503,-0.26612111926078796,0.13639195263385773,-0.00478359404951334,0.021953953430056572,0.14302197098731995,0.29368165135383606,0.6609208583831787,0.225116565823555,-0.49955663084983826,-0.24487145245075226,0.06343834847211838,-0.08125884141311206,-0.24528430266132553,0.06347501942310436,0.0027455222636628253,0.012083876090466619,0.14681107905624732,0.190041821448925,0.6886850433393131,-0.40199505599587165,-0.5473833416405631,-0.06520872617077256,0.036628994764825576,0.2860439419746399,-0.00956718809902668,-0.6922422647476196,0.8218417763710022,-0.6591132879257202,0.2537533938884735,0.043907906860113144,0.27278390526771545,-0.07899607717990875,0.08736328035593033,0.7902331352233887,-0.979485809803009
1.0,-0.11022781580686569,-0.24507002532482147,0.10314895957708359,-0.0192007664591074,0.024118468165397644,0.13397216796875,0.3667219877243042,0.5847283601760864,0.23419888317584991,-0.423703134059906,-0.2356635332107544,0.10866674035787582,-0.07934845873634991,-0.23269145512154965,0.05741912449169234,-0.010687990662117322,0.014044654079266831,0.14006377629899983,0.2445379019284772,0.638299687945043,-0.42687958728688974,-0.5034029841050865,-0.06254561933477944,0.0603467666447546,0.2679443359375,-0.0384015329182148,-0.6501400470733643,0.6694567203521729,-0.5074062943458557,0.4346669614315033,0.04823693633079529,0.20629791915416718,-0.06045563891530037,0.2334439903497696,0.8083977699279785,-0.9426541328430176
1.02,-0.0852840393781662,-0.21302439272403717,0.03960401564836502,-0.044660430401563644,0.027914196252822876,0.12115863710641861,0.47138315439224243,0.5052441358566284,0.2279701679944992,-0.35969236493110657,-0.17878438532352448,0.1738329380750656,-0.067053321540839,-0.2107080510227573,0.043622529043632674,-0.031034532837666797,0.02031845126640469,0.13407036035835868,0.32977957272178127,0.5798356037865919,-0.4501577781631882,-0.48507556307645056,-0.05613781326234801,0.08810714587184384,0.24231727421283722,-0.08932086080312729,-0.5860487818717957,0.5104882717132568,-0.37938475608825684,0.6953317523002625,0.05582839250564575,0.07920803129673004,-0.010568073019385338,0.4427662789821625,0.7959403395652771,-0.7151375412940979
1.04,-0.0474124439060688,-0.18795083463191986,-0.0675673633813858,-0.056479815393686295,0.02821425534784794,0.10216628015041351,0.5601832866668701,0.4961709976196289,-0.22459226846694946,-0.19561590254306793,0.00475885346531868,0.20826442539691925,-0.03930638265451766,-0.18025383721923413,0.03547816899195607,-0.04461029215140008,0.028296899322548995,0.1246742562755159,0.4453806981270717,0.5652943536651591,-0.4638596898492644,-0.4883664012460541,-0.03940850823684954,0.058694063385009855,0.20433256030082703,-0.11295963078737259,-0.535901665687561,0.4923420250415802,-0.05123180150985718,0.833057701587677,0.05642851069569588,-0.1351347267627716,0.06517510861158371,0.6203665733337402,-0.10918454825878143,0.01903541386127472
1.06,0.025056375190615654,-0.10364429652690887,-0.0590428002178669,-0.04899908974766731,0.029778506606817245,0.09155122935771942,0.6343251466751099,0.5245298147201538,-0.6520203948020935,0.10015587508678436,0.07231365144252777,0.22048552334308624,-0.008530414836200217,-0.14536035471947095,0.02942622601886058,-0.050762124035228194,0.027821735132868904,0.11212725956260577,0.5687299061053227,0.5438941823811263,-0.502400910426601,-0.4874978058820591,-0.007233319606636673,0.04326427448581217,0.18310245871543884,-0.09799817949533463,-0.36728858947753906,0.5490596890449524,0.5403117537498474,0.881942093372345,0.05955701321363449,-0.1180856004357338,0.21011275053024292,0.768650233745575,-0.9640407562255859,0.2892546057701111
1.08,0.0467178076505661,-0.028583696112036705,-0.0030747561249881983,-0.07681518793106079,0.020443210378289223,0.08568868041038513,0.6913390159606934,0.5133316516876221,-0.6604496836662292,0.2134605199098587,0.019651025533676147,0.21248632669448853,0.00987767236316013,-0.10606321018457238,0.024433446751437993,-0.04431573720632836,0.020284559083127426,0.09406974298058943,0.6630706277761501,0.5148641472502681,-0.5756742667380609,-0.4760636098072731,0.021795924016780727,0.04017599404648582,0.17137736082077026,-0.15363037586212158,-0.21716739237308502,0.5266633629798889,0.7669210433959961,0.8499453067779541,0.040886420756578445,-0.0061495122499763966,0.2534356117248535,0.8826779723167419,-0.9808993935585022,0.07860410213470459
1.1,0.0470583438873291,0.03793024271726608,0.017440559342503548,-0.12599590420722961,0.0033336631022393703,0.08117105811834335,0.719392716884613,0.4753863513469696,-0.6635692715644836,0.20140154659748077,-0.005576096475124359,0.23529763519763947,0.017603583956669243,-0.0589391869972413,0.019582696423537937,-0.033570984130762316,0.009878428176412728,0.0829920544122854,0.7151100853822887,0.47436073939302725,-0.6237730281082845,-0.45528202934713313,0.019475672423701233,0.037621629854102605,0.1623421162366867,-0.25199180841445923,-0.08413951098918915,0.4507727026939392,0.7428030967712402,0.9411905407905579,0.006667326204478741,0.034881118685007095,0.2541166841983795,0.9387854337692261,-0.987138569355011,-0.022304385900497437
1.12,0.027828751131892204,0.05733955278992653,0.03393951803445816,-0.17083151638507843,-0.005054059904068708,0.07580585032701492,0.7298129796981812,0.43059325218200684,-0.6649840474128723,0.17775730788707733,-0.016852496191859245,0.24625712633132935,0.023168540074918358,-0.010911862469033187,0.009362200900685215,-0.029230411029205008,0.002300110512876735,0.07992167180890686,0.7312657978725284,0.4280658937183344,-0.647309511605651,-0.4382853238692545,0.00548018371714183,0.04123398219158326,0.15161170065402985,-0.34166303277015686,-0.045320890843868256,0.36118653416633606,0.6955146193504333,0.9850285053253174,-0.010108119808137417,0.06787903606891632,0.21565750241279602,0.9596258997917175,-0.9899680614471436,-0.06740998476743698
1.1400000000000001,0.015589704737067223,0.07381792366504669,0.034178171306848526,-0.19077470898628235,-0.010162053629755974,0.07069254666566849,0.7333940267562866,0.39447861909866333,-0.665097177028656,0.1779644638299942,-0.023725656792521477,0.24850083887577057,0.02851490632487895,0.0316875917291453,-0.0029452807997752445,-0.03123980418537281,-0.00016997899217836658,0.07921934174039637,0.7285286076828591,0.38667448764807866,-0.657510796008013,-0.42798026940429873,-0.007521387728175938,0.04457551020761812,0.14138509333133698,-0.3815494179725647,-0.012364150956273079,0.28895726799964905,0.6959289312362671,0.9940033555030823,-0.020324107259511948,0.06835634261369705,0.19117940962314606,0.9667879939079285,-0.9901943206787109,-0.09490262717008591
1.16,0.02325834147632122,0.0989282876253128,0.02931622415781021,-0.19818343222141266,-0.016965048387646675,0.06686630100011826,0.7342805862426758,0.3637443780899048,-0.6643885970115662,0.1692882627248764,-0.026726946234703064,0.24912677705287933,0.034986372843907765,0.06802721151140187,-0.013692692825152177,-0.036191969957844315,-0.004093395787798546,0.07836162803991704,0.7238903833015852,0.3530059882821067,-0.6614853751754688,-0.42301773935321296,-0.016510580055128725,0.044818426409665754,0.1337326020002365,-0.3963668644428253,0.0378565713763237,0.22748878598213196,0.6785765290260315,0.9965071082115173,-0.03393009677529335,0.05863244831562042,0.20651668310165405,0.9685611128807068,-0.988777220249176,-0.10690778493881226
1.18,0.04334704577922821,0.12893609702587128,0.02347797527909279,-0.20352168381214142,-0.02478141337633133,0.06341267377138138,0.7337105870246887,0.33893415331840515,-0.6627224087715149,0.16108395159244537,-0.02729295939207077,0.24939270317554474,0.044238984883791146,0.09938259031050019,-0.021427191251981774,-0.04273893509926631,-0.011195862223788686,0.07709486360735837,0.722967985181433,0.32356151051335624,-0.6624188618931801,-0.4228702285676267,-0.021653520597728855,0.044586222736531025,0.12682534754276276,-0.40704336762428284,0.09787220507860184,0.1778683215379715,0.6621679067611694,0.997570812702179,-0.04956282675266266,0.04695595055818558,0.24669408798217773,0.9674211740493774,-0.9854447841644287,-0.10917183756828308
1.2,0.06933091580867767,0.1617376059293747,0.015887822955846786,-0.2083270102739334,-0.033825211226940155,0.05919264629483223,0.7319164276123047,0.3194340765476227,-0.6595363020896912,0.16225974261760712,-0.02903665415942669,0.24954181909561157,0.05593012080051173,0.1268400439537059,-0.024983045797187013,-0.049766717117281575,-0.020925459033460592,0.07425328871143624,0.7239034969839782,0.2968457415129145,-0.6613921911356738,-0.42237963801074163,-0.024501424960300472,0.037269533568338245,0.11838529258966446,-0.4166540205478668,0.16347520053386688,0.13886815309524536,0.6645194888114929,0.9981672763824463,-0.06765042245388031,0.03177564591169357,0.29866182804107666,0.9638329148292542,-0.979072630405426,-0.11614661663770676
1.22,0.09229856729507446,0.18835465610027313,0.009793509729206562,-0.21970707178115845,-0.04293911159038544,0.05280996859073639,0.7283152937889099,0.3014984130859375,-0.6540433168411255,0.1545301228761673,-0.027923446148633957,0.24972842633724213,0.06948309738863383,0.15131101104779268,-0.026111842079437914,-0.05781201852307025,-0.031841869456116084,0.07010321688236783,0.7233933123962754,0.2729094942476221,-0.6583079370631436,-0.4198868933315958,-0.0261077505340906,0.025877161545224722,0.10561993718147278,-0.4394141435623169,0.21670930087566376,0.10299680382013321,0.6490602493286133,0.9989137053489685,-0.08587822318077087,0.019587019458413124,0.34459713101387024,0.9566305875778198,-0.9680866599082947,-0.11169378459453583
1.24,0.11100222170352936,0.20487567782402039,0.0005266775842756033,-0.22353318333625793,-0.049817755818367004,0.04392514377832413,0.7245006561279297,0.29191213846206665,-0.646891713142395,0.17002929747104645,-0.02553367055952549,0.24977464973926544,0.08483641487434299,0.17241942152917447,-0.02724257602473225,-0.0682726027019291,-0.0411490207298778,0.06468721403980673,0.7203694525674399,0.2531374350535334,-0.6534002737201233,-0.4201835861598204,-0.026279958885533864,0.018730403135055723,0.08785028755664825,-0.44706636667251587,0.24975135922431946,0.0838242918252945,0.6800585985183716,0.9990985989570618,-0.09963551163673401,0.0010533551685512066,0.38200443983078003,0.9490012526512146,-0.9537834525108337,-0.10213468223810196
1.26,0.12870320677757263,0.21326667070388794,-0.013151716440916061,-0.2224726676940918,-0.05555039644241333,0.033414121717214584,0.7183875441551208,0.2898963391780853,-0.6352150440216064,0.1918596476316452,-0.020823519676923752,0.24976933002471924,0.10161733042558913,0.18908987284129208,-0.028869524168346334,-0.080340697962858,-0.0491425868665466,0.058311329447271104,0.7154797216185946,0.2407475771499466,-0.6463101740519057,-0.4248619841840773,-0.024881389350417178,0.017829854776343808,0.06682824343442917,-0.4449453353881836,0.26653334498405457,0.07979265600442886,0.7237192988395691,0.999077320098877,-0.11110079288482666,-0.026303432881832123,0.4174064099788666,0.9367750883102417,-0.9304300546646118,-0.08329407870769501
1.28,0.14538423717021942,0.21312975883483887,-0.030229656025767326,-0.21816547214984894,-0.05972380191087723,0.02150612883269787,0.7069112658500671,0.2979657053947449,-0.6140919923782349,0.2163071483373642,-0.014981936663389206,0.24972400069236755,0.11892042590716173,0.19977861369921088,-0.031462999408444006,-0.09293684478608151,-0.055699120065899235,0.04658051626597947,0.7071562817539139,0.23896291972503814,-0.634916748953653,-0.4348159851565295,-0.021654219977257545,0.021299912157066715,0.04301225766539574,-0.4363309442996979,0.2662595212459564,0.09593138098716736,0.7726143002510071,0.9988960027694702,-0.11944760382175446,-0.06045931205153465,0.45076847076416016,0.9138225317001343,-0.8881839513778687,-0.059927746653556824
1.3,0.17239759862422943,0.2117195874452591,-0.05269281566143036,-0.2077847719192505,-0.06351367384195328,0.007636407855898142,0.6853073835372925,0.31943845748901367,-0.5721923112869263,0.2339821308851242,-0.009324745275080204,0.24960674345493317,0.13627482423596995,0.20232353888659468,-0.03495800855502558,-0.10479345412368468,-0.06204407084845792,0.029631009133316254,0.6929717505727034,0.24925690909284826,-0.6141876128161213,-0.44786902520082783,-0.017206417672195752,0.026821735321429393,0.015272815711796284,-0.415569543838501,0.2634391784667969,0.13887694478034973,0.8079642653465271,0.9984269738197327,-0.12702734768390656,-0.10538563132286072,0.5047951936721802,0.870614767074585,-0.8043846487998962,-0.037298981100320816
1.32,0.2017412632703781,0.2018427699804306,-0.07241915911436081,-0.18897904455661774,-0.06424088776111603,-0.009844898246228695,0.6401046514511108,0.360991895198822,-0.4948793053627014,0.2485150247812271,-0.00758498115465045,0.24928273260593414,0.15370787275796854,0.19540152617359055,-0.038763967177091574,-0.11435244106502575,-0.0671463702062794,0.009798717305400832,0.6662535688411877,0.2732200085325138,-0.5748644966484039,-0.4613885089490582,-0.01312407430812654,0.034879239012275666,-0.01968979649245739,-0.3779580891132355,0.2436855435371399,0.22198377549648285,0.8370300531387329,0.9971309304237366,-0.12848177552223206,-0.14483831822872162,0.5634825229644775,0.7802093029022217,-0.6497586369514465,-0.0303399246186018
1.34,0.2181718498468399,0.17033210396766663,-0.07195379585027695,-0.14046913385391235,-0.06047351285815239,-0.03134972229599953,0.5578895807266235,0.42574185132980347,-0.41993454098701477,0.27188003063201904,-0.02683091163635254,0.24789278209209442,0.16848288295289712,0.17625015830228508,-0.037918223924069704,-0.11628817776730774,-0.06766751200882377,-0.013977848816220441,0.612840951733817,0.31772543599507913,-0.5152582787792076,-0.47215174347932226,-0.014629907993458069,0.047241211178048345,-0.06269944459199905,-0.2809382677078247,0.18066419661045074,0.35148370265960693,0.8837600350379944,0.9915711283683777,-0.12094702571630478,-0.1439075917005539,0.5963436961174011,0.6157791614532471,-0.49986910820007324,-0.10732364654541016
1.36,0.22333337366580963,0.12059316784143448,-0.022182676941156387,-0.0599820651113987,-0.05880817398428917,-0.05234210565686226,0.4577152132987976,0.5189368724822998,-0.34710559248924255,0.2747325003147125,-0.08788951486349106,0.23712967336177826,0.1767325399038379,0.14203182398416125,-0.02541459119137797,-0.10284295305140181,-0.06517891901883711,-0.039295526943496216,0.5557660095559043,0.391173787290081,-0.4124879038688051,-0.472624639105301,-0.012234793532843543,0.06755838290527105,-0.10468421131372452,-0.1199641302227974,0.08118633180856705,0.5378738045692444,0.8894649744033813,0.948518693447113,-0.11761634796857834,-0.044365353882312775,0.6066667437553406,0.4154304563999176,-0.3542112112045288,-0.35155805945396423
1.3800000000000001,0.21599657833576202,0.0606357641518116,0.006552858743816614,0.04655199497938156,-0.06327783316373825,-0.06992144882678986,0.4783759117126465,0.6164666414260864,-0.42199084162712097,-0.31174230575561523,-0.1817752718925476,0.14874042570590973,0.17406875403533287,0.09238197684247995,-0.006734883092427704,-0.08172135328192665,-0.06036518789889591,-0.0598123799182861,0.5491959001668685,0.5025227103180704,-0.41692136335197033,-0.4600003627450637,0.0018937219541270353,0.09894883241697416,-0.1398428976535797,0.09310398995876312,-0.03872847184538841,0.7329332232475281,-0.28348463773727417,0.5949617028236389,-0.1265556663274765,0.013105717487633228,0.5919931530952454,0.45675185322761536,-0.5039817094802856,-0.7271010875701904
1.4000000000000001,0.1201620101928711,-0.08019870519638062,0.060042593628168106,0.042538225650787354,-0.059550441801548004,-0.0836315006017685,0.5021746158599854,0.6758168935775757,0.012026803568005562,-0.6625034809112549,-0.1395104080438614,0.013083125464618206,0.16851946163505557,0.04043962185475718,0.006512050575004446,-0.05741240627435574,-0.05504708630312221,-0.06998953216806161,0.5356619582230291,0.627044957865499,-0.42197466674159484,-0.48746536197742013,-0.0002469278695156514,0.10011163948228805,-0.167263001203537,0.08507645130157471,-0.32039740681648254,0.8516338467597961,-0.9850069284439087,0.052332501858472824,-0.11910088360309601,0.12008518725633621,0.4003240168094635,0.5043492317199707,0.3640536069869995,-0.5580416321754456
1.42,0.049139559268951416,-0.1329648196697235,0.08942463994026184,0.030141789466142654,-0.05227650701999664,-0.08062488585710526,0.518991231918335,0.7309589982032776,0.2679109275341034,-0.6676162481307983,-0.08819728344678879,0.01113272923976183,0.14871465497868247,-0.005876173913835155,0.015092151078757013,-0.031283253488462365,-0.0459392005976496,-0.07338752678074084,0.499017910828667,0.7172865320811549,-0.4144423341031499,-0.5678279313455943,-0.0071355886494830455,0.06074768756580676,-0.1612497717142105,0.06028357893228531,-0.42592963576316833,0.9619179964065552,-0.9952325224876404,0.04453091695904732,-0.10455301403999329,0.17884927988052368,0.25827911496162415,0.5379824638366699,0.8758218288421631,-0.35278913378715515
1.44,0.026450393721461296,-0.10020434856414795,0.10182331502437592,0.029699059203267097,-0.05344519764184952,-0.07469997555017471,0.5077958106994629,0.7417911291122437,0.30240777134895325,-0.6683923006057739,-0.12294822931289673,0.028542373329401016,0.11603835509755484,-0.034124895841518774,0.02230004234383522,-0.0029237890694013232,-0.04858753606768788,-0.07575588449479033,0.4618549873036519,0.7570931174761266,-0.4024369946008272,-0.6228355971130614,-0.012871142433792112,0.03633587381856322,-0.14939995110034943,0.059398118406534195,-0.3604086935520172,0.9835821986198425,-0.9967845678329468,0.11416949331760406,-0.10689039528369904,0.20364663004875183,0.2129007875919342,0.5155916810035706,0.9448155164718628,-0.4917929172515869
1.46,0.037384994328022,-0.06541770696640015,0.12434650957584381,0.03181934356689453,-0.057403042912483215,-0.05853535979986191,0.4557957947254181,0.7414427995681763,0.27637454867362976,-0.6671749949455261,-0.21137307584285736,0.018096040934324265,0.08276076986895069,-0.049794370362843544,0.02342089927993249,0.022598557730217256,-0.058068622501371896,-0.06988969303991475,0.4364452948984704,0.7546674862390023,-0.390473090516242,-0.6496585251346348,-0.03173695490752753,0.027023390278457588,-0.11707071959972382,0.06363868713378906,-0.2908354103565216,0.9828855395317078,-0.9943499565124512,0.07238416373729706,-0.11480608582496643,0.24869301915168762,0.23476998507976532,0.4115915894508362,0.8927490711212158,-0.8454923033714294
1.48,0.059538573026657104,-0.03748628497123718,0.15206456184387207,0.0415133535861969,-0.05902786925435066,-0.04126439243555069,0.40399718284606934,0.7409970760345459,0.22896893322467804,-0.6656987071037292,-0.2396441102027893,0.010039099492132664,0.05356871543500517,-0.06389176291275876,0.021548160786069883,0.04516761707629195,-0.06560873631603888,-0.05656882689825715,0.41278570054113795,0.7357976461733777,-0.37793826026762367,-0.6602679819523625,-0.04930262343184564,0.01962408949948988,-0.08252878487110138,0.0830267071723938,-0.23497256636619568,0.981994092464447,-0.9913974404335022,0.040156397968530655,-0.11805573850870132,0.30412912368774414,0.2790771424770355,0.30799436569213867,0.7979378700256348,-0.9585764408111572
1.5,0.06373733282089233,-0.04163143038749695,0.16549371182918549,0.03820885717868805,-0.05684254318475723,-0.020616630092263222,0.3625536561012268,0.7418464422225952,0.17984874546527863,-0.6654892563819885,-0.24421918392181396,0.008403965272009373,0.029720697990204357,-0.08099207873527133,0.020522250124234344,0.06566465679033007,-0.0702945723411539,-0.040385115534601675,0.3854966187197482,0.7217725948212216,-0.3681842684267999,-0.6639926302750564,-0.0631068136252651,0.013286049283305039,-0.041233260184526443,0.0764177143573761,-0.2432628571987152,0.9836928248405457,-0.990978479385376,0.03361586108803749,-0.11368508636951447,0.33098742365837097,0.287474662065506,0.2251073271036148,0.6996974945068359,-0.9768767356872559
1.52,0.04910658299922943,-0.0669567883014679,0.16998624801635742,0.034302983433008194,-0.052023593336343765,0.0005220042075961828,0.33280202746391296,0.7434570789337158,0.16266287863254547,-0.666187584400177,-0.2452467530965805,0.0023194570094347,0.010541807662648504,-0.10084918360417773,0.019769748218202782,0.08118638942012228,-0.07006271096932003,-0.02217098880854152,0.35345281208811197,0.7190538198822395,-0.36119750543521506,-0.6654146206085964,-0.07030477109281842,0.008084404909317998,0.0010440084151923656,0.06860596686601639,-0.2939135730266571,0.9869141578674316,-0.9923751950263977,0.0092778280377388,-0.10404718667268753,0.33997249603271484,0.2582131624221802,0.16560405492782593,0.6653257608413696,-0.980987012386322
1.54,0.020610777661204338,-0.10079003870487213,0.17457722127437592,0.03198373317718506,-0.04503236338496208,0.023362018167972565,0.30474135279655457,0.7448084354400635,0.17169950902462006,-0.6664758324623108,-0.24541842937469482,-0.004321714863181114,-0.0058850132372275914,-0.12072772805264108,0.019369008931949278,0.0908095001850529,-0.06600198015118099,-0.0012163187119845545,0.3174988049572963,0.7233863751594064,-0.3572285861782214,-0.6659262019536197,-0.07178544572060139,0.002426306832149438,0.04672403633594513,0.06396746635437012,-0.3615800738334656,0.989616870880127,-0.9929516315460205,-0.017286859452724457,-0.09006472676992416,0.34915444254875183,0.2012215554714203,0.10948271304368973,0.6833990216255188,-0.9816737174987793
1.56,-0.010551275685429573,-0.13236881792545319,0.17559124529361725,0.03335349261760712,-0.03561478853225708,0.046209633350372314,0.27485233545303345,0.7458548545837402,0.19353945553302765,-0.6664352416992188,-0.24492216110229492,-0.008703405037522316,-0.021484647552507268,-0.13914518744882542,0.02014094605315705,0.09489939205624753,-0.058832467943093894,0.021976078141878713,0.2775813781071809,0.7292030976475768,-0.3554628855043482,-0.6659710698256482,-0.06693428919527154,-0.0032316363360590547,0.09241926670074463,0.06670698523521423,-0.4247376322746277,0.9917096495628357,-0.9928704500198364,-0.034813620150089264,-0.07122957706451416,0.3511824905872345,0.13889744877815247,0.0497046522796154,0.727078914642334,-0.9796886444091797
1.58,-0.03914365917444229,-0.1602487713098526,0.17331869900226593,0.03601127490401268,-0.023724431172013283,0.06811141967773438,0.2430383861064911,0.7465624809265137,0.2148132175207138,-0.66616290807724,-0.24401737749576569,-0.01332092098891735,-0.03666349096985029,-0.15587666626138458,0.020382227740290446,0.09152045894958166,-0.05215880161442086,0.047103302014508304,0.2352319261271071,0.733906857623396,-0.3463451464367148,-0.6656532226687042,-0.045989758042117156,-0.008136070196185867,0.13622283935546875,0.07202254980802536,-0.4804975390434265,0.9931250214576721,-0.9923257827758789,-0.0532836839556694,-0.047448862344026566,0.34663739800453186,0.08171267807483673,-0.01392321940511465,0.7696264386177063,-0.9760695099830627
1.6,-0.053758300840854645,-0.17044682800769806,0.18680034577846527,0.03679367154836655,-0.011108702048659325,0.08663029223680496,0.2128441035747528,0.7468016743659973,0.21991242468357086,-0.664988100528717,-0.24634675681591034,-0.017295442521572113,-0.05172606713615586,-0.17033155550417206,0.01888902530590771,0.08335255107160491,-0.044240438787197224,0.07075638804002243,0.19519884001380133,0.7349433617465174,-0.3347662158775303,-0.6646657316427966,-0.04429664878938396,-0.012320640090857838,0.17326058447360992,0.0735873430967331,-0.5008936524391174,0.9936033487319946,-0.989976167678833,-0.06918177008628845,-0.02221740409731865,0.37360069155693054,0.052483394742012024,-0.07431180775165558,0.7798248529434204,-0.9853870272636414
