time,cmd_L_hip_pitch,cmd_R_hip_pitch,cmd_L_hip_roll,cmd_R_hip_roll,cmd_L_hip_yaw,cmd_R_hip_yaw,cmd_L_knee,cmd_R_knee,cmd_L_foot_pitch,cmd_R_foot_pitch,cmd_L_foot_roll,cmd_R_foot_roll,pos_L_hip_pitch,pos_R_hip_pitch,pos_L_hip_roll,pos_R_hip_roll,pos_L_hip_yaw,pos_R_hip_yaw,pos_L_knee,pos_R_knee,pos_L_foot_pitch,pos_R_foot_pitch,pos_L_foot_roll,pos_R_foot_roll,act_L_hip_pitch,act_R_hip_pitch,act_L_hip_roll,act_R_hip_roll,act_L_hip_yaw,act_R_hip_yaw,act_L_knee,act_R_knee,act_L_foot_pitch,act_R_foot_pitch,act_L_foot_roll,act_R_foot_roll
0.0,-0.04586803540587425,-0.025231679901480675,0.03699208050966263,-0.13980577886104584,-0.021386785432696342,0.04404323175549507,0.490689754486084,0.40736985206604004,0.0027877558022737503,-0.29296863079071045,0.05720369145274162,0.1745535284280777,-0.05695605762496239,0.058840307002939574,-0.006032996397196809,-0.008076816503021408,-0.004383002096403494,0.010276594129373252,0.28756759497392714,0.2889831738614428,-0.2697673215864212,-0.29061478090185494,0.00923160147550521,0.03344072624339126,0.06826392561197281,-0.21046335995197296,0.07398416101932526,-0.2796115577220917,-0.042773570865392685,0.08808646351099014,0.48137953877449036,0.31473973393440247,0.3455755114555359,-0.2459372729063034,0.2288147658109665,0.6982141137123108
0.02,-0.028134027495980263,-0.06574520468711853,0.03780575469136238,-0.1109820008277893,-0.005726261530071497,0.07081596553325653,0.5460729598999023,0.4136887490749359,0.1574547439813614,-0.25038760900497437,0.03691783919930458,0.18955595791339874,-0.01737200727309672,0.028089953116562965,-0.023614405889036363,-0.0323189156411475,-0.010135691995137839,0.034078818737902174,0.34426065427515823,0.34438139031115633,-0.28449192731825734,-0.3377175672413071,0.02165821015684038,0.09293915623176763,0.10373194515705109,-0.2914904057979584,0.07561150938272476,-0.2219640016555786,-0.011452523060142994,0.14163193106651306,0.5921459197998047,0.3273774981498718,0.6549094915390015,-0.16077521443367004,0.14767135679721832,0.758223831653595
0.04,-0.004556426778435707,-0.08673489093780518,0.03789569064974785,-0.07931240648031235,-0.013378390111029148,0.08333658427000046,0.5665520429611206,0.39164334535598755,0.18355275690555573,-0.28118833899497986,0.03574554622173309,0.19774706661701202,0.017334735336064774,0.00597679015626178,-0.04145969215035227,-0.051309147351039745,-0.014940618676747919,0.06452553843679677,0.4080587205276173,0.3792847005996518,-0.3015735395293218,-0.3836344280544201,0.026303653551513154,0.11758073554414962,0.1508871465921402,-0.33346977829933167,0.0757913812994957,-0.1586248129606247,-0.026756780222058296,0.16667316854000092,0.6331040263175964,0.2832866609096527,0.7071055173873901,-0.22237668931484222,0.14298218488693237,0.7909882664680481
0.06,0.023862941190600395,-0.09624804556369781,0.010278120636940002,-0.07319403439760208,-0.02698950096964836,0.09092339128255844,0.5830065011978149,0.3658697009086609,0.17092718183994293,-0.3241313397884369,0.030081862583756447,0.20803998410701752,0.04679647162154809,-0.009107753229010918,-0.053184333945020784,-0.0629063957609805,-0.01977883332074077,0.08191909292373217,0.46480156176340226,0.39992760098918534,-0.3178937601064798,-0.42025309342351364,0.026588576543153473,0.1318699376087168,0.2077258825302124,-0.35249608755111694,0.020556241273880005,-0.14638806879520416,-0.05397900193929672,0.18184678256511688,0.6660130620002747,0.23173943161964417,0.6818543672561646,-0.3082626760005951,0.12032745033502579,0.8321599364280701
0.08,0.04147898405790329,-0.08717864751815796,-0.013486345298588276,-0.0793626680970192,-0.04168996214866638,0.09339119493961334,0.614263653755188,0.3502597212791443,0.14773176610469818,-0.31664150953292847,0.021551379933953285,0.21142058074474335,0.0694186446274947,-0.018183709991248426,-0.0520803290932985,-0.0631198362293369,-0.028458653854165114,0.09081052991336205,0.5091252698008154,0.40690559068461074,-0.32922268878200955,-0.4238638116321189,0.025609377814709608,0.11537428100773518,0.2429579645395279,-0.33435729146003723,-0.026972690597176552,-0.1587253361940384,-0.08337992429733276,0.18678238987922668,0.728527307510376,0.2005194127559662,0.635463535785675,-0.29328301548957825,0.08620551973581314,0.8456823229789734
0.1,0.05821515619754791,-0.1016165018081665,-0.03220672160387039,-0.08394493162631989,-0.04436543956398964,0.08794993162155151,0.6277577877044678,0.3413984477519989,0.12055982649326324,-0.3405858874320984,0.004792820196598768,0.21582162380218506,0.08965334944629781,-0.023872147344018078,-0.0502618077811537,-0.06139325915066746,-0.03678167129526955,0.09574973056666382,0.5433567136119212,0.4049303533392661,-0.3300176116652299,-0.41810778492150097,0.022925851916541975,0.11183958257890739,0.27643030881881714,-0.3632330000400543,-0.06441344320774078,-0.16788986325263977,-0.08873087912797928,0.17589986324310303,0.7555156350135803,0.1827968955039978,0.5811196565628052,-0.3411718010902405,0.019171280786395073,0.8632864952087402
0.12,0.05921059846878052,-0.10883815586566925,-0.030658569186925888,-0.08490289002656937,-0.044384170323610306,0.082906074821949,0.6343435049057007,0.33714768290519714,0.08591316640377045,-0.31731361150741577,-0.011860973201692104,0.2124178260564804,0.10686412527457506,-0.028414690853448873,-0.05067156867245576,-0.061375955586110635,-0.040796624444891974,0.09884130878047095,0.5671347284417664,0.3990312582427643,-0.32391055517803286,-0.410972672696513,0.01589887908288844,0.1121239562373445,0.27842119336128235,-0.3776763081550598,-0.061317138373851776,-0.16980578005313873,-0.08876834064722061,0.165812149643898,0.7686870694160461,0.1742953509092331,0.5118263363838196,-0.29462724924087524,-0.04744389280676842,0.8496713042259216
0.14,0.06363901495933533,-0.11202795803546906,-0.029030095785856247,-0.09376830607652664,-0.044880710542201996,0.08130965381860733,0.6462602615356445,0.3361290395259857,0.05781087279319763,-0.28908732533454895,-0.022110583260655403,0.21273565292358398,0.11927075670440455,-0.030612014525650977,-0.05096781469463473,-0.061360022963495964,-0.04167676155372081,0.100439211340307,0.582431832476474,0.39131391359336687,-0.3165842705697981,-0.403613005277731,0.009168645362613442,0.11249178451744712,0.28727802634239197,-0.3840559124946594,-0.058060191571712494,-0.18753661215305328,-0.08976142108440399,0.16261930763721466,0.7925205826759338,0.17225807905197144,0.45562174916267395,-0.2381746619939804,-0.08844233304262161,0.8509426116943359
0.16,0.06883734464645386,-0.1163257360458374,-0.027549048885703087,-0.10108745098114014,-0.041507065296173096,0.08079241216182709,0.6570487022399902,0.33595359325408936,0.03509467840194702,-0.25959035754203796,-0.02973623014986515,0.21444788575172424,0.12919412289406582,-0.032357116579045754,-0.051001280814366605,-0.06114885372121858,-0.04166648744066244,0.10066997685275585,0.5932699865124432,0.3847161757188111,-0.3096191411264415,-0.39745822580907547,0.004176831948373872,0.11255105837002724,0.29767468571662903,-0.3926514685153961,-0.055098097771406174,-0.20217490196228027,-0.08301413059234619,0.16158482432365417,0.8140974044799805,0.17190715670585632,0.41018936038017273,-0.17918074131011963,-0.1189449205994606,0.857791543006897
0.18,0.07531832158565521,-0.11896389722824097,-0.027245139703154564,-0.10592234879732132,-0.03725259751081467,0.08115086704492569,0.6680521965026855,0.3363494873046875,0.01819680817425251,-0.2339976280927658,-0.03456031531095505,0.21620714664459229,0.1376449398681689,-0.034465436636259346,-0.050677774739784846,-0.06047759792837334,-0.04124990351589925,0.10066931364398655,0.6022373205242776,0.38045056351982937,-0.30374679678362987,-0.3928443253507248,-0.0012098745287449253,0.11252378340983255,0.31063663959503174,-0.39792779088020325,-0.05449027940630913,-0.21184469759464264,-0.07450519502162933,0.16230173408985138,0.8361043930053711,0.172698974609375,0.3763936161994934,-0.12799525260925293,-0.1382412612438202,0.8648285865783691
0.2,0.08321544528007507,-0.12016032636165619,-0.027177104726433754,-0.10938121378421783,-0.03444160893559456,0.08154450356960297,0.6778818368911743,0.33704328536987305,0.007319914177060127,-0.21552224457263947,-0.037135060876607895,0.21760672330856323,0.1453027006693574,-0.03663714295319755,-0.04954211845079298,-0.05896407615564046,-0.039754162532079716,0.1006539904889875,0.611299167336658,0.37796639663233655,-0.2996723625354675,-0.389342087811549,-0.0061576027616415605,0.11244028448742727,0.32643088698387146,-0.4003206491470337,-0.05435420945286751,-0.21876242756843567,-0.06888321787118912,0.16308900713920593,0.8557636141777039,0.1740865409374237,0.35463982820510864,-0.09104447811841965,-0.14854024350643158,0.8704268932342529
0.22,0.09015075862407684,-0.12213122844696045,-0.026633882895112038,-0.1105579361319542,-0.03221151605248451,0.08102137595415115,0.6846506595611572,0.33800724148750305,0.001250879722647369,-0.20301127433776855,-0.03927331417798996,0.2184952050447464,0.15242723869594083,-0.03880720725260345,-0.047622059780162505,-0.05677371088857881,-0.037413616506187714,0.10061776511140853,0.6205727426974437,0.37669283093666717,-0.2970043680273942,-0.3866230651408918,-0.008976568731335045,0.11232611983668492,0.340301513671875,-0.4042624533176422,-0.053267765790224075,-0.2211158722639084,-0.06442303210496902,0.1620427519083023,0.8693012595176697,0.1760144978761673,0.34250175952911377,-0.06602254509925842,-0.15709325671195984,0.8739808201789856
0.24,0.09553694725036621,-0.12401211261749268,-0.02627410553395748,-0.10956957191228867,-0.030621077865362167,0.0800609290599823,0.6895087957382202,0.3394465446472168,-0.0004594308265950531,-0.19490523636341095,-0.04133571684360504,0.21871736645698547,0.1587248783832877,-0.04098433016898519,-0.04538920033109172,-0.0542798575762712,-0.035279346382951944,0.10058130226590883,0.6289907490906004,0.3762939641688925,-0.29511631392451876,-0.3845304301070286,-0.011498407497669609,0.11217002449865379,0.35107389092445374,-0.40802422165870667,-0.05254821106791496,-0.21913914382457733,-0.061242155730724335,0.1601218581199646,0.8790175318717957,0.1788931041955948,0.33908113837242126,-0.04981047660112381,-0.16534286737442017,0.8748694658279419
0.26,0.0989389717578888,-0.12627148628234863,-0.02596856653690338,-0.10672653466463089,-0.029372885823249817,0.07916080951690674,0.6924925446510315,0.34095290303230286,0.0008007753058336675,-0.1897224634885788,-0.04346941411495209,0.21842071413993835,0.16389208913797157,-0.04301871772492476,-0.04311597882596731,-0.05175276949797233,-0.033576745880536746,0.10053352418388256,0.6356489820176603,0.3762495439544113,-0.29351682914518207,-0.38280851344225947,-0.014114175756052073,0.11203494916804818,0.3578779399394989,-0.4125429689884186,-0.05193713307380676,-0.21345306932926178,-0.058745771646499634,0.15832161903381348,0.884985089302063,0.18190579116344452,0.34160155057907104,-0.0394449308514595,-0.17387765645980835,0.8736828565597534
0.28,0.10084369778633118,-0.1278989315032959,-0.02584010735154152,-0.1033526137471199,-0.028768518939614296,0.07859288156032562,0.6946498155593872,0.3425323963165283,0.0038437265902757645,-0.18559567630290985,-0.04559031128883362,0.21769487857818604,0.1677960801832689,-0.04479463502260806,-0.04092589700073829,-0.04934966748060027,-0.03228245045646814,0.10048282540413017,0.6401633812208972,0.37621927433747465,-0.2919291018751419,-0.38127111969413113,-0.01653539846392421,0.111920263982544,0.36168739199638367,-0.4157978594303131,-0.05168021470308304,-0.2067052274942398,-0.05753703787922859,0.15718576312065125,0.8892996311187744,0.18506477773189545,0.3476874530315399,-0.03119133785367012,-0.18236124515533447,0.8707795143127441
0.3,0.1019282191991806,-0.12911325693130493,-0.025712648406624794,-0.09978830814361572,-0.02857796475291252,0.07827576249837875,0.6962348818778992,0.34346097707748413,0.006557973101735115,-0.18201981484889984,-0.047726429998874664,0.216975599527359,0.17053116505891994,-0.046203726686864816,-0.03882867797489185,-0.047146729120817195,-0.03137764038353803,0.1003562378706421,0.6428663780459973,0.3761979297741941,-0.2901570860728224,-0.37990178023936577,-0.017393375609555402,0.11184230409138575,0.3638564348220825,-0.4182265102863312,-0.05142529681324959,-0.19957661628723145,-0.05715592950582504,0.1565515249967575,0.8924697637557983,0.18692193925380707,0.3531159460544586,-0.024039626121520996,-0.19090571999549866,0.867902398109436
0.32,0.10225526988506317,-0.13030023872852325,-0.025572078302502632,-0.09669924527406693,-0.028217915445566177,0.07813452929258347,0.6972318887710571,0.3440161347389221,0.008649559691548347,-0.17918500304222107,-0.04970230162143707,0.21638447046279907,0.17237411434631747,-0.047279131710364894,-0.036930523024789136,-0.045131327491553595,-0.030909690749937244,0.10012973941557993,0.6442825516578173,0.3761994919212669,-0.2882816172534083,-0.37867823268953243,-0.01841016709878584,0.11172510005085075,0.36451053619384766,-0.4206004738807678,-0.051144156605005264,-0.19339849054813385,-0.056435830891132355,0.15626905858516693,0.8944637179374695,0.18803225457668304,0.3572991192340851,-0.018370002508163452,-0.1988092064857483,0.8655378818511963
0.34,0.10237996280193329,-0.13124147057533264,-0.025418702512979507,-0.09448762238025665,-0.027971407398581505,0.07830893993377686,0.6979788541793823,0.34427928924560547,0.01034325547516346,-0.17764697968959808,-0.051099993288517,0.21595953404903412,0.1735910976182639,-0.04809441642339737,-0.035204354232808724,-0.04327042032771575,-0.030569309425606025,0.09986094836942369,0.6448799908324963,0.37621294087726226,-0.2863753224263462,-0.37755688499635714,-0.0199417961321298,0.11146512657747164,0.3647599220275879,-0.4224829375743866,-0.050837405025959015,-0.1889752447605133,-0.05594281479716301,0.1566178798675537,0.8959577083587646,0.18855859339237213,0.3606865108013153,-0.015293964184820652,-0.204399973154068,0.8638381361961365
0.36,0.10248582065105438,-0.1318051815032959,-0.025296835228800774,-0.09288332611322403,-0.027872731909155846,0.07856950908899307,0.6984320878982544,0.34432724118232727,0.011372463777661324,-0.17687085270881653,-0.0520554818212986,0.21571610867977142,0.17439916588304816,-0.04869546267935878,-0.033614922461369344,-0.041550744974357956,-0.030304244728792933,0.09958744154834212,0.6450423789793489,0.3762315314186263,-0.28441442697049424,-0.37650594441816,-0.021656269056537517,0.11101700319828,0.3649716377258301,-0.4236103594303131,-0.05059367045760155,-0.18576665222644806,-0.05574546381831169,0.15713901817798615,0.8968642354011536,0.18865449726581573,0.36274492740631104,-0.013741707429289818,-0.2082219272851944,0.8628644347190857
0.38,0.10266891121864319,-0.1321675330400467,-0.0253110583871603,-0.09163405001163483,-0.027824824675917625,0.07883135229349136,0.6987438201904297,0.3441241383552551,0.011536659672856331,-0.17648223042488098,-0.05272854492068291,0.2156214863061905,0.17498293611652505,-0.049121397708607205,-0.03214222193965,-0.039968130534525345,-0.03011540300568305,0.09933101788980757,0.6450865508774252,0.37625176679231637,-0.28236967773691823,-0.37550537944693413,-0.02326962248751961,0.1103500805637146,0.3653378188610077,-0.4243350625038147,-0.0506221167743206,-0.18326810002326965,-0.05564964935183525,0.15766270458698273,0.8974876403808594,0.18824829161167145,0.36307331919670105,-0.012964455410838127,-0.21091417968273163,0.862485945224762
0.4,0.10299986600875854,-0.132333904504776,-0.02544911950826645,-0.09069778770208359,-0.02780197747051716,0.07902040332555771,0.6989989280700684,0.34374263882637024,0.01086747832596302,-0.17621712386608124,-0.053209006786346436,0.21565645933151245,0.17542892369887303,-0.049416348449863076,-0.030771132993403658,-0.03852508933827495,-0.029964790872097635,0.09913111410933789,0.6451272912715678,0.3762732699875161,-0.2802151848102529,-0.37454436685882975,-0.024518646347602896,0.10948828496262468,0.3659997284412384,-0.4246678054332733,-0.0508982390165329,-0.18139557540416718,-0.05560395494103432,0.15804080665111542,0.8979977965354919,0.18748529255390167,0.36173495650291443,-0.012434258125722408,-0.21283602714538574,0.8626258373260498
0.42,0.1035054624080658,-0.1321919858455658,-0.025689732283353806,-0.08990764617919922,-0.02779202163219452,0.07904963195323944,0.6993441581726074,0.34324193000793457,0.009111227467656136,-0.17515221238136292,-0.05371557176113129,0.2157777100801468,0.17581686505675267,-0.049588607090438656,-0.029488868789433655,-0.037238987315894735,-0.029812035294897003,0.09891559030154091,0.6452432071972751,0.3762931957586273,-0.277867987185209,-0.3736351319854462,-0.024751626637779398,0.10852179556784664,0.3670109212398529,-0.4243839681148529,-0.05137946456670761,-0.17981529235839844,-0.05558404326438904,0.15809926390647888,0.8986882567405701,0.18648388981819153,0.35822245478630066,-0.01030441652983427,-0.21486228704452515,0.8631108403205872
0.44,0.10413490235805511,-0.13191740214824677,-0.0259039718657732,-0.08950489014387131,-0.02770395576953888,0.07904002815485,0.6997166872024536,0.3427998125553131,0.0070370156317949295,-0.17377972602844238,-0.054060619324445724,0.21593034267425537,0.176215985336855,-0.04967463948425328,-0.028320749898444714,-0.036060629358834834,-0.029728382379339127,0.0986917980590925,0.645519780340634,0.3763073105063978,-0.27543156517316497,-0.3727743092414852,-0.02501104840413442,0.10752236556166857,0.36826980113983154,-0.42383480072021484,-0.0518079437315464,-0.17900978028774261,-0.05540791153907776,0.1580800563097,0.8994333148002625,0.18559962511062622,0.35407403111457825,-0.007559438236057758,-0.2162424772977829,0.8637213706970215
0.46,0.10478602349758148,-0.1313125342130661,-0.026082444936037064,-0.08936034888029099,-0.027568276971578598,0.0789743959903717,0.7002792358398438,0.342682421207428,0.00491933710873127,-0.17097219824790955,-0.05444968119263649,0.21610631048679352,0.1767353680623492,-0.049800746834621365,-0.027208940289000203,-0.034950392846441546,-0.029646367423525836,0.09849069954788041,0.6459538583027715,0.37631015293601766,-0.2729546689364162,-0.3719554346897132,-0.02510001535115938,0.10649239650680918,0.3695720434188843,-0.4226250648498535,-0.05216488987207413,-0.17872069776058197,-0.055136553943157196,0.1579487919807434,0.9005584120750427,0.18536484241485596,0.3498386740684509,-0.0019443976925686002,-0.21779872477054596,0.8644252419471741
0.48,0.10579827427864075,-0.13046151399612427,-0.026301968842744827,-0.08947239071130753,-0.027580849826335907,0.07884783297777176,0.7010507583618164,0.34259819984436035,0.002660619094967842,-0.16757310926914215,-0.05474415048956871,0.21631737053394318,0.17731870507348937,-0.04990221623008125,-0.02615557699378647,-0.03389497049654472,-0.02954008647260742,0.09830972032396261,0.6465789593442818,0.37630761715877875,-0.27049571266402894,-0.3711859218373603,-0.02530097701961818,0.10541477544305791,0.3715965449810028,-0.42092302441596985,-0.052603937685489655,-0.17894478142261505,-0.055161699652671814,0.15769566595554352,0.9021015763282776,0.1851963996887207,0.3453212380409241,0.004853768739849329,-0.21897660195827484,0.8652694821357727
0.5,0.10684506595134735,-0.12975187599658966,-0.026482539251446724,-0.08972461521625519,-0.02750128135085106,0.07865101099014282,0.7017605304718018,0.34260645508766174,0.00034494875581003726,-0.16386130452156067,-0.05496204271912575,0.21652236580848694,0.1779998036333479,-0.04999394734280441,-0.025176414139211123,-0.032893287531295924,-0.029417922480546355,0.09811631038183208,0.6474123355387122,0.37629689104171904,-0.26808215616385184,-0.37047171783372224,-0.02584642697629907,0.10428286451814595,0.373690128326416,-0.41950374841690063,-0.05296507850289345,-0.17944923043251038,-0.05500256270170212,0.15730202198028564,0.9035210609436035,0.1852128952741623,0.34068989753723145,0.012277399189770222,-0.219848170876503,0.8660894632339478
0.52,0.10787783563137054,-0.12918302416801453,-0.026667241007089615,-0.09002277255058289,-0.027347233146429062,0.07843227684497833,0.7024566531181335,0.3426894545555115,-0.0020574908703565598,-0.15991422533988953,-0.05512894690036774,0.21670633554458618,0.1787479781733256,-0.05008806445787897,-0.024263389806341202,-0.031942876790882466,-0.02931798452716762,0.0979084921824276,0.6483597115962754,0.3762789128390385,-0.26570545338597085,-0.36981771856379303,-0.02661154542951868,0.10311392686765543,0.3757556676864624,-0.41836604475975037,-0.05333448201417923,-0.18004554510116577,-0.054694466292858124,0.15686455368995667,0.9049133062362671,0.18537889420986176,0.33588501811027527,0.02017155848443508,-0.22051578760147095,0.8668253421783447
0.54,0.10892395675182343,-0.12862645089626312,-0.02686483971774578,-0.09023960679769516,-0.027126964181661606,0.07820644974708557,0.7031867504119873,0.34295541048049927,-0.00435270182788372,-0.1550028771162033,-0.055316850543022156,0.2168930172920227,0.1794933335714674,-0.05015684875493691,-0.02338990866421826,-0.031029588718140395,-0.02918158924192835,0.09770330283062775,0.6493457874197027,0.3762520001442603,-0.26336889636996363,-0.3692223016110396,-0.027450861446178677,0.10193718182533075,0.37784790992736816,-0.41725289821624756,-0.05372967943549156,-0.18047921359539032,-0.05425392836332321,0.15641289949417114,0.9063734412193298,0.18591085076332092,0.33129459619522095,0.029994236305356026,-0.22126740217208862,0.8675720691680908
0.56,0.11004339158535004,-0.1276015043258667,-0.027188140898942947,-0.09069060534238815,-0.02704998292028904,0.07802095264196396,0.704187273979187,0.3433077931404114,-0.006907431408762932,-0.149941548705101,-0.055522751063108444,0.21702799201011658,0.18024784091974197,-0.05021330797495495,-0.022547916480967517,-0.030141491804559488,-0.029083506480521763,0.09748876728425424,0.6503713134109995,0.37622724804093827,-0.26108801855874003,-0.3686914516522031,-0.02833264656975488,0.10075953058356935,0.3800867795944214,-0.4152030050754547,-0.054376281797885895,-0.1813812106847763,-0.05409996584057808,0.15604190528392792,0.9083746075630188,0.18661560118198395,0.3261851370334625,0.040116891264915466,-0.22209100425243378,0.8681119680404663
0.58,0.11136800050735474,-0.1265271157026291,-0.027437852695584297,-0.09118544310331345,-0.027067698538303375,0.07778147608041763,0.7051740884780884,0.3436047434806824,-0.009693039581179619,-0.1443808525800705,-0.05569123104214668,0.21720276772975922,0.1810454879249266,-0.050264277949474655,-0.021731719743203818,-0.02927930749721158,-0.028968725727737264,0.0972585169402709,0.6514874177238686,0.3761978180292574,-0.2588731666994466,-0.3682200596251851,-0.02923233502457631,0.09953567425085395,0.3827359974384308,-0.4130542278289795,-0.054875705391168594,-0.1823708862066269,-0.05413539707660675,0.15556295216083527,0.910348117351532,0.18720945715904236,0.32061392068862915,0.0512382909655571,-0.22276492416858673,0.8688110709190369
0.6,0.11262862384319305,-0.12550780177116394,-0.027750331908464432,-0.09168127179145813,-0.02693020924925804,0.07747431099414825,0.7061194181442261,0.34404507279396057,-0.01260123960673809,-0.138319194316864,-0.05591452121734619,0.2173939347267151,0.18188090833657147,-0.05029486898534751,-0.02093025122262199,-0.02843180295167969,-0.02884706326122899,0.09700267542311639,0.6526915687908056,0.3761432631121488,-0.25673551458235244,-0.3677958577089383,-0.03014022310387888,0.09827771523872167,0.3852572441101074,-0.4110155999660492,-0.055500663816928864,-0.18336254358291626,-0.05386041849851608,0.1549486219882965,0.9122387766838074,0.18809014558792114,0.3147975206375122,0.06336161494255066,-0.22365808486938477,0.8695757389068604
0.62,0.11387170851230621,-0.12483863532543182,-0.02800701931118965,-0.09215832501649857,-0.026674211025238037,0.07713251560926437,0.7069841623306274,0.3445528447628021,-0.015520734712481499,-0.1318514198064804,-0.056102361530065536,0.21760021150112152,0.18273952919738493,-0.05032295937400973,-0.020127373540630083,-0.02760421132314506,-0.028697979542108055,0.0967241303270292,0.6539411391137213,0.3760916316242011,-0.2546486253710242,-0.36743097696485416,-0.030683268087705017,0.097022517907201,0.38774341344833374,-0.40967726707458496,-0.0560140386223793,-0.18431665003299713,-0.053348422050476074,0.15426503121852875,0.9139683842658997,0.18910570442676544,0.3089585304260254,0.07629717141389847,-0.22440944612026215,0.8704008460044861
0.64,0.11523580551147461,-0.12405917048454285,-0.02840634435415268,-0.09252352267503738,-0.02640586905181408,0.07674276828765869,0.7079881429672241,0.3449568748474121,-0.018916143104434013,-0.12554222345352173,-0.05635005608201027,0.21779710054397583,0.1835958500553146,-0.05029495048629542,-0.019349225392717346,-0.02681556892855404,-0.028561375196470992,0.09638588074284306,0.6552382546414312,0.37602520488161634,-0.2525665928704483,-0.36712059213713666,-0.03088159638101798,0.09579626654923924,0.39047160744667053,-0.408118337392807,-0.05681268870830536,-0.18504704535007477,-0.05281173810362816,0.15348553657531738,0.915976345539093,0.18991373479366302,0.30216771364212036,0.08891554176807404,-0.22540022432804108,0.8711884021759033
0.66,0.11660586297512054,-0.12314999103546143,-0.028738586232066154,-0.09306104481220245,-0.02618754468858242,0.07634386420249939,0.7089442014694214,0.34546834230422974,-0.022271795198321342,-0.11931975185871124,-0.05654962733387947,0.21797923743724823,0.1844639875926999,-0.05026754843593132,-0.01858105530961103,-0.02603441426416949,-0.02845698611304379,0.09603128272155964,0.6565542465102528,0.37596095044460176,-0.25055936070304774,-0.36686299478723305,-0.03101790457467828,0.0946036116095267,0.3932117223739624,-0.40629997849464417,-0.05747717246413231,-0.1861220896244049,-0.05237508937716484,0.15268772840499878,0.917888343334198,0.19093669950962067,0.2954564094543457,0.1013604998588562,-0.22619850933551788,0.8719169497489929
0.68,0.11795410513877869,-0.12208491563796997,-0.029067249968647957,-0.09366970509290695,-0.02601124346256256,0.07592587918043137,0.7099494934082031,0.3460509777069092,-0.025797678157687187,-0.11314421892166138,-0.05681804567575455,0.21815450489521027,0.18532328936642586,-0.05023910187647864,-0.017827034449399686,-0.025255608767434014,-0.028352154207178796,0.0956761735466014,0.657866648759815,0.3758887788316719,-0.24868708553903202,-0.3666499130144347,-0.03137829556317589,0.09339423603423952,0.3959082067012787,-0.40416982769966125,-0.058134499937295914,-0.1873394101858139,-0.05202248692512512,0.15185175836086273,0.919899046421051,0.19210192561149597,0.288404643535614,0.11371156573295593,-0.2272721827030182,0.8726180195808411
0.7000000000000001,0.11945447325706482,-0.12122920155525208,-0.02929990366101265,-0.09426623582839966,-0.025880470871925354,0.07547804713249207,0.7108097076416016,0.3467126488685608,-0.028837917372584343,-0.10693685710430145,-0.05698283761739731,0.21837130188941956,0.18615271879923145,-0.05019410231588578,-0.0170736412623837,-0.02447275827092375,-0.028245223806947953,0.0953061812852865,0.6591729736010816,0.37582912082455044,-0.24695132587681304,-0.36649292433232333,-0.031810922062334435,0.0921669686878073,0.39890894293785095,-0.40245839953422546,-0.0585998073220253,-0.18853247165679932,-0.05176094174385071,0.15095609426498413,0.9216193556785583,0.19342532753944397,0.2823241651058197,0.12612628936767578,-0.22793135046958923,0.8734852075576782
0.72,0.12073518335819244,-0.12027908861637115,-0.02954760380089283,-0.09482722729444504,-0.02570902742445469,0.07506652176380157,0.71169513463974,0.3475382328033447,-0.03186263144016266,-0.10099940001964569,-0.05723313242197037,0.21850460767745972,0.18695273786288036,-0.050137960504421944,-0.016334148721370217,-0.0236945824629449,-0.028120705716139203,0.09491708594287898,0.6604402836411325,0.3757608579778019,-0.24534756515704495,-0.36637916237833473,-0.032428810562116765,0.09092347364640924,0.4014703631401062,-0.4005581736564636,-0.05909520760178566,-0.18965445458889008,-0.05141805484890938,0.15013304352760315,0.92339026927948,0.19507645070552826,0.27627474069595337,0.1380012035369873,-0.22893252968788147,0.8740184307098389
0.74,0.1220216155052185,-0.1196625679731369,-0.029720932245254517,-0.0952143445611,-0.02548942156136036,0.07464452087879181,0.7124056220054626,0.34837377071380615,-0.034461408853530884,-0.09506423771381378,-0.05746111273765564,0.21866509318351746,0.18770821669731202,-0.050080289408516526,-0.015609649258358503,-0.022921754157167323,-0.027991852036625034,0.09452280684972275,0.661628878378391,0.3756898970243986,-0.24386329852035682,-0.3663063014059133,-0.03321356703245604,0.0896922646756982,0.4040432274341583,-0.3993251323699951,-0.05944186449050903,-0.1904286891222,-0.05097884312272072,0.14928904175758362,0.9248112440109253,0.1967475414276123,0.2710771858692169,0.14987152814865112,-0.22984445095062256,0.8746603727340698
0.76,0.12326352298259735,-0.11888198554515839,-0.029932303354144096,-0.09566988795995712,-0.02543458342552185,0.07422506809234619,0.7131403088569641,0.34914863109588623,-0.037136271595954895,-0.09012266248464584,-0.057676129043102264,0.21876205503940582,0.18841807595191903,-0.05002331384511811,-0.014898625351544584,-0.022154431759688713,-0.027876990097951828,0.09411442599749241,0.6627283289534844,0.37562472676445063,-0.24247467122759467,-0.36627336758524875,-0.03406879842221508,0.08850428696944304,0.406527042388916,-0.3977639675140381,-0.05986460670828819,-0.19133977591991425,-0.0508691668510437,0.14845013618469238,0.9262806177139282,0.19829724729061127,0.2657274603843689,0.159754678606987,-0.23070451617240906,0.8750482201576233
0.78,0.12441383302211761,-0.11835670471191406,-0.030077125877141953,-0.09582847356796265,-0.025268254801630974,0.073800228536129,0.7137345671653748,0.3499651849269867,-0.03943565487861633,-0.08495794981718063,-0.057947926223278046,0.21887902915477753,0.18907779209166295,-0.049949497937313195,-0.014188947968183034,-0.021387950101518373,-0.02774552585125166,0.093709399462176,0.6637429355278092,0.3755268712835761,-0.24116452044241685,-0.3662510613931456,-0.03493911510374679,0.08737057303769559,0.40882766246795654,-0.39671340584754944,-0.060154251754283905,-0.1916569471359253,-0.05053650960326195,0.147600457072258,0.9274691343307495,0.1999303549528122,0.261128693819046,0.17008410394191742,-0.23179170489311218,0.8755161166191101
0.8,0.12552936375141144,-0.11772690713405609,-0.030254026874899864,-0.09614811837673187,-0.0252778772264719,0.0733870416879654,0.7143574953079224,0.35064083337783813,-0.041827112436294556,-0.08091849088668823,-0.058182816952466965,0.21893736720085144,0.18972178524768166,-0.049879432378860236,-0.013454471093029574,-0.020577488567197356,-0.027631913530653484,0.09330369896748905,0.6646706768669,0.3753748772770667,-0.23992027230964325,-0.3662254096416829,-0.035807211403240474,0.08654689871455891,0.4110587239265442,-0.3954538106918335,-0.06050805374979973,-0.19229623675346375,-0.0505557544529438,0.1467740833759308,0.9287149906158447,0.20128163695335388,0.2563457787036896,0.17816302180290222,-0.23273126780986786,0.8757494688034058
0.8200000000000001,0.12658536434173584,-0.11712746322154999,-0.030373916029930115,-0.09645944088697433,-0.025257671251893044,0.07297859340906143,0.7149343490600586,0.35135629773139954,-0.04386873543262482,-0.07742880284786224,-0.05841213837265968,0.2188912183046341,0.19033546507316962,-0.049821427336053284,-0.012577769448637229,-0.01950831504446721,-0.027514098912971484,0.092876393893439,0.6655083052146776,0.3752694900274892,-0.2386550563060715,-0.36620031616056625,-0.03670319515680503,0.08734074827058502,0.413170725107193,-0.3942549228668213,-0.06074783205986023,-0.19291888177394867,-0.05051534250378609,0.14595718681812286,0.9298686981201172,0.20271261036396027,0.25226253271102905,0.1851423978805542,-0.23364855349063873,0.8755648732185364
0.84,0.127729132771492,-0.11674177646636963,-0.03016023337841034,-0.09614252299070358,-0.025186579674482346,0.07253091037273407,0.7153964042663574,0.3523232340812683,-0.04489591717720032,-0.0739375650882721,-0.05864894017577171,0.21873024106025696,0.19092099575634042,-0.04975813579946021,-0.011793391122660915,-0.018449592748713554,-0.027407853426018182,0.09242835601923251,0.6662410808368632,0.3751907894853737,-0.23719865245189645,-0.3661733768364477,-0.037644608393616726,0.08927982549055319,0.4154582619667053,-0.39348354935646057,-0.06032046675682068,-0.19228504598140717,-0.05037315934896469,0.14506182074546814,0.9307927489280701,0.20464648306369781,0.25020816922187805,0.1921248733997345,-0.23459576070308685,0.8749209642410278
0.86,0.1287028193473816,-0.11685170233249664,-0.029736705124378204,-0.09491082280874252,-0.02495887689292431,0.07206710427999496,0.7156745195388794,0.3531988859176636,-0.04454497992992401,-0.0721944198012352,-0.059102851897478104,0.21849477291107178,0.19150946399413474,-0.049716948653138526,-0.011197395815282887,-0.017606639516947555,-0.027278100951985226,0.09200767086765127,0.6669335366092699,0.3751198103010063,-0.23563411970882148,-0.3661474636221904,-0.03847175646230502,0.09103686308998665,0.4174056351184845,-0.3937034010887146,-0.05947341024875641,-0.18982164561748505,-0.04991775378584862,0.14413420855998993,0.931348979473114,0.20639777183532715,0.25091004371643066,0.1956111639738083,-0.23641140758991241,0.8739790916442871
0.88,0.1294986605644226,-0.11692492663860321,-0.029202068224549294,-0.09331604093313217,-0.024974625557661057,0.07159052044153214,0.7158696055412292,0.3540226221084595,-0.04255370795726776,-0.07207036018371582,-0.059748221188783646,0.21823950111865997,0.1920770742201504,-0.04969211807409248,-0.010692157128303225,-0.016877069292305726,-0.027172014139523852,0.09161968544015457,0.6675820690961021,0.37504948177392117,-0.23411155859428973,-0.3661150242179563,-0.039183888981631006,0.09264118548013715,0.41899731755256653,-0.39384984970092773,-0.05840413644909859,-0.18663208186626434,-0.04994925111532211,0.14318104088306427,0.9317392110824585,0.20804524421691895,0.25489258766174316,0.19585928320884705,-0.23899288475513458,0.8729580044746399
0.9,0.13005568087100983,-0.11721865832805634,-0.028556736186146736,-0.09140924364328384,-0.025128424167633057,0.07105380296707153,0.7159088253974915,0.3548046052455902,-0.03874868154525757,-0.07313987612724304,-0.060554590076208115,0.21796104311943054,0.1925892871140045,-0.049682787966546925,-0.010232551030449729,-0.0162130567086005,-0.027060464652270275,0.09124478447652022,0.6681261887982982,0.37498980073345944,-0.23268713366747665,-0.3660851331365079,-0.039806654563402606,0.09412367127886172,0.42011135816574097,-0.394437313079834,-0.05711347237229347,-0.1828184872865677,-0.05025684833526611,0.14210760593414307,0.9318176507949829,0.2096092253923416,0.26250264048576355,0.1937202513217926,-0.24221836030483246,0.8718441724777222
0.92,0.1300501972436905,-0.11828729510307312,-0.027795858681201935,-0.0891483947634697,-0.02510703168809414,0.07058907300233841,0.715749204158783,0.35536137223243713,-0.033531323075294495,-0.07567650079727173,-0.06150595471262932,0.21756549179553986,0.1930280883500375,-0.04970809675070229,-0.009814124033416737,-0.015607371298729012,-0.0269494122050446,0.09086741765112319,0.6684636002538987,0.37492978290777307,-0.23134122976259247,-0.36605001529371517,-0.04037049316268336,0.09549007867808418,0.4201003909111023,-0.39657458662986755,-0.05559171736240387,-0.1782967895269394,-0.05021406337618828,0.14117814600467682,0.9314984083175659,0.21072272956371307,0.2729373574256897,0.18864700198173523,-0.24602381885051727,0.8702619671821594
0.9400000000000001,0.12961068749427795,-0.11935071647167206,-0.027061065658926964,-0.08674028515815735,-0.02514149248600006,0.07024665176868439,0.7154911756515503,0.3557630777359009,-0.027563152834773064,-0.07886184751987457,-0.06251061707735062,0.21710357069969177,0.19333655709337558,-0.04973836346164741,-0.009430146922426906,-0.015047912205556024,-0.026850248456633703,0.0904946855610357,0.6685524674541033,0.3748873701495652,-0.23004769993147473,-0.36601268008966115,-0.04089764268674223,0.09678129702439266,0.4192213714122772,-0.39870142936706543,-0.05412213131785393,-0.1734805703163147,-0.05028298497200012,0.14049330353736877,0.9309822916984558,0.21152617037296295,0.28487369418144226,0.18227630853652954,-0.25004246830940247,0.8684142827987671
0.96,0.1288822889328003,-0.12073148787021637,-0.026402672752738,-0.0843622162938118,-0.02514413185417652,0.0700143352150917,0.7150858640670776,0.3557973802089691,-0.021464435383677483,-0.08258379250764847,-0.06342269480228424,0.21663857996463776,0.19363388695379244,-0.04979087881425909,-0.009052788261753415,-0.014501087656711452,-0.02674534249547135,0.09011413715405144,0.6686079278528407,0.37487346119756787,-0.22880202861720983,-0.3659705020869378,-0.04139071221466538,0.0980148907943871,0.4177645742893219,-0.40146297216415405,-0.052805345505476,-0.1687244325876236,-0.05028826370835304,0.1400286704301834,0.9301717281341553,0.21159476041793823,0.2970711290836334,0.17483241856098175,-0.25369077920913696,0.866554319858551
0.98,0.12809179723262787,-0.12142994999885559,-0.026023589074611664,-0.08239272236824036,-0.02532079443335533,0.06994114816188812,0.7148555517196655,0.3555636703968048,-0.016129879280924797,-0.0866415724158287,-0.06424889713525772,0.21616977453231812,0.19389940230210947,-0.04984867859913493,-0.008694243600672098,-0.013976916751109448,-0.02664563023488247,0.08976191290502838,0.6686481410013111,0.37490493929651836,-0.22755030455355338,-0.36592993421741576,-0.041861250127766925,0.09922320758681298,0.41618359088897705,-0.4028598964214325,-0.05204717814922333,-0.1647854447364807,-0.05064158886671066,0.13988229632377625,0.929711103439331,0.2111273556947708,0.3077402412891388,0.16671685874462128,-0.2569955885410309,0.8646790981292725
1.0,0.12751123309135437,-0.12187536060810089,-0.02581828460097313,-0.08074378967285156,-0.025619903579354286,0.0699026957154274,0.7146146297454834,0.3548969030380249,-0.012023506686091423,-0.09024128317832947,-0.06486177444458008,0.21580368280410767,0.19412686266195026,-0.049885436038070045,-0.008366742401456349,-0.0134934348069646,-0.026556609463679465,0.08947064686113305,0.6686800708323071,0.374933859030976,-0.22623309254615556,-0.36586880019533075,-0.04226802538337983,0.10040296631940182,0.41502246260643005,-0.4037507176399231,-0.05163656920194626,-0.16148757934570312,-0.05123980715870857,0.1398053914308548,0.9292293190956116,0.2097937911748886,0.31595298647880554,0.15951743721961975,-0.2594470977783203,0.8632147312164307
1.02,0.12694473564624786,-0.12239620089530945,-0.02590530924499035,-0.07928158342838287,-0.025678088888525963,0.06982070952653885,0.71436607837677,0.35405731201171875,-0.009404150769114494,-0.0924391970038414,-0.06536276638507843,0.215540811419487,0.19432346213798765,-0.04990716846156757,-0.008102930281051137,-0.013088535868665948,-0.02647133735513216,0.08925269897519345,0.6687023841781361,0.37496786572910557,-0.2247669485243263,-0.3657923340818813,-0.04252177073178792,0.10157960836604908,0.41388946771621704,-0.4047923982143402,-0.0518106184899807,-0.15856316685676575,-0.051356177777051926,0.1396414190530777,0.9287322163581848,0.2081145942211151,0.3211916983127594,0.1551216095685959,-0.2614510655403137,0.862163245677948
1.04,0.12673035264015198,-0.12196053564548492,-0.026233475655317307,-0.07857867330312729,-0.02602549083530903,0.06980326771736145,0.7144092321395874,0.3531273603439331,-0.00856052152812481,-0.09393032640218735,-0.06555885076522827,0.21533232927322388,0.19447972648572068,-0.049898406528327825,-0.007887791135166505,-0.012738895256090154,-0.02639925000508157,0.08911461266250242,0.6687246018698592,0.37499411161250995,-0.22318543658354123,-0.3656981316819729,-0.042738184835721116,0.10275652370116531,0.41346070170402527,-0.40392106771469116,-0.05246695131063461,-0.15715734660625458,-0.05205098167061806,0.1396065354347229,0.9288184642791748,0.20625469088554382,0.32287895679473877,0.152139350771904,-0.2622354030609131,0.8613293170928955
1.06,0.12687958776950836,-0.12119704484939575,-0.026728689670562744,-0.07823584228754044,-0.026303742080926895,0.06973371654748917,0.7145733833312988,0.3521983027458191,-0.00906236283481121,-0.09389889240264893,-0.06560979038476944,0.21528810262680054,0.19461192616305634,-0.04986900052127228,-0.007697663379744695,-0.01241340130823278,-0.02635498578403721,0.08902019650921655,0.6687474930086077,0.37501065967323816,-0.22155655564399418,-0.3655963144163267,-0.0429826542080712,0.10393635664407973,0.41375917196273804,-0.4023940861225128,-0.05345737934112549,-0.15647168457508087,-0.05260748416185379,0.13946743309497833,0.9291467070579529,0.20439663529396057,0.32187527418136597,0.15220221877098083,-0.26243916153907776,0.8611524105072021
1.08,0.12703275680541992,-0.12057086825370789,-0.02723630517721176,-0.07828277349472046,-0.026337556540966034,0.06967666000127792,0.7147848606109619,0.3514884114265442,-0.010598672553896904,-0.09242022037506104,-0.0655413493514061,0.21531151235103607,0.19475590968671994,-0.04984051332090593,-0.007495820529813488,-0.012075352012369664,-0.0263088126143027,0.08893596969475548,0.6687882322286655,0.3750090577761397,-0.21995700322816433,-0.36549269736836215,-0.04324485279161977,0.10512000207132574,0.41406551003456116,-0.4011417329311371,-0.05447261035442352,-0.15656554698944092,-0.05267511308193207,0.13935332000255585,0.9295697808265686,0.20297680795192719,0.3188026547431946,0.15515956282615662,-0.2621653974056244,0.8612460494041443
1.1,0.12768404185771942,-0.11975201964378357,-0.027834849432110786,-0.07857707142829895,-0.026411833241581917,0.06958778202533722,0.7151769399642944,0.35098716616630554,-0.012451378628611565,-0.09003106504678726,-0.0652780830860138,0.21547557413578033,0.19488294551185628,-0.0497811325384759,-0.007269617885909735,-0.01171104212493359,-0.026282728549080148,0.08882988381660126,0.6688360796540483,0.37498412470627257,-0.21842900391233494,-0.3653952798335017,-0.04349633861190589,0.10630375587183302,0.41536808013916016,-0.39950403571128845,-0.05566969886422157,-0.1571541428565979,-0.052823666483163834,0.13917556405067444,0.9303538799285889,0.20197434723377228,0.31509724259376526,0.15993787348270416,-0.2611123323440552,0.8619022965431213
1.12,0.1283053457736969,-0.11879029870033264,-0.02840360626578331,-0.0789787620306015,-0.026303641498088837,0.06946234405040741,0.7155994176864624,0.35090208053588867,-0.01457345299422741,-0.08674320578575134,-0.06505372375249863,0.21562521159648895,0.1950120466070637,-0.04971225548613565,-0.007024881499068415,-0.011328572938126965,-0.02625066378490436,0.0886909565866455,0.6688813505111431,0.37493896724477993,-0.21698116509009985,-0.3653118119505262,-0.04373610500200745,0.10747146619479471,0.4166106879711151,-0.3975805938243866,-0.05680721253156662,-0.157957524061203,-0.05260728299617767,0.13892468810081482,0.9311988949775696,0.20180417597293854,0.31085309386253357,0.166513592004776,-0.2602148950099945,0.8625008463859558
1.1400000000000001,0.12896130979061127,-0.11809182167053223,-0.02891784906387329,-0.07933710515499115,-0.026091594249010086,0.06932128965854645,0.7160220146179199,0.35093268752098083,-0.016988513991236687,-0.08302345126867294,-0.06486554443836212,0.21577757596969604,0.19515983255163477,-0.04964618885922084,-0.006759941512869136,-0.010924928656307023,-0.02621779259414333,0.08851268601332687,0.6689414107144365,0.37488052265386607,-0.2156382422772999,-0.3652476136483808,-0.043975487996342585,0.10862252986026501,0.41792261600494385,-0.39618363976478577,-0.05783569812774658,-0.1586742103099823,-0.05218318849802017,0.1386425793170929,0.9320440888404846,0.20186538994312286,0.306022971868515,0.1739531010389328,-0.2594621777534485,0.8631103038787842
1.16,0.1296369880437851,-0.11747761070728302,-0.029322830960154533,-0.07973817735910416,-0.025807637721300125,0.0691547617316246,0.7164428234100342,0.35118573904037476,-0.019292159005999565,-0.07921008765697479,-0.06468689441680908,0.21592052280902863,0.1952938917976881,-0.0495776728480047,-0.006470027642645983,-0.010498960452675388,-0.026176941503253833,0.0883196903656342,0.6689939417083611,0.3748200272330317,-0.21442268354821478,-0.36520237679632345,-0.04421639799287925,0.10973850436957379,0.4192739725112915,-0.39495521783828735,-0.05864566192030907,-0.1594763547182083,-0.05161527544260025,0.1383095234632492,0.9328856468200684,0.2023714780807495,0.30141568183898926,0.1815798282623291,-0.25874757766723633,0.8636820912361145
1.18,0.1304747462272644,-0.11687618494033813,-0.02963928133249283,-0.08006242662668228,-0.025632726028561592,0.06899701803922653,0.7169028520584106,0.3515140414237976,-0.021235285326838493,-0.0758199393749237,-0.06450365483760834,0.21605069935321808,0.19544005724489086,-0.049506148194985916,-0.006155857376188619,-0.010053241753155619,-0.026121514532088795,0.08809673078072994,0.6690526425169561,0.3747221988427473,-0.2133344650459785,-0.365156026341439,-0.04445063313617448,0.11081181459926571,0.4209494888782501,-0.3937523663043976,-0.05927856266498566,-0.16012485325336456,-0.051265452057123184,0.13799403607845306,0.9338057637214661,0.20302808284759521,0.2975294291973114,0.18836012482643127,-0.25801461935043335,0.8642027974128723
1.2,0.13137689232826233,-0.11608216166496277,-0.029890676960349083,-0.08030619472265244,-0.025618165731430054,0.06881238520145416,0.7173660397529602,0.35188043117523193,-0.0228439848870039,-0.07323919236660004,-0.06440551578998566,0.21613267064094543,0.1955972707236508,-0.04943857671750073,-0.005807406342030339,-0.009580288853785332,-0.026065405944366453,0.08789708747390741,0.6691859333488377,0.3746330171403273,-0.2123884128705265,-0.36511466404415627,-0.04465373893160816,0.11183735476828649,0.42275378108024597,-0.39216431975364685,-0.059781353920698166,-0.16061238944530487,-0.05123633146286011,0.13762477040290833,0.9347320795059204,0.20376087725162506,0.2943120300769806,0.1935216188430786,-0.2576220631599426,0.8645306825637817
1.22,0.13213476538658142,-0.11590267717838287,-0.029902851209044456,-0.08026021718978882,-0.025482699275016785,0.06849069148302078,0.7175629138946533,0.35235705971717834,-0.02349179796874523,-0.07108747214078903,-0.0644034668803215,0.21625103056430817,0.19576676866969092,-0.04936673275050638,-0.00544682955228622,-0.009096614740712872,-0.026021769849600265,0.08771134190761598,0.6694145397456982,0.37456515318226896,-0.21157378528474255,-0.3650840878794021,-0.044892944676147295,0.1128037845799055,0.42426952719688416,-0.39180535078048706,-0.05980570241808891,-0.16052043437957764,-0.05096539855003357,0.13698138296604156,0.9351258277893066,0.2047141045331955,0.2930164039134979,0.19782505929470062,-0.257613867521286,0.8650041222572327
1.24,0.13261781632900238,-0.11610019207000732,-0.029848454520106316,-0.07984280586242676,-0.02521723136305809,0.06812690943479538,0.717713475227356,0.35284891724586487,-0.023535070940852165,-0.06982887536287308,-0.06459638476371765,0.21628572046756744,0.19601501207359306,-0.049316090948215145,-0.005086165962672833,-0.008616336020008011,-0.025978236683176035,0.08749598118538576,0.6697417763103398,0.37447069306543895,-0.21085010147585964,-0.36504293283139094,-0.04514282052862497,0.11370563644443514,0.4252356290817261,-0.39220038056373596,-0.05969690904021263,-0.15968561172485352,-0.05043446272611618,0.13625381886959076,0.9354268908500671,0.20569784939289093,0.29292985796928406,0.20034225285053253,-0.2583855390548706,0.8651428818702698
1.26,0.1329493373632431,-0.11622457206249237,-0.02963726781308651,-0.07925654202699661,-0.02506576105952263,0.06786118447780609,0.7178258299827576,0.35338640213012695,-0.02278543822467327,-0.06901595741510391,-0.06485409289598465,0.21622976660728455,0.1962657392634501,-0.04927165356988039,-0.0047385561228712745,-0.0081567472817287,-0.025926215197252328,0.08726524729540025,0.670076433195133,0.3743884029620136,-0.21018073713746868,-0.36500586546364755,-0.04533249044410889,0.1145578782896868,0.4258986711502075,-0.39244914054870605,-0.05927453562617302,-0.15851308405399323,-0.05013152211904526,0.13572236895561218,0.9356516599655151,0.2067728191614151,0.29442912340164185,0.20196808874607086,-0.2594163715839386,0.8649190664291382
1.28,0.1331014484167099,-0.11668355762958527,-0.029388101771473885,-0.07848066836595535,-0.024899443611502647,0.06762313097715378,0.7178455591201782,0.35369744896888733,-0.02155209891498089,-0.06926967203617096,-0.06520198285579681,0.21610713005065918,0.19647184702773005,-0.049234556748130494,-0.00442035288074829,-0.007730537589111498,-0.025856942117031375,0.08705446459745167,0.6703462809720387,0.3743256018745201,-0.20955333517687613,-0.36496877785238774,-0.04560096772138479,0.11535003255090005,0.4262028932571411,-0.39336711168289185,-0.05877620354294777,-0.1569613367319107,-0.049798887223005295,0.13524626195430756,0.9356911778450012,0.20739491283893585,0.2968958020210266,0.20146065950393677,-0.26080793142318726,0.8644285202026367
1.3,0.13322818279266357,-0.11674152314662933,-0.029112238436937332,-0.07776504755020142,-0.025034738704562187,0.06750217825174332,0.7179070711135864,0.3538445234298706,-0.020032210275530815,-0.07044772803783417,-0.06552834063768387,0.21593208611011505,0.19662384970988195,-0.04918269106292751,-0.004130494252581878,-0.0073407445944849775,-0.025801659181307644,0.08683277630080748,0.6705337307354958,0.3742671387739921,-0.20893516019151318,-0.36493259964996916,-0.04580030947747875,0.11609255013061173,0.42645636200904846,-0.39348304271698,-0.058224476873874664,-0.15553009510040283,-0.050069477409124374,0.13500435650348663,0.9358141422271729,0.2076890766620636,0.29993557929992676,0.19910454750061035,-0.2621133625507355,0.8637283444404602
1.32,0.13311558961868286,-0.11730879545211792,-0.02874797396361828,-0.07678680121898651,-0.02497262880206108,0.06732671707868576,0.7177416086196899,0.3539164066314697,-0.018182797357439995,-0.0712868794798851,-0.06592060625553131,0.21580088138580322,0.19676691168385152,-0.04916058561114999,-0.003876138101672427,-0.006986601220532158,-0.02576107991702526,0.08660241171042234,0.6706401898820452,0.37421246751570864,-0.20832859177282706,-0.3648945586364436,-0.0460515898887799,0.11679090458722396,0.42623117566108704,-0.39461758732795715,-0.05749594792723656,-0.15357360243797302,-0.04994525760412216,0.13465343415737152,0.9354832768440247,0.20783279836177826,0.3036344051361084,0.19742624461650848,-0.26368242502212524,0.8632035255432129
1.34,0.13294711709022522,-0.11779722571372986,-0.028527649119496346,-0.07590293139219284,-0.024952948093414307,0.06725934892892838,0.7176396250724792,0.3538435101509094,-0.016170991584658623,-0.07291610538959503,-0.06625817716121674,0.2156318724155426,0.19690135802708805,-0.04915716088875895,-0.0036364249621539733,-0.006651253786404512,-0.02572317342796097,0.08637361116494208,0.6706975000699567,0.37416045076118415,-0.20772978470788891,-0.3648473953720986,-0.04627918050819842,0.11746407823237681,0.42589423060417175,-0.39559444785118103,-0.05705529823899269,-0.15180586278438568,-0.04990589618682861,0.13451869785785675,0.9352792501449585,0.20768702030181885,0.30765801668167114,0.19416779279708862,-0.26503270864486694,0.8625274896621704
1.36,0.1328064203262329,-0.11781124770641327,-0.02837914600968361,-0.07518302649259567,-0.025113992393016815,0.06718987226486206,0.717621922492981,0.3536694347858429,-0.014501867815852165,-0.07471601665019989,-0.06660985201597214,0.21546857059001923,0.1970216915180078,-0.04915764946937432,-0.00340900875944164,-0.006334934357046557,-0.02568014016014553,0.08617460185781513,0.6707550520916272,0.3741265643432016,-0.20712643913417375,-0.3648005116418798,-0.04647491645624879,0.11811092812022089,0.42561283707618713,-0.39562249183654785,-0.05675829201936722,-0.15036605298519135,-0.05022798478603363,0.13437974452972412,0.9352439045906067,0.20733888447284698,0.31099626421928406,0.1905679702758789,-0.26643940806388855,0.8618742823600769
1.3800000000000001,0.13261039555072784,-0.11787150800228119,-0.028157321736216545,-0.07459059357643127,-0.025244323536753654,0.06713578850030899,0.7174792289733887,0.3534594476222992,-0.013012899085879326,-0.07601199299097061,-0.06685221195220947,0.21532118320465088,0.19715121850977124,-0.04916265735873718,-0.003220078207001054,-0.0060538703461923875,-0.025627857947799138,0.0859623189107615,0.6708142025269254,0.37410315275272854,-0.20649752798941087,-0.36476073735570197,-0.046732469974071086,0.11873986600257726,0.425220787525177,-0.3957430124282837,-0.05631464347243309,-0.14918118715286255,-0.05048864707350731,0.13427157700061798,0.9349583983421326,0.2069188952445984,0.31397420167922974,0.18797601759433746,-0.2674088478088379,0.8612847328186035
1.4000000000000001,0.13249734044075012,-0.11794514954090118,-0.028152668848633766,-0.07402099668979645,-0.025308677926659584,0.06708047538995743,0.7174574136734009,0.3531784117221832,-0.012040657922625542,-0.07671768218278885,-0.06709225475788116,0.2152111828327179,0.19730002194180674,-0.04918195170513933,-0.003054117947903742,-0.005798562842020053,-0.025607000172031623,0.08575950140724192,0.6708770975539435,0.37407851870870046,-0.20582676308575726,-0.3647164245920537,-0.046929498818104584,0.11935997303326303,0.42499467730522156,-0.3958902955055237,-0.05630533769726753,-0.1480419933795929,-0.05061735585331917,0.13416095077991486,0.934914767742157,0.20635682344436646,0.3159186840057373,0.186564639210701,-0.26836901903152466,0.8608447313308716
1.42,0.13217440247535706,-0.11816827952861786,-0.028135694563388824,-0.0736592635512352,-0.025200819596648216,0.06710601598024368,0.7173588275909424,0.35290589928627014,-0.011509714648127556,-0.07715778052806854,-0.06723282486200333,0.2150915414094925,0.1974482262930518,-0.049206488132731444,-0.0029075763629023573,-0.005564679437579572,-0.02555304679406689,0.08558461705451126,0.6709371268374648,0.3740476417541473,-0.2051352938077014,-0.36466646555291776,-0.04717990900423591,0.11997188322335599,0.4243488013744354,-0.39633655548095703,-0.05627138912677765,-0.1473185271024704,-0.05040163919329643,0.13421203196048737,0.9347176551818848,0.20581179857254028,0.3169805705547333,0.1856844425201416,-0.2689312994480133,0.86036616563797
1.44,0.13214318454265594,-0.11808547377586365,-0.028273751959204674,-0.07342492043972015,-0.025183487683534622,0.06712651997804642,0.7174248099327087,0.35261744260787964,-0.011390579864382744,-0.07713472843170166,-0.06730099767446518,0.21505767107009888,0.19759885772386326,-0.04922985909041118,-0.0027793429751535636,-0.005351213882400235,-0.025513168082408146,0.08540089143529273,0.6709938550406808,0.3740217549283859,-0.20442307710597732,-0.364630588808292,-0.04737535944616015,0.1205754776698504,0.4242863655090332,-0.3961709439754486,-0.05654750391840935,-0.1468498408794403,-0.050366975367069244,0.13425303995609283,0.9348496198654175,0.20523490011692047,0.3172188401222229,0.18573054671287537,-0.2692039906978607,0.8602306842803955
1.46,0.13243363797664642,-0.11765605211257935,-0.028505569323897362,-0.07326915860176086,-0.025303201749920845,0.06713840365409851,0.7175918817520142,0.3524073362350464,-0.011407686397433281,-0.07623258233070374,-0.0672360211610794,0.21504877507686615,0.19774620572413068,-0.04926145710385176,-0.0026544165075934397,-0.005142119650752475,-0.02548032052330871,0.0852830537410334,0.6710625052170432,0.373983883622275,-0.2037237217340588,-0.3645870628799716,-0.04763066133491557,0.1211728116963627,0.42486727237701416,-0.39531210064888,-0.057011138647794724,-0.14653831720352173,-0.05060640349984169,0.13427680730819702,0.9351837635040283,0.20481468737125397,0.3171846270561218,0.18753483891487122,-0.2689440846443176,0.8601951003074646
1.48,0.1328391283750534,-0.11731131374835968,-0.028897250071167946,-0.07298152148723602,-0.025270840153098106,0.06698328256607056,0.7177751064300537,0.3522461950778961,-0.011896057054400444,-0.07453694194555283,-0.06723333895206451,0.21508611738681793,0.1979045743327651,-0.049300807987498176,-0.0025433184684123286,-0.004949375105613058,-0.02546034076646946,0.08517173040843726,0.671125453782636,0.37393338211223415,-0.20301203912449486,-0.3645437011603131,-0.047857546009957716,0.12176256543509532,0.4256782531738281,-0.3946226239204407,-0.05779450014233589,-0.14596304297447205,-0.05054168030619621,0.1339665651321411,0.9355501532554626,0.20449237525463104,0.3162078857421875,0.19092611968517303,-0.26893335580825806,0.8603444695472717
1.5,0.13305389881134033,-0.11677461862564087,-0.029176965355873108,-0.07313387840986252,-0.02529812790453434,0.06687130033969879,0.7179899215698242,0.3522171378135681,-0.013050375506281853,-0.0727987065911293,-0.06717207282781601,0.21505829691886902,0.19803857373485223,-0.0493140192804971,-0.002426564589488621,-0.004753183978227533,-0.02543796964471454,0.0850732280813388,0.671199208679208,0.3738745172315687,-0.20232610556843586,-0.3645018152719714,-0.048068786586275884,0.12235371172557885,0.426107794046402,-0.39354923367500305,-0.058353930711746216,-0.14626775681972504,-0.05059625580906868,0.13374260067939758,0.9359798431396484,0.20443426072597504,0.3138992488384247,0.19440259039402008,-0.26868829131126404,0.8602331876754761
1.52,0.13352222740650177,-0.1159709095954895,-0.02948937751352787,-0.07349921762943268,-0.025454886257648468,0.06680750846862793,0.718296229839325,0.35219210386276245,-0.014344213530421257,-0.07130034267902374,-0.06705459952354431,0.21509522199630737,0.19816585395374345,-0.049316693726247994,-0.0023045750392554445,-0.004552162819820432,-0.0254077258379164,0.08498651689337676,0.6712870808462732,0.3738021256265633,-0.20168576478536568,-0.3644567743509509,-0.048332507647692646,0.12292021461688164,0.42704445123672485,-0.3919418156147003,-0.05897875502705574,-0.14699843525886536,-0.050909772515296936,0.13361501693725586,0.9365924596786499,0.2043842077255249,0.3113115727901459,0.1973993182182312,-0.26821839809417725,0.8603808879852295
1.54,0.13398228585720062,-0.11571827530860901,-0.02970486506819725,-0.07354465872049332,-0.025363199412822723,0.06659267842769623,0.7184469699859619,0.352186381816864,-0.01565728895366192,-0.06928113847970963,-0.06697646528482437,0.21519725024700165,0.19830628546737095,-0.049304369848576654,-0.0021656701465033955,-0.004335861696438805,-0.025379139875050288,0.0848909886599329,0.6714413315615204,0.37372869149413374,-0.2011036592071916,-0.3644144447512422,-0.048569235790477644,0.12347484129906838,0.42796456813812256,-0.39143654704093933,-0.0594097301363945,-0.14708931744098663,-0.05072639882564545,0.13318535685539246,0.9368939399719238,0.20437276363372803,0.30868542194366455,0.20143772661685944,-0.2679058611392975,0.8607890009880066
1.56,0.13437150418758392,-0.1153961718082428,-0.029888387769460678,-0.0737166479229927,-0.02525012381374836,0.06639745831489563,0.7186490893363953,0.35243120789527893,-0.016623465344309807,-0.06747636198997498,-0.06690429896116257,0.21526065468788147,0.19845820618697277,-0.04928936295871408,-0.002002976867192944,-0.004098721276947407,-0.02534756451735096,0.08478950067786109,0.671659194157887,0.37367564593318053,-0.20059897978588984,-0.3643844036864871,-0.04876768907025756,0.1240032953828306,0.42874300479888916,-0.3907923400402069,-0.059776775538921356,-0.1474332958459854,-0.05050024762749672,0.13279491662979126,0.9372981786727905,0.20486241579055786,0.3067530691623688,0.20504727959632874,-0.26761719584465027,0.8610426187515259
1.58,0.13493084907531738,-0.11498682200908661,-0.030053777620196342,-0.07376109808683395,-0.025295719504356384,0.06624981760978699,0.7189022302627563,0.35264527797698975,-0.017205027863383293,-0.0661618635058403,-0.06685706973075867,0.215323343873024,0.19860284192883942,-0.049254006862777665,-0.0018338123663084985,-0.003852184796487365,-0.02534627843302026,0.0846794848841185,0.6718865273267829,0.373590835582465,-0.20016786181585816,-0.36434336657998045,-0.04902315987254173,0.1245098835315302,0.4298616945743561,-0.38997364044189453,-0.060107555240392685,-0.1475221961736679,-0.05059143900871277,0.13249963521957397,0.9378045201301575,0.2052905261516571,0.3055899441242218,0.20767627656459808,-0.26742827892303467,0.861293375492096
