time,cmd_L_hip_pitch,cmd_R_hip_pitch,cmd_L_hip_roll,cmd_R_hip_roll,cmd_L_hip_yaw,cmd_R_hip_yaw,cmd_L_knee,cmd_R_knee,cmd_L_foot_pitch,cmd_R_foot_pitch,cmd_L_foot_roll,cmd_R_foot_roll,pos_L_hip_pitch,pos_R_hip_pitch,pos_L_hip_roll,pos_R_hip_roll,pos_L_hip_yaw,pos_R_hip_yaw,pos_L_knee,pos_R_knee,pos_L_foot_pitch,pos_R_foot_pitch,pos_L_foot_roll,pos_R_foot_roll,act_L_hip_pitch,act_R_hip_pitch,act_L_hip_roll,act_R_hip_roll,act_L_hip_yaw,act_R_hip_yaw,act_L_knee,act_R_knee,act_L_foot_pitch,act_R_foot_pitch,act_L_foot_roll,act_R_foot_roll
0.0,-0.027517108246684074,-0.04830656945705414,0.055135328322649,-0.13429531455039978,-0.007248913869261742,0.05238959193229675,0.4600484371185303,0.38102948665618896,-0.08222854137420654,-0.4312807321548462,0.09726020693778992,0.19422073662281036,-0.05152551451942729,0.05269115600111433,-0.004133425728606801,-0.0064725449565922084,-0.00015184316676640966,0.013231523780213889,0.28652553624814164,0.2875381958620467,-0.2722186247465018,-0.3094871261138666,0.017867313492742738,0.03782033217716383,0.10496578365564346,-0.2566131353378296,0.110270656645298,-0.26859062910079956,-0.014497827738523483,0.1047791838645935,0.42009690403938293,0.2620590031147003,0.1755429208278656,-0.5225614905357361,0.38904082775115967,0.7768829464912415
0.02,-0.016424940899014473,-0.08338207006454468,0.01836479641497135,-0.07344954460859299,0.01615067757666111,0.08710545301437378,0.5154328346252441,0.37390246987342834,0.10981781780719757,-0.38501080870628357,0.08051994442939758,0.19261284172534943,-0.007157330057243465,0.015644626914275508,-0.018433787046542117,-0.028344694916675642,-0.0003527368264340299,0.04184793289475709,0.3351303797171601,0.34158715113764115,-0.29220834273027185,-0.3679669043659189,0.04449604547352451,0.1084009913498965,0.12715011835098267,-0.32676413655281067,0.0367295928299427,-0.14689908921718597,0.03230135515332222,0.17421090602874756,0.5308657288551331,0.2478049397468567,0.5596356391906738,-0.43002161383628845,0.32207977771759033,0.7704513669013977
0.04,-0.031168943271040916,-0.09567093849182129,0.041950538754463196,-0.034855540841817856,0.004685668274760246,0.11190494894981384,0.5421085357666016,0.3196510374546051,0.19407261908054352,-0.4537176787853241,0.06332771480083466,0.1924665868282318,0.022491704271484145,-0.00011217148415586324,-0.03686877075063182,-0.05109688171456365,-0.001352698877094838,0.07634425020336821,0.38390152853097265,0.3618646773517243,-0.31618124031307265,-0.4023131924157785,0.05023089779110864,0.14624332916709623,0.09766211360692978,-0.3513418734073639,0.08390107750892639,-0.06971108168363571,0.009371336549520493,0.22380989789962769,0.5842170119285583,0.1393020749092102,0.7281452417373657,-0.5674353837966919,0.2533108592033386,0.7698663473129272
0.06,-0.003172660246491432,-0.07675983011722565,0.011984558776021004,-0.05299659073352814,-0.023289300501346588,0.11842002719640732,0.5604376792907715,0.3011527359485626,0.18706490099430084,-0.4745601415634155,0.06890667974948883,0.2040042132139206,0.03826346259677002,-0.0054642983867513725,-0.0365339411204475,-0.054287786879621845,-0.007623423551264917,0.09526585364342323,0.42953371231330395,0.3698550521372464,-0.3427978611335102,-0.4192118880576336,0.04769833131790885,0.12006638464880887,0.15365467965602875,-0.3135196566581726,0.023969117552042007,-0.10599318146705627,-0.046578601002693176,0.23684005439281464,0.6208754181861877,0.10230547934770584,0.7141298055648804,-0.6091203093528748,0.2756267189979553,0.8160168528556824
0.08,0.038185395300388336,-0.06882227957248688,-0.038799948990345,-0.05147995799779892,-0.026711847633123398,0.11633725464344025,0.5687828063964844,0.2865751385688782,0.15824268758296967,-0.5140003561973572,0.07650139182806015,0.21742261946201324,0.05423923866041767,-0.009305168396732889,-0.031124161312543416,-0.05094270243754066,-0.017766035141412697,0.10402112700089845,0.4676301622278155,0.3715998828928556,-0.3567443323169765,-0.4171232227276221,0.047238243264171795,0.10387923025720346,0.23637078702449799,-0.29764455556869507,-0.07759989798069,-0.10295991599559784,-0.053423695266246796,0.2326745092868805,0.6375656127929688,0.07315028458833694,0.656485378742218,-0.6880006790161133,0.3060055673122406,0.869690477848053
0.1,0.02940070442855358,-0.07930693030357361,-0.04241643846035004,-0.043443795293569565,-0.023384299129247665,0.11197474598884583,0.5576680898666382,0.27783557772636414,0.12429146468639374,-0.48991361260414124,0.05487571656703949,0.2093421369791031,0.06870615306056048,-0.011979018260715965,-0.031193475463607106,-0.05157262836465326,-0.021971542819272476,0.10896003057507586,0.4927438003098705,0.3667563063984202,-0.3551744279197949,-0.41277930726323464,0.046727958462022094,0.10378081913651202,0.21880140900611877,-0.31861385703086853,-0.08483287692070007,-0.08688759058713913,-0.04676859825849533,0.22394949197769165,0.6153361201286316,0.05567113682627678,0.5885829329490662,-0.6398272514343262,0.21950286626815796,0.8373685479164124
0.12,0.019869660958647728,-0.07724867761135101,-0.0384448878467083,-0.054992225021123886,-0.02349773608148098,0.11556004732847214,0.5729861855506897,0.272918701171875,0.09969462454319,-0.4607815742492676,0.03357838839292526,0.20539270341396332,0.07677887335231327,-0.011940150290583214,-0.03342464195428383,-0.054133282101595785,-0.02222869355141074,0.11329729163118323,0.5043540654784693,0.3577838452332243,-0.3465781040225471,-0.40730811123415467,0.04253244889058363,0.10659970424723328,0.19973932206630707,-0.31449735164642334,-0.0768897756934166,-0.10998445004224777,-0.04699547216296196,0.23112009465694427,0.6459723711013794,0.0458374060690403,0.5393892526626587,-0.5815631747245789,0.13431355357170105,0.8215708136558533
0.14,0.018586738035082817,-0.06336943805217743,-0.03312018886208534,-0.0746508464217186,-0.022672714665532112,0.12117043882608414,0.5979146361351013,0.26702603697776794,0.08644910156726837,-0.4266115725040436,0.016143865883350372,0.2066759318113327,0.08066309338489647,-0.007941090982198301,-0.03637161901604793,-0.0572990979342039,-0.022319714132754683,0.11706833148550044,0.5132296397852839,0.34728957493198936,-0.33698062587959265,-0.40188326047214074,0.03444234681443197,0.10837166330129423,0.19717347621917725,-0.28673887252807617,-0.06624037772417068,-0.1493016928434372,-0.045345429331064224,0.24234087765216827,0.6958292722702026,0.03405209258198738,0.5128982067108154,-0.5132231712341309,0.06457546353340149,0.8267037272453308
0.16,0.027013270184397697,-0.05190558731555939,-0.03074025921523571,-0.0945625901222229,-0.01615997590124607,0.12373446673154831,0.6146401166915894,0.25844457745552063,0.06794324517250061,-0.3948746621608734,0.005007833242416382,0.21099312603473663,0.08388901643480227,-0.0002949572936077682,-0.03929703438449582,-0.06047385169729455,-0.021967454625558217,0.11973965958697651,0.5267425248760939,0.3356624277877737,-0.32894392637841274,-0.39649128659200855,0.026098320774503518,0.1085613820261617,0.214026540517807,-0.2638111710548401,-0.06148051843047142,-0.1891251802444458,-0.03231995180249214,0.24746893346309662,0.7292802333831787,0.01688915491104126,0.4758864939212799,-0.44974932074546814,0.020031332969665527,0.8439725041389465
0.18,0.03756014257669449,-0.03697548061609268,-0.032070402055978775,-0.11376237869262695,-0.007061104755848646,0.12413715571165085,0.6315388083457947,0.2508707046508789,0.043220147490501404,-0.3552626371383667,-0.001979747088626027,0.21520423889160156,0.08859609196960092,0.008736460930630586,-0.041851176543927456,-0.0635082933164705,-0.018481733677476207,0.12183130354163704,0.5448473582713094,0.3227207987680756,-0.3222453788168017,-0.3908698949281678,0.021434445755212445,0.10856203572322216,0.2351202815771103,-0.23395095765590668,-0.06414080411195755,-0.2275247573852539,-0.014122209511697292,0.2482743114233017,0.7630776166915894,0.0017414347967132926,0.4264402985572815,-0.3705253005027771,-0.007918988354504108,0.8608169555664062
0.2,0.05171355605125427,-0.017440585419535637,-0.03474552556872368,-0.1348200887441635,0.002813054248690605,0.1232401579618454,0.6498324871063232,0.24260780215263367,0.005869375541806221,-0.3014150559902191,-0.005977937486022711,0.21922680735588074,0.09451518415441094,0.019479015639209857,-0.04424118852701658,-0.06667127721111368,-0.011481923049054819,0.12308482418501525,0.566616097890551,0.30766098565576305,-0.31603005040791576,-0.38468313531058757,0.01940475441729996,0.10847791958831482,0.26342710852622986,-0.19488117098808289,-0.06949105113744736,-0.269640177488327,0.00562610849738121,0.2464803159236908,0.7996650338172913,-0.014784403145313263,0.35173875093460083,-0.26283010840415955,-0.023911749944090843,0.876907229423523
0.22,0.07093285024166107,0.00750618614256382,-0.04105363041162491,-0.1622242033481598,0.014630603604018688,0.12188638001680374,0.6681705713272095,0.23416420817375183,-0.05574227124452591,-0.2263219654560089,-0.006721499841660261,0.2238045632839203,0.10166982715482444,0.03205620812084187,-0.04662054633594145,-0.07027807009690726,-0.001827421708974734,0.12344158644214462,0.5912979994410114,0.28930108532813664,-0.3101862095305347,-0.3773863966298232,0.018100127321298627,0.10705172100703653,0.30186569690704346,-0.14498762786388397,-0.08210726082324982,-0.3244484066963196,0.029261207208037376,0.24377276003360748,0.8363410830497742,-0.03167159855365753,0.22851546108722687,-0.11264393478631973,-0.026885999366641045,0.8952182531356812
0.24,0.09947265684604645,0.03990529105067253,-0.04934878647327423,-0.19888606667518616,0.029710253700613976,0.12029805779457092,0.6869985461235046,0.22827580571174622,-0.16586440801620483,-0.1254877895116806,-0.004398121498525143,0.22992081940174103,0.11049684578618887,0.04604445265583045,-0.04877723080620779,-0.0743932505342225,0.010202623697726376,0.12335895597823611,0.6184958345067785,0.2665584731970998,-0.30556488095632783,-0.36841718801289985,0.01606626377173927,0.10239081109709394,0.3589453101158142,-0.08018941432237625,-0.09869757294654846,-0.3977721333503723,0.05942050740122795,0.24059611558914185,0.8739970922470093,-0.04344837740063667,0.0082711698487401,0.08902441710233688,-0.01759248599410057,0.9196832776069641
0.26,0.13596345484256744,0.07431253045797348,-0.047323185950517654,-0.24169322848320007,0.05646561458706856,0.11509107053279877,0.7046233415603638,0.23187966644763947,-0.3324640393257141,-0.024359626695513725,-0.004556989297270775,0.23692026734352112,0.12170762757106318,0.059935353287344686,-0.04949241691139924,-0.07853735249415744,0.027323423322899422,0.12330686090117185,0.6493043897349757,0.23999696000916326,-0.3067999721365222,-0.3581527158347753,0.012675163665882701,0.0926669076288816,0.4319269061088562,-0.011374936439096928,-0.09464637190103531,-0.48338645696640015,0.11293122917413712,0.23018214106559753,0.9092467427253723,-0.036240655928850174,-0.32492807507514954,0.29128074645996094,-0.0182279571890831,0.9476810693740845
0.28,0.16919395327568054,0.09331260621547699,-0.030547013506293297,-0.27687257528305054,0.10478593409061432,0.10557691752910614,0.7157918214797974,0.24270032346248627,-0.47424814105033875,0.02980859763920307,-0.014640877954661846,0.24175657331943512,0.13554518030874088,0.0699815778462913,-0.04843630196183431,-0.08275655697044233,0.05561571968205447,0.12341478769152678,0.6782703799434219,0.2142077883600803,-0.3388634836723818,-0.3492108857291417,0.007845249270409714,0.07904839957974931,0.4983879029750824,0.026625216007232666,-0.061094027012586594,-0.5537451505661011,0.20957186818122864,0.21115383505821228,0.93158358335495,-0.014599349349737167,-0.6084963083267212,0.39961719512939453,-0.058563511818647385,0.9670262932777405
0.3,0.17393727600574493,0.09866289794445038,0.0006779166869819164,-0.3007543683052063,0.15837030112743378,0.09493241459131241,0.7155937552452087,0.25421378016471863,-0.520706832408905,0.06236858665943146,-0.030513862147927284,0.24334293603897095,0.14751777377692904,0.07657871351711254,-0.04580804307059676,-0.08769624652352216,0.0980422041004032,0.12354428011464141,0.6968000151477187,0.19543201355390544,-0.40557131593779966,-0.34496670956616576,-0.0006739495360570276,0.06597511371014216,0.5078745484352112,0.03732580319046974,0.0013558333739638329,-0.6015087366104126,0.31674060225486755,0.18986482918262482,0.9311875104904175,0.008427586406469345,-0.7014136910438538,0.4647371768951416,-0.12205544859170914,0.9733717441558838
0.32,0.17084680497646332,0.09052298218011856,0.01630629040300846,-0.31097933650016785,0.21365460753440857,0.08608938008546829,0.7109493017196655,0.2669219970703125,-0.5187212228775024,0.08104349672794342,-0.04056202992796898,0.24255205690860748,0.15561753478755566,0.08050549271484818,-0.04059246062692803,-0.0919781391990981,0.1491994007821445,0.12318021670146125,0.7029437168826933,0.18659747499751714,-0.4590048998419593,-0.3469152177310605,-0.011638528240829416,0.0570759029445691,0.501693606376648,0.021045971661806107,0.03261258080601692,-0.6219586730003357,0.42730921506881714,0.17217876017093658,0.921898603439331,0.03384397178888321,-0.6974424719810486,0.5020869970321655,-0.16224811971187592,0.9702082276344299
0.34,0.17092187702655792,0.07730108499526978,0.015602628700435162,-0.30946388840675354,0.2709566354751587,0.08019653707742691,0.7047715187072754,0.2906763553619385,-0.49148398637771606,0.09599731862545013,-0.04785631597042084,0.23993758857250214,0.16181136839305096,0.08120939372427909,-0.03349711116918476,-0.09542429716837837,0.2036116722411502,0.12188022619792896,0.7024538676014888,0.18758749692783638,-0.4803641530406729,-0.35495700491628557,-0.021897810997674884,0.051508718187692364,0.5018437504768372,-0.005397825967520475,0.031205257400870323,-0.6189277768135071,0.5419132709503174,0.16039307415485382,0.9095430374145508,0.08135270327329636,-0.6429679989814758,0.531994640827179,-0.19142526388168335,0.9597503542900085
0.36,0.1685372292995453,0.059607576578855515,0.0003200508072040975,-0.2939862012863159,0.3228706121444702,0.07984418421983719,0.6967573165893555,0.3270578384399414,-0.4332221746444702,0.11945755779743195,-0.05582590773701668,0.2347009927034378,0.1669108283007999,0.07794835968048547,-0.0265471356067318,-0.09866454590214137,0.2572782179806372,0.12021916293236516,0.6992956155274973,0.19927824045555284,-0.4747057554858693,-0.3694134566707064,-0.03090203159298348,0.04785424135585129,0.4970744550228119,-0.04078484699130058,0.000640101614408195,-0.5879724025726318,0.6457412242889404,0.15968836843967438,0.8935146331787109,0.154115691781044,-0.5264443755149841,0.5789151191711426,-0.2233036309480667,0.9388039708137512
0.38,0.1652841418981552,0.04515787214040756,-0.023721063509583473,-0.26072341203689575,0.34945058822631836,0.08275805413722992,0.6959395408630371,0.381927490234375,-0.31791311502456665,0.1598723977804184,-0.06016436591744423,0.22293998301029205,0.169385702897614,0.07004355282327958,-0.022334641417668957,-0.10119973220356619,0.30142301624921947,0.11708774440126837,0.6935830335459456,0.22607883993962477,-0.43855231033889736,-0.3916892605419833,-0.03854426095453885,0.045704674574433786,0.49056828022003174,-0.06968425214290619,-0.047442127019166946,-0.5214468240737915,0.6989011764526367,0.16551610827445984,0.8918790817260742,0.26385498046875,-0.295826256275177,0.6597447991371155,-0.24065746366977692,0.8917599320411682
0.4,0.17079369723796844,0.025037037208676338,-0.07301121950149536,-0.1779128462076187,0.34710800647735596,0.0871819481253624,0.710839033126831,0.4612790644168854,-0.1034947857260704,0.2080165296792984,-0.06032264977693558,0.19023117423057556,0.17096869164458223,0.05494224387576148,-0.020376703289423686,-0.09949603150987488,0.3247306600112838,0.11072157668629262,0.6912095457383741,0.27260050753635934,-0.34235289547256237,-0.41837609570991463,-0.043750541176214554,0.040207790362031794,0.5015873908996582,-0.10992592573165894,-0.14602243900299072,-0.3558256924152374,0.6942160129547119,0.1743638962507248,0.9216781258583069,0.42255812883377075,0.13301043212413788,0.7560330629348755,-0.2412905991077423,0.7609246969223022
0.42,0.17564503848552704,-0.00903821550309658,-0.11770553141832352,-0.03486352041363716,0.30489587783813477,0.0837368369102478,0.7331287264823914,0.5541229248046875,0.13612471520900726,0.2368343621492386,-0.06457409262657166,0.12011052668094635,0.17133236049390224,0.028238006035364697,-0.02110929652223523,-0.09815452277882532,0.32675230531467225,0.10029356138149974,0.7033336191136109,0.3415857472806726,-0.3445210783861104,-0.4411420828925868,-0.04695145277743439,0.03219014233505341,0.5112900733947754,-0.17807643115520477,-0.23541106283664703,-0.06972704082727432,0.6097917556762695,0.1674736738204956,0.9662574529647827,0.6082457900047302,0.6122494339942932,0.8136687278747559,-0.2582963705062866,0.4804421067237854
0.44,0.13664184510707855,-0.02670959196984768,-0.1112101823091507,0.08560558408498764,0.2783861458301544,0.07222701609134674,0.7285386323928833,0.6332517862319946,0.2094574123620987,0.21892555058002472,-0.08852691948413849,-0.01548236794769764,0.16180551433283544,-0.0004118148574987911,-0.017027475441184593,-0.08890597126398854,0.30790666426113983,0.08424018537444862,0.7086788072632477,0.4302118889664249,-0.3343537079225735,-0.44707775907830305,-0.050123692211827824,0.021209756838994513,0.4332836866378784,-0.21341918408870697,-0.2224203646183014,0.17121116816997528,0.5567722916603088,0.14445403218269348,0.9570772647857666,0.7665035128593445,0.7589148283004761,0.7778511047363281,-0.35410767793655396,-0.06192947179079056
0.46,0.13715390861034393,-0.07270324230194092,-0.10752629488706589,0.16816121339797974,0.24468883872032166,0.09102173149585724,0.7287095785140991,0.6586748361587524,0.2814179062843323,-0.020752085372805595,-0.10562837868928909,-0.07979914546012878,0.14702874775563984,-0.032133814439660194,-0.004779038476559783,-0.07110866910828605,0.2802762976769562,0.07544047304695473,0.7104755084668508,0.5259858355739897,-0.3204035103151322,-0.4287176279084858,-0.05952519244391892,0.006777435266092577,0.4343078136444092,-0.30540648102760315,-0.21505258977413177,0.3363224267959595,0.4893776774406433,0.18204346299171448,0.957419216632843,0.8173496127128601,0.9028357863426208,0.2984958291053772,-0.42251351475715637,-0.31919658184051514
0.48,0.11993058025836945,-0.10654480755329132,-0.04570838809013367,0.19311314821243286,0.21286815404891968,0.12998294830322266,0.7240952253341675,0.6259865760803223,0.3077934682369232,-0.40643370151519775,-0.12135107070207596,-0.08072405308485031,0.13877033027736455,-0.061310885284520104,0.009776148580956575,-0.04435479136988281,0.24707227565594042,0.09759623227453186,0.7128234454254381,0.5959235879582805,-0.30403986214829,-0.40856165768923525,-0.06949297429004431,-0.015834152225409404,0.3998611569404602,-0.37308961153030396,-0.09141677618026733,0.3862262964248657,0.42573630809783936,0.2599658966064453,0.9481903910636902,0.7519731521606445,0.9555869102478027,-0.4728673994541168,-0.48540428280830383,-0.32289621233940125
0.5,0.0927359014749527,-0.18325193226337433,0.04514981806278229,0.12499968707561493,0.23211419582366943,0.19192057847976685,0.6976096034049988,0.5440486669540405,0.2954501509666443,-0.5066450238227844,-0.13643355667591095,-0.05921272560954094,0.13884518901543008,-0.08612682072650363,0.02100794066133954,-0.00889150225859229,0.23108302579148027,0.14201858522249117,0.7105724727905987,0.6103774721299868,-0.2847069596065636,-0.42233364095132364,-0.07364761350527677,-0.037415448260025956,0.3454717993736267,-0.52650386095047,0.09029963612556458,0.24999937415122986,0.46422839164733887,0.3838411569595337,0.8952192068099976,0.588097333908081,0.9309002757072449,-0.6732900142669678,-0.5457342267036438,-0.23685090243816376
0.52,0.0935027152299881,-0.18755759298801422,0.11488659679889679,0.05137769877910614,0.2238989621400833,0.208926722407341,0.679163932800293,0.4445000886917114,0.2719232738018036,-0.4640114903450012,-0.14146688580513,-0.026644811034202576,0.1394742720576556,-0.10798718806709427,0.02464591079165404,0.019065473779126374,0.23110691797968605,0.1771335641787687,0.6977116123719056,0.5695343094288459,-0.2624744181484882,-0.44317396987743496,-0.076192155547973,-0.04040546947976689,0.3470054268836975,-0.5351151823997498,0.22977319359779358,0.10275539755821228,0.4477979242801666,0.417853444814682,0.8583279252052307,0.38900020718574524,0.8838465213775635,-0.5880230069160461,-0.56586754322052,-0.1065792441368103
0.54,0.10678812861442566,-0.16543321311473846,0.16105669736862183,0.003656896995380521,0.21105895936489105,0.19505782425403595,0.6567097902297974,0.34935256838798523,0.22810299694538116,-0.37477907538414,-0.134710431098938,0.020550137385725975,0.1389819787800428,-0.12234694219415068,0.021440863975848847,0.03436160583058033,0.22944099188999764,0.1879804440936334,0.6831756642594667,0.48635721165674434,-0.2414636066046666,-0.43378710583194335,-0.07648335322177831,-0.03002321982642955,0.37357625365257263,-0.49086642265319824,0.32211339473724365,0.007313793990761042,0.4221179187297821,0.3901156485080719,0.8134196400642395,0.19870515167713165,0.796205997467041,-0.40955817699432373,-0.538841724395752,0.0822005495429039
0.56,0.11712060868740082,-0.14391042292118073,0.16009826958179474,-0.020955335348844528,0.1989293247461319,0.17950905859470367,0.6406779289245605,0.300849974155426,0.18846608698368073,-0.30414432287216187,-0.11786819249391556,0.05506054311990738,0.1341105432873274,-0.13085817526511342,0.013315032940766813,0.039797541663691816,0.2248895989580247,0.18446646347789622,0.6719536184199977,0.39471323550469284,-0.22664190105763762,-0.39763498055307034,-0.07588795337452965,-0.004341533346861438,0.39424121379852295,-0.44782084226608276,0.3201965391635895,-0.041910670697689056,0.3978586494922638,0.35901811718940735,0.7813558578491211,0.10169991850852966,0.7169321775436401,-0.26828864216804504,-0.47147276997566223,0.22024217247962952
0.58,0.10678558051586151,-0.13488037884235382,0.12238111346960068,-0.034432925283908844,0.1896623820066452,0.17488394677639008,0.6439845561981201,0.2805173099040985,0.1550692766904831,-0.28635314106941223,-0.09437084943056107,0.07821127027273178,0.1222574760928208,-0.1364265440233313,0.00018805358192719467,0.03752626062779498,0.2164913230962179,0.1794711351966242,0.6661059373170987,0.32628029964246125,-0.21943737618691914,-0.3538802923759448,-0.07117126436493748,0.02507688376770319,0.37357115745544434,-0.42976075410842896,0.24476222693920135,-0.06886585056781769,0.3793247640132904,0.34976789355278015,0.7879690527915955,0.06103459745645523,0.6501385569572449,-0.23270627856254578,-0.37748339772224426,0.3128450810909271
0.6,0.07308979332447052,-0.13308915495872498,0.06456749886274338,-0.04873517155647278,0.1860690712928772,0.1855686455965042,0.6578893661499023,0.2606547772884369,0.11440108716487885,-0.309859961271286,-0.06832680851221085,0.10103897005319595,0.10196472705986531,-0.1385180368081553,-0.017464234467382288,0.028190635863136068,0.2076038124980177,0.1738447327726045,0.665749479328179,0.2988951015185931,-0.21934033162168481,-0.31177027270193025,-0.06163491337416576,0.06228174381600448,0.30617958307266235,-0.42617830634117126,0.12913499772548676,-0.09747034311294556,0.3721381425857544,0.3711372911930084,0.8157787919044495,0.02130957506597042,0.5688021779060364,-0.2797199487686157,-0.2733072340488434,0.4041558802127838
0.62,0.01985977403819561,-0.14906702935695648,0.0030319129582494497,-0.04094385728240013,0.20030111074447632,0.2017473429441452,0.6888390779495239,0.22883108258247375,0.08456523716449738,-0.36366111040115356,-0.03715262562036514,0.09802552312612534,0.07961743175538949,-0.1323757206306011,-0.032373661529538245,0.017451951073776666,0.20393925385545023,0.17242972434242093,0.6663827918128068,0.3147935936109478,-0.2228267863869616,-0.25129683881202447,-0.045843307685530264,0.10778968638807754,0.19971954822540283,-0.4581340551376343,0.0060638259164988995,-0.08188771456480026,0.40060222148895264,0.4034946858882904,0.8776781558990479,-0.042337823659181595,0.5091304779052734,-0.38732224702835083,-0.14861050248146057,0.39210209250450134
0.64,-0.0023990217596292496,-0.1288752406835556,-0.03686925396323204,-0.0382460281252861,0.20145004987716675,0.2079933136701584,0.7027208805084229,0.23536095023155212,0.08858714997768402,-0.33283156156539917,-0.03078985959291458,0.1407335251569748,0.060821343523256674,-0.11722177089539305,-0.030715032419487386,0.019789319951714207,0.2037277550370566,0.17674271998838723,0.6675008542259531,0.3199970029822461,-0.22579596751591471,-0.24274094347771016,-0.032237707053540406,0.11120503311463015,0.1552019566297531,-0.4177504777908325,-0.07373850792646408,-0.0764920562505722,0.4029000997543335,0.4159866273403168,0.9054417610168457,-0.029278108850121498,0.5171743035316467,-0.32566314935684204,-0.12315943837165833,0.5629341006278992
0.66,-0.0033731404691934586,-0.08593082427978516,-0.05384402722120285,-0.07181524485349655,0.17093411087989807,0.21296866238117218,0.7202855348587036,0.257010281085968,0.09134571254253387,-0.19812552630901337,-0.02543124370276928,0.1681799441576004,0.045177380954825826,-0.09556494460413523,-0.03014895776469948,0.020255354097385863,0.19617114080906708,0.17997046756042995,0.6693284135179455,0.3102779025232302,-0.21930437176424367,-0.24575324529384196,-0.029164338894330094,0.11700541273174501,0.1532537192106247,-0.3318616449832916,-0.1076880544424057,-0.1436304897069931,0.34186822175979614,0.42593732476234436,0.940571129322052,0.014020558446645737,0.5226914286613464,-0.05625104904174805,-0.10172497481107712,0.6727197766304016
0.68,0.021385250613093376,-0.026318876072764397,-0.056496284902095795,-0.09701316803693771,0.14113028347492218,0.2142402082681656,0.7303257584571838,0.25711917877197266,0.03202623128890991,-0.06477460265159607,-0.010211239568889141,0.18873324990272522,0.034171635757515154,-0.06934325168973056,-0.03346629034198599,0.015857058376369193,0.17674127056538758,0.18266436746935666,0.6789779958370525,0.2919594364360362,-0.20401551668871787,-0.2441677673250471,-0.026922755390378913,0.12166889809257861,0.20277050137519836,-0.2126377522945404,-0.11299256980419159,-0.19402633607387543,0.28226056694984436,0.4284804165363312,0.9606515169143677,0.014238354749977589,0.4040524661540985,0.21045079827308655,-0.040844958275556564,0.7549329996109009
0.7000000000000001,0.06477291882038116,0.03064175881445408,-0.07979077100753784,-0.12312024086713791,0.11745252460241318,0.21167340874671936,0.7347439527511597,0.25870904326438904,-0.11854459345340729,0.045145049691200256,0.00190790556371212,0.20307782292366028,0.03136054364534277,-0.04236834600128267,-0.03798286210532089,0.009426720782348078,0.15115084666188208,0.18412605756748718,0.698461655493018,0.2660311062555859,-0.18490384713288763,-0.2382783721853107,-0.022469104031219236,0.12591299014832652,0.28954583406448364,-0.09871648252010345,-0.15958154201507568,-0.24624048173427582,0.23490504920482635,0.4233468174934387,0.9694879651069641,0.01741808094084263,0.10291081666946411,0.4302901029586792,0.00763162225484848,0.8123112916946411
0.72,0.11887675523757935,0.0827087014913559,-0.10207105427980423,-0.14650225639343262,0.0990649089217186,0.2088276892900467,0.7375820875167847,0.2644188404083252,-0.33949556946754456,0.10228197276592255,0.0025286406744271517,0.2156757414340973,0.035321467234131675,-0.018025444488561516,-0.044328886761880945,0.002480025000061006,0.12489511114671635,0.18556167815409963,0.7206310059401616,0.23665547663485495,-0.20299927909802962,-0.23020663250116122,-0.01845203555379154,0.12935949913209777,0.39775350689888,0.005417405162006617,-0.20414210855960846,-0.29300451278686523,0.1981298178434372,0.4176553785800934,0.9751641750335693,0.02883770689368248,-0.3389911353588104,0.5445639491081238,0.010114562697708607,0.8627029657363892
0.74,0.13768279552459717,0.0983860045671463,-0.0811789259314537,-0.17091259360313416,0.09797636419534683,0.2063264697790146,0.737432599067688,0.25343120098114014,-0.47007936239242554,0.08730007708072662,-0.012375662103295326,0.22715885937213898,0.046126168074652384,0.0008230019128608562,-0.053872004725906635,-0.005611932824682968,0.10765387496926931,0.18683139904205914,0.7349695369354253,0.20916643786120984,-0.2846641583341807,-0.22283388527235526,-0.016764219081343113,0.13184802532544654,0.43536558747291565,0.03677200525999069,-0.1623578518629074,-0.3418251872062683,0.19595272839069366,0.4126529395580292,0.9748651385307312,0.006862419657409191,-0.6001587510108948,0.5146001577377319,-0.049502648413181305,0.9086354374885559
0.76,0.13465936481952667,0.09194093942642212,-0.05480922758579254,-0.19881927967071533,0.1075410470366478,0.20092856884002686,0.7353074550628662,0.2418578863143921,-0.5121372938156128,0.06047731637954712,-0.024651378393173218,0.23386064171791077,0.05995579792218398,0.01602395943165786,-0.06206840988033332,-0.01294252417573496,0.10455067203134008,0.18769951305197202,0.7393688242709793,0.18763885218633958,-0.38074142940929656,-0.2184798766252784,-0.016918489969756447,0.1338838968867798,0.42931872606277466,0.023881874978542328,-0.10961845517158508,-0.39763855934143066,0.2150820940732956,0.4018571376800537,0.9706148505210876,-0.01628422923386097,-0.6842745542526245,0.4609546363353729,-0.09860551357269287,0.9354425668716431
0.78,0.1391907036304474,0.07651067525148392,-0.042664941400289536,-0.22094480693340302,0.1328989863395691,0.1932583898305893,0.7323198318481445,0.2267279326915741,-0.5343222618103027,0.04200954735279083,-0.029523925855755806,0.23647114634513855,0.07737003271650138,0.026997416312914784,-0.06635416712733266,-0.018138579344698497,0.11261507738651316,0.1877654438793555,0.7387933032081054,0.17352872204403294,-0.45104436865807457,-0.21805140643265564,-0.017100884655391536,0.13571206162231872,0.4383814036846161,-0.006978651508688927,-0.08532988280057907,-0.44188961386680603,0.2657979726791382,0.3865167796611786,0.9646397233009338,-0.0465441457927227,-0.7286445498466492,0.42401909828186035,-0.11809570342302322,0.9458845853805542
0.8,0.14964966475963593,0.06286615878343582,-0.0381542332470417,-0.23782864212989807,0.17226457595825195,0.18398219347000122,0.7294324636459351,0.21912997961044312,-0.5517100095748901,0.029769795015454292,-0.03151945024728775,0.23756161332130432,0.09874433897006424,0.033612570178678684,-0.06653616448944588,-0.02206122859395343,0.13471562054428676,0.1879043133018968,0.7355286279820932,0.16384675471491011,-0.49451100272092263,-0.21994187519355643,-0.01774613814749563,0.13729007033142204,0.45929932594299316,-0.03426768630743027,-0.0763084664940834,-0.47565728425979614,0.3445291519165039,0.36796438694000244,0.9588649868965149,-0.061740048229694366,-0.7634199857711792,0.399539589881897,-0.126077800989151,0.9502464532852173
0.8200000000000001,0.15682940185070038,0.050138942897319794,-0.038184281438589096,-0.24595695734024048,0.2181553989648819,0.1759142428636551,0.7259527444839478,0.2194182425737381,-0.5564252734184265,0.022693367674946785,-0.033512938767671585,0.23704221844673157,0.12121362931824968,0.03748203322272985,-0.06511783067996867,-0.02631646712206855,0.16840682751310185,0.1881709667398872,0.7294890112886654,0.15878516120643793,-0.5193792813384301,-0.22453774767144072,-0.01870094622827699,0.13835360021169557,0.47365880012512207,-0.059722110629081726,-0.07636856287717819,-0.49191391468048096,0.4363107979297638,0.3518284857273102,0.9519054889678955,-0.061163511127233505,-0.7728505730628967,0.38538673520088196,-0.13405175507068634,0.9481688737869263
0.84,0.16090209782123566,0.03761379420757294,-0.041448790580034256,-0.24622438848018646,0.2632293999195099,0.17082853615283966,0.7214988470077515,0.22227361798286438,-0.5474169850349426,0.017015280202031136,-0.03745555132627487,0.23503156006336212,0.1423027969079133,0.040458252973879415,-0.0636013672940006,-0.031330779075485246,0.20902816419065215,0.18829270893711333,0.7220792168317791,0.15836211031723635,-0.5295571051998835,-0.2321087478368898,-0.020522953182729606,0.13886446148144718,0.4818041920661926,-0.08477240800857544,-0.08289758116006851,-0.4924487769603729,0.5264587998390198,0.3416570723056793,0.9429977536201477,-0.05545276403427124,-0.7548339366912842,0.37403056025505066,-0.1498222053050995,0.9401262402534485
0.86,0.16365104913711548,0.029214149340987206,-0.047923218458890915,-0.2416577935218811,0.301910400390625,0.16778868436813354,0.717299222946167,0.2294696569442749,-0.5266473889350891,0.014699118211865425,-0.04123445600271225,0.23134967684745789,0.16091051107911974,0.043613901006903294,-0.06308202673537062,-0.03708354428367439,0.25064257195846196,0.18841967499226875,0.7142875867193799,0.16091801307098405,-0.5302887260454723,-0.24192405698471983,-0.023357537921090996,0.13874861207334785,0.48730209469795227,-0.1015717014670372,-0.09584643691778183,-0.4833155870437622,0.60382080078125,0.3355773687362671,0.934598445892334,-0.04106069356203079,-0.7132947444915771,0.36939823627471924,-0.164937824010849,0.9253987073898315
0.88,0.1647266000509262,0.0253767017275095,-0.053705789148807526,-0.23628728091716766,0.3297964632511139,0.16419854760169983,0.7140795588493347,0.23962844908237457,-0.4911838471889496,0.021028371527791023,-0.04483401030302048,0.22656679153442383,0.1758383146984749,0.04735311700027431,-0.06336723882247922,-0.042517710349414664,0.2880753613264297,0.18865849756815153,0.7075466108377302,0.16781320380843032,-0.5252209896957721,-0.2547405818123534,-0.02665273401652316,0.1381995968274269,0.48945319652557373,-0.10924659669399261,-0.10741157829761505,-0.4725745618343353,0.6595929265022278,0.32839709520339966,0.9281591176986694,-0.020743096247315407,-0.6423677206039429,0.38205674290657043,-0.1793360412120819,0.9062671661376953
0.9,0.16579307615756989,0.021620897576212883,-0.0644807294011116,-0.2282515913248062,0.34957149624824524,0.15887707471847534,0.7135730981826782,0.2555406987667084,-0.43827956914901733,0.03738994896411896,-0.04741368070244789,0.219782754778862,0.18746851027322295,0.05137786934903534,-0.0645093575850151,-0.04708892731181664,0.3176219890243435,0.1886968557733616,0.7024261766812347,0.17888971322966107,-0.5055004755622196,-0.27053845656116465,-0.029928900467534013,0.13726385162599067,0.4915861487388611,-0.11675820499658585,-0.1289614588022232,-0.4565031826496124,0.6991429924964905,0.3177541494369507,0.9271461963653564,0.011081404983997345,-0.5365591645240784,0.4147799015045166,-0.18965472280979156,0.879131019115448
0.92,0.16703058779239655,0.017066428437829018,-0.08410008996725082,-0.21120741963386536,0.3626253604888916,0.15199162065982819,0.7169003486633301,0.28642940521240234,-0.35881519317626953,0.07467952370643616,-0.0491030290722847,0.207863450050354,0.19677216057117292,0.054210073744768675,-0.0669270507044634,-0.050625844712198664,0.3387566106904105,0.18868997491973308,0.6996029731907469,0.19510497885146377,-0.4632571676400411,-0.2897593380603873,-0.03276661430289779,0.13593768288668465,0.4940611720085144,-0.12586714327335358,-0.16820017993450165,-0.4224148392677307,0.7252507209777832,0.30398324131965637,0.9338006973266602,0.07285884022712708,-0.37763041257858276,0.489359050989151,-0.1964121162891388,0.831453800201416
0.9400000000000001,0.16562357544898987,0.010674843564629555,-0.11033828556537628,-0.17704783380031586,0.36684828996658325,0.14514309167861938,0.7229021787643433,0.341423362493515,-0.23340411484241486,0.1389840692281723,-0.050856608897447586,0.1807631403207779,0.203137318774533,0.05499446312691682,-0.07116716962013851,-0.05249645846100532,0.3512198092440213,0.18867820229458654,0.6992641582505299,0.22005488103274246,-0.3914502496585323,-0.31420435030804167,-0.035146575840474904,0.1341622987247827,0.49124714732170105,-0.1386503130197525,-0.22067657113075256,-0.3540956676006317,0.7336965799331665,0.29028618335723877,0.9458044171333313,0.18284673988819122,-0.12680824100971222,0.6179681420326233,-0.20342643558979034,0.7230525612831116
0.96,0.1582605391740799,-0.00822938047349453,-0.13990898430347443,-0.11644352227449417,0.3576604723930359,0.13964058458805084,0.7305798530578613,0.425268292427063,-0.06565862894058228,0.21134068071842194,-0.054964110255241394,0.11996783316135406,0.2051591980185581,0.05132537680300343,-0.07691385997647307,-0.049903330077423064,0.35431301458698183,0.18553032787279553,0.6993935947355514,0.26081512596908935,-0.28233410849546886,-0.3463189873664313,-0.03775642419300002,0.13227545154419207,0.4765210747718811,-0.17645876109600067,-0.27981796860694885,-0.23288704454898834,0.7153209447860718,0.2792811691761017,0.9611596465110779,0.350536584854126,0.20868274569511414,0.7626813650131226,-0.21985644102096558,0.47987133264541626
0.98,0.15325765311717987,-0.028626492246985435,-0.15831707417964935,-0.031713832169771194,0.3177137076854706,0.1284845471382141,0.7399983406066895,0.5240388512611389,0.10107322037220001,0.2579120993614197,-0.06498564779758453,0.019783316180109978,0.20304938338548462,0.036999906682965766,-0.07916271568489971,-0.04010057041330632,0.34923652506530106,0.17141408056914859,0.7084842732865774,0.3240118117935039,-0.20217082322339558,-0.38360843117493826,-0.050986394731546925,0.12543403097889894,0.46651530265808105,-0.21725298464298248,-0.3166341483592987,-0.06342766433954239,0.6354274153709412,0.2569690942764282,0.9799966812133789,0.5480777025222778,0.5421464443206787,0.8558241724967957,-0.25994259119033813,0.07913326472043991
1.0,0.14226360619068146,-0.024190982803702354,-0.11378978192806244,0.049514010548591614,0.2753811180591583,0.10379555821418762,0.7369577884674072,0.613868772983551,0.16328002512454987,0.2775721549987793,-0.09382399916648865,-0.09321483224630356,0.1883904725186659,0.015868889046281885,-0.0763138779607274,-0.028627677384137563,0.32501344512259356,0.14472844904305293,0.7193165978853355,0.4085160940097662,-0.21221925136401446,-0.41189926578992375,-0.06576738805524038,0.10318802246300628,0.44452720880508423,-0.20838196575641632,-0.22757956385612488,0.09902802109718323,0.5507622361183167,0.20759111642837524,0.9739156365394592,0.727737545967102,0.6665600538253784,0.8951442837715149,-0.3752959966659546,-0.37285932898521423
1.02,0.16800586879253387,-0.04877224564552307,-0.09721220284700394,0.13959643244743347,0.22484394907951355,0.08737903833389282,0.7360313534736633,0.6591789722442627,0.25413691997528076,0.20805777609348297,-0.128447026014328,-0.13668705523014069,0.1731138061210012,-0.013576890432845363,-0.06329700300308971,-0.007463986428623627,0.28340944861022704,0.1146015013801476,0.7254860134885994,0.5016984094905338,-0.2168554745613493,-0.4132019124733677,-0.07747691677027377,0.0633188519427867,0.49601173400878906,-0.25754448771476746,-0.19442440569400787,0.27919286489486694,0.4496878981590271,0.17475807666778564,0.9720627069473267,0.8183578848838806,0.8482738137245178,0.7561155557632446,-0.513788104057312,-0.5467482209205627
1.04,0.18078340590000153,-0.06294050812721252,-0.05558379739522934,0.19406192004680634,0.1740519255399704,0.1047288104891777,0.7360478639602661,0.6683270931243896,0.30500122904777527,-0.10222956538200378,-0.15244688093662262,-0.12802064418792725,0.16538374731779965,-0.04623635778877009,-0.04378576277998668,0.018971924030391118,0.23411077629426771,0.10017442754821707,0.7327271155691063,0.5832912615741407,-0.21705777934825257,-0.38675697572911216,-0.0940613712558402,0.019217057754641574,0.5215668082237244,-0.28588101267814636,-0.11116759479045868,0.38812384009361267,0.3481038510799408,0.2094576209783554,0.972095787525177,0.8366542458534241,0.9500024318695068,0.13554087281227112,-0.6097875237464905,-0.512082576751709
1.06,0.1678852140903473,-0.11398522555828094,0.01780635491013527,0.16941098868846893,0.15145792067050934,0.1407938152551651,0.7241230010986328,0.6170069575309753,0.312107652425766,-0.43050190806388855,-0.1644425094127655,-0.08101668953895569,0.16449864193835517,-0.07226667776265079,-0.02468617215127226,0.04710394332548162,0.1920709442544743,0.11376220095418502,0.740034656369992,0.6278682998898947,-0.21376414448742967,-0.375353002488302,-0.10511904661765353,-0.021510687390148407,0.4957704246044159,-0.3879704475402832,0.03561270982027054,0.33882197737693787,0.3029158413410187,0.2815876305103302,0.9482460021972656,0.7340139150619507,0.9642152786254883,-0.5210038423538208,-0.657770037651062,-0.32406675815582275
1.08,0.15623286366462708,-0.16698315739631653,0.09487341344356537,0.10325756669044495,0.15417775511741638,0.18250733613967896,0.6989721655845642,0.511395275592804,0.29777154326438904,-0.47905418276786804,-0.1675426959991455,-0.037224799394607544,0.17053619914571444,-0.09539348432888464,-0.011447870164313466,0.07136208085748146,0.17254621621897523,0.14221861892137774,0.7376088587071434,0.61225941553918,-0.2061376838315046,-0.3986643105696624,-0.10809398034827138,-0.03932073487361836,0.47246572375297546,-0.49396631121635437,0.18974682688713074,0.2065151333808899,0.30835551023483276,0.3650146722793579,0.8979443311691284,0.5227905511856079,0.9355430603027344,-0.6181083917617798,-0.670170783996582,-0.14889919757843018
1.1,0.15432310104370117,-0.15481941401958466,0.1428617686033249,0.0575699582695961,0.1381935477256775,0.18717998266220093,0.6847596168518066,0.40479424595832825,0.27901649475097656,-0.4225601553916931,-0.16569918394088745,0.006931694690138102,0.17476465033146008,-0.11122147205723236,-0.005266719660514572,0.08363766028945613,0.16555755582234988,0.16334144140018406,0.7248608005840586,0.5431446393300368,-0.19667519358418056,-0.4169233992254381,-0.1082070133931351,-0.032258140608379754,0.46864619851112366,-0.4696388244628906,0.2857235372066498,0.1151399165391922,0.276387095451355,0.37435996532440186,0.8695192933082581,0.3095884919166565,0.8980329632759094,-0.5051203370094299,-0.6627967357635498,0.027726778760552406
1.12,0.16190803050994873,-0.12403076887130737,0.1650170534849167,0.02007603459060192,0.12431734800338745,0.16996368765830994,0.6702717542648315,0.31079456210136414,0.24382604658603668,-0.3429104685783386,-0.15318910777568817,0.05255511775612831,0.173171905945799,-0.11626890425143609,-0.004733950267377212,0.08423145442030601,0.15709721884183395,0.16766093653767056,0.7104596756400042,0.4442906297406119,-0.1900788900520967,-0.40432556280666315,-0.10776228106197297,-0.009836026745106741,0.4838160574436188,-0.40806153416633606,0.3300341069698334,0.04015206918120384,0.2486346960067749,0.3399273753166199,0.8405435085296631,0.12158914655447006,0.827652096748352,-0.34582093358039856,-0.6127564311027527,0.21022047102451324
1.1400000000000001,0.16473537683486938,-0.09911593794822693,0.13924318552017212,-0.002776243956759572,0.11670207977294922,0.15326005220413208,0.6686586141586304,0.2723728120326996,0.2142607420682907,-0.28341370820999146,-0.13359707593917847,0.08421821147203445,0.16710941350597655,-0.11700122972071708,-0.007962006552267102,0.0767819393575195,0.14770970672201522,0.16239154124876407,0.7004088918534815,0.35114537096043574,-0.18941651740871737,-0.3697090428868831,-0.10395691852628378,0.022293624270548953,0.4894707500934601,-0.35823187232017517,0.27848637104034424,-0.005552487913519144,0.23340415954589844,0.30652010440826416,0.8373172283172607,0.04474564269185066,0.7685214877128601,-0.22682739794254303,-0.5343883037567139,0.3368728458881378
1.16,0.1487705260515213,-0.09188663959503174,0.09239950776100159,-0.021109439432621002,0.11292099952697754,0.1448785662651062,0.6803112030029297,0.2553038001060486,0.1735888570547104,-0.2576844394207001,-0.1116422638297081,0.10593313723802567,0.155223996244793,-0.1163508015768214,-0.017662874892329962,0.060099750745756644,0.13882726581419727,0.15439819760964293,0.69662205890118,0.2895032536406449,-0.19179391751881048,-0.3284496654059901,-0.09413321044022,0.05346171879799282,0.4575410485267639,-0.3437732756137848,0.18479901552200317,-0.042218878865242004,0.22584199905395508,0.2897571325302124,0.8606224060058594,0.01060760859400034,0.6871777176856995,-0.17536889016628265,-0.4465690553188324,0.42373254895210266
1.18,0.11357983946800232,-0.08553393185138702,0.04271848499774933,-0.04022485762834549,0.11679591983556747,0.15020768344402313,0.6947572827339172,0.2376553863286972,0.10833843052387238,-0.26214897632598877,-0.08671726286411285,0.12685681879520416,0.13567341372048738,-0.11210228441906074,-0.03437243469176879,0.03443146781596921,0.13311368708537932,0.15142871341688952,0.698245644641165,0.2564203767699222,-0.19808834940303777,-0.2992705750996999,-0.08033355273823244,0.08009498178540585,0.38715967535972595,-0.33106786012649536,0.08543696999549866,-0.08044971525669098,0.23359183967113495,0.30041536688804626,0.8895145654678345,-0.02468923106789589,0.5566768646240234,-0.18429796397686005,-0.3468690514564514,0.5074272751808167
1.2,0.08541962504386902,-0.06723503768444061,-0.007877759635448456,-0.04987163096666336,0.11836426705121994,0.16580647230148315,0.7082147598266602,0.21607884764671326,0.05285651981830597,-0.28476154804229736,-0.05369807779788971,0.14830251038074493,0.10873652288019241,-0.1019017698757106,-0.04563236069684059,0.022616759249944735,0.13082288751078758,0.1348345142095101,0.7009711009510663,0.2678306041671551,-0.20997646677564222,-0.22485763736863826,-0.0647454711900488,0.12348781678044893,0.33083924651145935,-0.29447007179260254,-0.01575551927089691,-0.09974326193332672,0.23672853410243988,0.3316129446029663,0.9164295196533203,-0.06784230470657349,0.4457130432128906,-0.22952310740947723,-0.21479231119155884,0.5932100415229797
1.22,0.0746002048254013,-0.039029501378536224,-0.042825840413570404,-0.05727844312787056,0.10785720497369766,0.1687079519033432,0.7259739637374878,0.1986202895641327,0.031678080558776855,-0.31493014097213745,-0.038103412836790085,0.17158570885658264,0.0875956102133668,-0.08194565337122929,-0.04244364231301873,0.026579701097562896,0.12177979673902865,0.13943349833815324,0.7074549923341693,0.26800580925991896,-0.22016356889852123,-0.20010225754070213,-0.050549172491089325,0.12733027993880106,0.3092004060745239,-0.23805899918079376,-0.08565168082714081,-0.11455688625574112,0.21571440994739532,0.3374159038066864,0.9519479870796204,-0.10275940597057343,0.4033561646938324,-0.2898602783679962,-0.15241365134716034,0.6863428354263306
1.24,0.057750508189201355,-0.035085223615169525,-0.05970953777432442,-0.10105466097593307,0.10174214094877243,0.16822318732738495,0.7259985208511353,0.21964065730571747,-0.00512055866420269,-0.19364288449287415,-0.028593575581908226,0.19529111683368683,0.07477974158149753,-0.061254827178133624,-0.040050847308342984,0.02875862620887111,0.11290633150913204,0.14108214023668952,0.7110295038776087,0.2556660607565616,-0.21756756414322143,-0.2017243618137394,-0.04284396156848362,0.13277552530004078,0.275501012802124,-0.23017044365406036,-0.11941907554864883,-0.20210932195186615,0.20348428189754486,0.3364463746547699,0.9519969820976257,-0.06071869656443596,0.329758882522583,-0.0472857803106308,-0.1143743023276329,0.7811644673347473
1.26,0.07362496852874756,0.01595468260347843,-0.06921567767858505,-0.12704044580459595,0.08603685349225998,0.17270010709762573,0.7340724468231201,0.22945977747440338,-0.11187492311000824,-0.04092708230018616,-0.010171107016503811,0.20795366168022156,0.06517986232245482,-0.04121288150452257,-0.04280027748770402,0.02555303619401078,0.10348066835770217,0.1435054622108674,0.7133990718872111,0.23893695067508008,-0.20606101447514377,-0.2011166659001451,-0.037151691627138266,0.1375856357901329,0.30724993348121643,-0.12809063494205475,-0.1384313553571701,-0.2540808916091919,0.17207370698451996,0.34540021419525146,0.968144953250885,-0.04108044505119324,0.11625015735626221,0.25814583897590637,-0.040684428066015244,0.8318146467208862
1.28,0.11455683410167694,0.06353079527616501,-0.09255064278841019,-0.15185552835464478,0.07793448120355606,0.17397725582122803,0.7378976941108704,0.23955883085727692,-0.30444079637527466,0.06733283400535583,0.0008910174947232008,0.2176937758922577,0.061520593329416146,-0.021608420978927834,-0.048194630586463255,0.020408978263958318,0.09080764834268146,0.1449862298964754,0.7214939437486009,0.2182918585717216,-0.21592375221513127,-0.19840142232544056,-0.028574768092809504,0.14166493915963763,0.3891136646270752,-0.03293841332197189,-0.18510128557682037,-0.30371105670928955,0.15586896240711212,0.34795451164245605,0.9757953882217407,-0.020882347598671913,-0.268881618976593,0.47466567158699036,0.003564069978892803,0.8707751035690308
1.3,0.14165256917476654,0.08842326700687408,-0.08679626882076263,-0.16911689937114716,0.08725422620773315,0.174274742603302,0.7390719652175903,0.2408301830291748,-0.46952858567237854,0.08919911086559296,-0.005730719305574894,0.22618907690048218,0.06360213231051373,-0.004318370544036075,-0.05682025555176702,0.013474898511490913,0.08496706465020915,0.14718509922765832,0.7307114618471623,0.19715161742860243,-0.28204598825449206,-0.19484057707586303,-0.021495132818415294,0.1446121901333564,0.4433051347732544,0.01684652827680111,-0.17359253764152527,-0.3382337987422943,0.1745084524154663,0.348549485206604,0.9781438708305359,-0.018339648842811584,-0.5990571975708008,0.5183982253074646,-0.022922877222299576,0.9047563076019287
1.32,0.14535827934741974,0.09028708934783936,-0.06086428090929985,-0.18813063204288483,0.09959789365530014,0.17235678434371948,0.7379001379013062,0.23447947204113007,-0.5258355736732483,0.05973571538925171,-0.019580624997615814,0.23251885175704956,0.07049058494316111,0.009272768821780988,-0.06585988389718252,0.006126218601788353,0.08844020980843675,0.14980727535180333,0.7365096492655152,0.18003416242065462,-0.3795967758795825,-0.1929341997746899,-0.02047662203496595,0.1468847075015468,0.4507165551185608,0.020574180409312248,-0.1217285618185997,-0.37626126408576965,0.19919578731060028,0.34471356868743896,0.9758002161979675,-0.03104104846715927,-0.7116711735725403,0.4594714343547821,-0.07832249999046326,0.9300754070281982
1.34,0.14882194995880127,0.08017212897539139,-0.050654005259275436,-0.20385953783988953,0.12145580351352692,0.16754162311553955,0.7357311248779297,0.22244122624397278,-0.5454702973365784,0.03541918098926544,-0.026604050770401955,0.2348400205373764,0.08171911937514297,0.018908240683484425,-0.07198890966153872,0.00010154872017466762,0.10022427548362081,0.15213840819625285,0.7374405969786185,0.16807556290373488,-0.4562631759481283,-0.19349170427849505,-0.020597408178726802,0.14890958390874762,0.45764389634132385,0.0003442614688538015,-0.10130801051855087,-0.40771907567977905,0.24291160702705383,0.3350832462310791,0.9714621901512146,-0.055117543786764145,-0.7509406208992004,0.41083836555480957,-0.10641620308160782,0.9393600821495056
1.36,0.1568354368209839,0.06652460992336273,-0.04974783584475517,-0.21647438406944275,0.15732230246067047,0.16073696315288544,0.7334696054458618,0.2130126953125,-0.5596639513969421,0.0190733689814806,-0.028852995485067368,0.23554353415966034,0.0980875802592917,0.02467777214949777,-0.07409456576240292,-0.004512680254843448,0.12220084315739661,0.15366690630653163,0.7371725753134234,0.159626610229209,-0.5027943847475566,-0.19580746450763867,-0.020809204258247355,0.15070902390863353,0.4736708700656891,-0.02695077285170555,-0.09949567168951035,-0.4329487681388855,0.31464460492134094,0.3214739263057709,0.9669392108917236,-0.0739746019244194,-0.7793278694152832,0.3781467378139496,-0.11541198194026947,0.9421741366386414
1.3800000000000001,0.16262774169445038,0.05206004157662392,-0.052020519971847534,-0.22314895689487457,0.20228126645088196,0.155491441488266,0.7308672666549683,0.20990632474422455,-0.5653050541877747,0.006437079980969429,-0.03066881373524666,0.23493649065494537,0.11704095085225494,0.02754942008601188,-0.07370871236629789,-0.00881433085821122,0.15431542528334663,0.15490121430668943,0.7348301316214638,0.15499163947195846,-0.528127635446748,-0.20022429184372914,-0.021063201113851987,0.15220855065402156,0.48525547981262207,-0.05587991327047348,-0.10404103994369507,-0.44629791378974915,0.4045625329017639,0.310982882976532,0.9617345333099365,-0.0801873579621315,-0.790610134601593,0.35287415981292725,-0.12267525494098663,0.9397459626197815
1.4000000000000001,0.1661038100719452,0.04022425040602684,-0.05638635531067848,-0.2234441339969635,0.24602045118808746,0.152732253074646,0.7281440496444702,0.21009370684623718,-0.5592612028121948,-0.0033901166170835495,-0.03295077756047249,0.2327340841293335,0.13552944502085654,0.02932176210966329,-0.07307610944875695,-0.013772677445121199,0.19307286954597316,0.15613325880947496,0.7299218122114032,0.15422368489237226,-0.538919513183102,-0.20699960570935247,-0.021285938869776772,0.15322323438329827,0.4922076165676117,-0.07955149561166763,-0.11277271062135696,-0.446888267993927,0.4920409023761749,0.305464506149292,0.9562881588935852,-0.07981260120868683,-0.7785223722457886,0.3332197666168213,-0.13180311024188995,0.930936336517334
1.42,0.1675429493188858,0.030853262171149254,-0.06183745712041855,-0.2207004576921463,0.28521081805229187,0.15169920027256012,0.725048303604126,0.2135242074728012,-0.5434848666191101,-0.010427070781588554,-0.03585536777973175,0.22915935516357422,0.1521992580722767,0.031622226451988124,-0.07300341088952068,-0.019270825303766885,0.23365334474660795,0.1573306439325889,0.7239267235685382,0.15547848081012391,-0.5402013260078474,-0.21532924516310753,-0.021876476325112706,0.1536981871758533,0.4950858950614929,-0.0982934758067131,-0.1236749142408371,-0.4414009153842926,0.5704216361045837,0.30339840054512024,0.9500966668128967,-0.07295158505439758,-0.7469697594642639,0.3191458582878113,-0.143421471118927,0.9166374206542969
1.44,0.168523907661438,0.0274671483784914,-0.06606094539165497,-0.21853972971439362,0.31380051374435425,0.1499628722667694,0.722743809223175,0.21983014047145844,-0.5176969766616821,-0.011106742545962334,-0.03817068040370941,0.22501802444458008,0.16590966905813165,0.03488954611551696,-0.073509935715593,-0.024499042778343392,0.27099187055998536,0.15893059834622664,0.7182874788468695,0.1594353548840818,-0.5387319771318549,-0.22558568322570935,-0.02284729196011891,0.153743923716549,0.4970478117465973,-0.10506570339202881,-0.13212189078330994,-0.43707945942878723,0.6276010274887085,0.2999257445335388,0.9454876184463501,-0.060339730232954025,-0.6953939199447632,0.3177865147590637,-0.15268272161483765,0.9000720977783203
1.46,0.1695069521665573,0.0258693378418684,-0.07047626376152039,-0.2166966050863266,0.33361902832984924,0.14583146572113037,0.7217047214508057,0.2284809648990631,-0.4805382192134857,-0.0066239964216947556,-0.039795950055122375,0.2200603485107422,0.176663146225198,0.039209135786020206,-0.0747367425501564,-0.028978843746807866,0.30091966485586835,0.16038051646723742,0.7138413750060689,0.1662558134545264,-0.5285285151002841,-0.23800645677770849,-0.024305851575785815,0.15341111217062364,0.49901390075683594,-0.10826132446527481,-0.14095252752304077,-0.4333932101726532,0.6672380566596985,0.29166293144226074,0.9434094429016113,-0.043038081377744675,-0.6210764646530151,0.3267520070075989,-0.1591838002204895,0.8802413940429688
1.48,0.1695251315832138,0.02103571407496929,-0.08134115487337112,-0.21058689057826996,0.3506000339984894,0.1400424838066101,0.72194504737854,0.2441512495279312,-0.43096259236335754,0.011657746508717537,-0.04128776490688324,0.21250754594802856,0.1856129683105136,0.04327264661413933,-0.07671151652358454,-0.032632982165280364,0.3238593409644659,0.16126073748871098,0.7107169571375368,0.17604349538471029,-0.5023346769387522,-0.25274313157796335,-0.02592099128917185,0.15276423073257975,0.4990502595901489,-0.11792857199907303,-0.16268230974674225,-0.4211737811565399,0.7012000679969788,0.2800849676132202,0.9438901543617249,-0.011697513051331043,-0.5219252109527588,0.36331549286842346,-0.16515105962753296,0.8500301837921143
1.5,0.167532280087471,0.0172432828694582,-0.09648718684911728,-0.19738712906837463,0.36257505416870117,0.1340974122285843,0.7240824699401855,0.2732239067554474,-0.3622213304042816,0.053714483976364136,-0.042174965143203735,0.19884322583675385,0.1926451126050558,0.04623420133549399,-0.07969368747461443,-0.03537960116018886,0.34117163727518296,0.1615937149592837,0.7089232361118706,0.19023957968088342,-0.4592431450285958,-0.2705289686117334,-0.027436189609072514,0.15177962975019865,0.49506455659866333,-0.12551343441009521,-0.19297437369823456,-0.39477425813674927,0.7251501083374023,0.2681948244571686,0.9481648802757263,0.046447791159152985,-0.38444265723228455,0.44742897152900696,-0.16869986057281494,0.7953729033470154
1.52,0.16239683330059052,0.011976340785622597,-0.11529915034770966,-0.17260810732841492,0.36687350273132324,0.1285034865140915,0.7276027202606201,0.3201311528682709,-0.2582046687602997,0.11774925887584686,-0.043629053980112076,0.1714855432510376,0.19670702337632767,0.047566643154529055,-0.08397279677221661,-0.03665577224319466,0.3523880583070282,0.16193300647718353,0.7085595511111357,0.2119851112780407,-0.39489015557254464,-0.2928423622587122,-0.028828700518524594,0.1503975826716127,0.48479366302490234,-0.13604731857776642,-0.2305983006954193,-0.34521621465682983,0.7337470054626465,0.257006973028183,0.955205500125885,0.14026230573654175,-0.17640934884548187,0.5754985213279724,-0.1745162159204483,0.6859421730041504
1.54,0.15452979505062103,0.000746639387216419,-0.13817432522773743,-0.12773659825325012,0.3588896095752716,0.12363022565841675,0.733048677444458,0.3934623599052429,-0.11339928209781647,0.1919603794813156,-0.0475294329226017,0.11561604589223862,0.19711357758344616,0.04577222658597947,-0.08997013593236157,-0.035281827343944916,0.35541885499094966,0.16175108595738266,0.7086215143456942,0.24607645666932576,-0.30111135709497955,-0.3219785544640778,-0.030807429462953156,0.14861227323472406,0.4690595865249634,-0.15850672125816345,-0.27634865045547485,-0.25547319650650024,0.7177792191505432,0.2472604513168335,0.966097354888916,0.2869247496128082,0.11320143193006516,0.7239207625389099,-0.1901177316904068,0.46246418356895447
1.56,0.14410710334777832,-0.020977376028895378,-0.15532448887825012,-0.05929544195532799,0.32947835326194763,0.11777480691671371,0.7391629815101624,0.4887523055076599,0.044857025146484375,0.24802468717098236,-0.058951299637556076,0.018740301951766014,0.1943677819151965,0.03604279539439207,-0.09420706320273198,-0.026903670352996713,0.3500840705267925,0.15667418727277932,0.7111118739694996,0.2995400222900805,-0.19288671110687144,-0.35745783348027926,-0.03784158655054536,0.14397948907201225,0.44821420311927795,-0.20195475220680237,-0.31064897775650024,-0.11859088391065598,0.6589567065238953,0.23554961383342743,0.9783259630203247,0.47750458121299744,0.42971405386924744,0.8360493779182434,-0.2358051985502243,0.07496120780706406
1.58,0.13185960054397583,-0.016738688573241234,-0.10769117623567581,0.006018930114805698,0.2882295548915863,0.09933379292488098,0.7375214695930481,0.5831189155578613,0.12770409882068634,0.27604883909225464,-0.08633964508771896,-0.08974339812994003,0.17920366999043297,0.01989568022563688,-0.091657869241521,-0.017346013577474142,0.3341896997150559,0.13853501187746065,0.7219374486385053,0.3750690041331442,-0.20635200671977283,-0.39057246460229067,-0.05879281456386649,0.12090067995383513,0.423719197511673,-0.19347737729549408,-0.21538235247135162,0.012037860229611397,0.5764591097831726,0.19866758584976196,0.9750429391860962,0.6662377715110779,0.5954082012176514,0.8920976519584656,-0.34535858035087585,-0.35897359251976013
1.6,0.15061040222644806,-0.04534420371055603,-0.08751882612705231,0.09783729910850525,0.24577872455120087,0.07712806016206741,0.7357302308082581,0.6431041955947876,0.22512318193912506,0.23684053122997284,-0.12368075549602509,-0.1459438055753708,0.16355255173644367,-0.006837080843717267,-0.08076581196441739,0.0013299963479064692,0.29901632195877104,0.11242243440886458,0.7275343761646381,0.4652054989845889,-0.21348778280432681,-0.40184285542542025,-0.07268505940560896,0.0794520414588379,0.46122080087661743,-0.2506884038448334,-0.17503765225410461,0.1956745982170105,0.49155744910240173,0.15425612032413483,0.9714604616165161,0.78620845079422,0.7902463674545288,0.8136810660362244,-0.49472302198410034,-0.5837752223014832
