time,cmd_L_hip_pitch,cmd_R_hip_pitch,cmd_L_hip_roll,cmd_R_hip_roll,cmd_L_hip_yaw,cmd_R_hip_yaw,cmd_L_knee,cmd_R_knee,cmd_L_foot_pitch,cmd_R_foot_pitch,cmd_L_foot_roll,cmd_R_foot_roll,pos_L_hip_pitch,pos_R_hip_pitch,pos_L_hip_roll,pos_R_hip_roll,pos_L_hip_yaw,pos_R_hip_yaw,pos_L_knee,pos_R_knee,pos_L_foot_pitch,pos_R_foot_pitch,pos_L_foot_roll,pos_R_foot_roll,act_R_hip_yaw,act_R_hip_roll,act_R_hip_pitch,act_R_knee,act_R_foot_pitch,act_R_foot_roll,act_L_hip_yaw,act_L_hip_roll,act_L_hip_pitch,act_L_knee,act_L_foot_pitch,act_L_foot_roll
0.0,0.031182346865534782,-0.03792618215084076,0.007838067598640919,-0.09611929953098297,0.028227072209119797,-0.010024037212133408,0.3560609817504883,0.30921846628189087,-0.4109342396259308,-0.4424190819263458,-0.21719712018966675,0.20064395666122437,-0.046562794113751194,0.048829527812352856,-0.00518944323545138,-0.007819881334898167,0.013433513084051519,-0.0060813103019908285,0.2812432734657086,0.2720228955375132,-0.3242521166663087,-0.3302520881978006,-0.044326650933946346,0.039990916205827495,-0.020048074424266815,-0.19223859906196594,-0.23585236072540283,0.11843691021203995,-0.5448381900787354,0.8025758266448975,0.056454144418239594,0.015676135197281837,0.22236469388008118,0.21212196350097656,-0.4818684756755829,-0.868788480758667
0.02,0.06675159931182861,-0.060577452182769775,-0.08343905210494995,-0.1267661303281784,0.07808911055326462,-0.012465352192521095,0.44653961062431335,0.3525250554084778,-0.1383487433195114,0.00867609865963459,-0.2312462478876114,0.24824588000774384,-0.008849477794523095,0.015766433996365698,-0.020593577830121425,-0.02876958916573389,0.046480943610798374,-0.007984775493659238,0.3241763677626608,0.28818394668126307,-0.3272801278401183,-0.33581179464304456,-0.1091869248403083,0.09619369173414934,-0.02493070438504219,-0.2535322606563568,-0.28115490078926086,0.20505012571811676,0.35735219717025757,0.9929835200309753,0.15617822110652924,-0.1668781042098999,0.29350319504737854,0.3930792212486267,0.06330250203609467,-0.9249849915504456
0.04,0.11492744088172913,-0.06403863430023193,-0.16019928455352783,-0.14599721133708954,0.10047227889299393,-0.00819160882383585,0.5324118137359619,0.41918426752090454,-0.29966044425964355,0.2936408221721649,-0.2054421603679657,0.24916918575763702,0.02731766119712699,-0.014875147904486557,-0.036456793869426414,-0.04691287462244602,0.07581111576582138,-0.004343279419642199,0.3753582297859314,0.3037075223279237,-0.36390342604288395,-0.3808204868960078,-0.14182035219030975,0.05751897317842755,-0.0163832176476717,-0.2919944226741791,-0.2880772650241852,0.3383685052394867,0.9272816181182861,0.9966767430305481,0.20094455778598785,-0.32039856910705566,0.38985487818717957,0.564823567867279,-0.2593209147453308,-0.8217686414718628
0.06,0.15787743031978607,-0.0578514039516449,-0.21384577453136444,-0.13458307087421417,0.0984082892537117,-0.018144039437174797,0.4649924039840698,0.47539955377578735,-0.47438493371009827,0.31436023116111755,-0.2161898910999298,0.24931064248085022,0.05392320162787416,-0.04332543408692595,-0.049168867794066054,-0.057324186621168435,0.08555021215836428,-0.00806583294971887,0.4121865016740377,0.336792143001004,-0.4053686386396725,-0.4008972268321989,-0.1684977271162244,-0.0226620058063526,-0.036288078874349594,-0.26916614174842834,-0.2757028043270111,0.4507991373538971,0.9687204360961914,0.9972425699234009,0.1968165785074234,-0.4276915490627289,0.47575485706329346,0.42998477816581726,-0.6087698936462402,-0.8647595643997192
0.08,0.14248959720134735,-0.08552338182926178,-0.18112456798553467,-0.08066549897193909,0.07652854919433594,-0.03697056323289871,0.3348762094974518,0.597152590751648,-0.490384042263031,0.32623520493507385,-0.24290412664413452,0.2489205151796341,0.06572369347727675,-0.07350766358741007,-0.05914139343024734,-0.05177367660155003,0.07703158756206459,-0.012716015104542813,0.4050328156884286,0.3914421302730962,-0.4314681833894651,-0.4315316165230686,-0.19504277217710211,-0.01884648545747918,-0.07394112646579742,-0.16133099794387817,-0.3310467600822449,0.6943052411079407,0.992470383644104,0.9956820607185364,0.15305709838867188,-0.36224913597106934,0.444979190826416,0.16975243389606476,-0.6407681107521057,-0.9716165065765381
0.1,0.10573321580886841,-0.1809842437505722,-0.03913411870598793,0.012430824339389801,0.026843413710594177,-0.036288850009441376,0.37630367279052734,0.7352122068405151,-0.22530518472194672,0.3212301731109619,-0.24881188571453094,0.21315443515777588,0.07531792944265532,-0.11137749436995711,-0.06093019575537004,-0.04600755903488833,0.06236965900169749,-0.025034995614905266,0.40685766780531313,0.47089964233821585,-0.44720603915955115,-0.4616277434018779,-0.18242840901218146,-0.009438763339469568,-0.07257770001888275,0.024861648678779602,-0.5219684839248657,0.9704243540763855,0.9824603199958801,0.8526177406311035,0.053686827421188354,-0.07826823741197586,0.37146642804145813,0.2526073157787323,-0.11061038076877594,-0.9952475428581238
0.12,0.054927289485931396,-0.2489367574453354,0.04761604592204094,0.0004975718911737204,0.009704046882689,-0.013649468310177326,0.35385555028915405,0.736016035079956,-0.10099349170923233,-0.42428454756736755,-0.24931663274765015,0.161943718791008,0.07454219909387032,-0.14776613381955261,-0.05668495102829998,-0.04383794590145361,0.06233090083998027,-0.024468156915023843,0.40482466116138266,0.5544515350867983,-0.44732636993661906,-0.4911185212576894,-0.12367888244470598,0.03285891389182795,-0.027298936620354652,0.0009951437823474407,-0.6578735113143921,0.9720321297645569,-0.5085691213607788,0.647774875164032,0.019408093765378,0.09523209184408188,0.2698545753955841,0.2077111154794693,0.13801302015781403,-0.9972665309906006
0.14,-0.015668505802750587,-0.2936115860939026,0.13607262074947357,0.0007089147693477571,0.00674100499600172,0.031082073226571083,0.33285900950431824,0.7453125715255737,-0.044438302516937256,-0.6319312453269958,-0.24936184287071228,0.1295551061630249,0.06433152945811492,-0.17543766613260692,-0.05100724997320892,-0.03641459635867061,0.059138600800023505,0.00270079147076264,0.3883073782111153,0.6206607998411086,-0.44132402903096457,-0.5284011757669484,-0.04446862126310155,0.07232438226579355,0.062164146453142166,0.0014178295386955142,-0.7472231984138489,0.9906251430511475,-0.9238625168800354,0.5182204246520996,0.01348200999200344,0.27214524149894714,0.12866298854351044,0.16571801900863647,0.2511233985424042,-0.9974473714828491
0.16,-0.07214614748954773,-0.30923664569854736,0.17588262259960175,-0.014181041158735752,0.01156787108629942,0.060766253620386124,0.31932908296585083,0.7484334707260132,-0.02372102253139019,-0.6317781805992126,-0.24960733950138092,0.08967579156160355,0.046673134598853604,-0.19276943211267988,-0.058329237773780976,-0.03384750423890106,0.05671912682861543,0.03783947725480144,0.37185206754544164,0.6666240347468311,-0.4349456607062862,-0.5614722049864042,-0.04306159813830941,0.08766348087187123,0.12153250724077225,-0.028362082317471504,-0.7784733176231384,0.9968670010566711,-0.9235563278198242,0.3587031662464142,0.02313574217259884,0.3517652451992035,0.015707701444625854,0.13865813612937927,0.292557954788208,-0.9984293580055237
0.18,-0.10556142032146454,-0.3239171504974365,0.22163620591163635,-0.04175799712538719,0.020110053941607475,0.06198690086603165,0.312528133392334,0.7489397525787354,-0.05160396546125412,-0.6176831722259521,-0.2493242770433426,0.06836391240358353,0.02546745688218527,-0.20717143176894876,-0.05988131168021483,-0.0269865750430252,0.05504505229913969,0.05525825338592339,0.3520721617425371,0.696582640420673,-0.4283623465785528,-0.5809724429130152,-0.04252009074436783,0.08615553004867507,0.1239738017320633,-0.08351599425077438,-0.8078343272209167,0.9978795647621155,-0.895366370677948,0.2734556496143341,0.04022010788321495,0.4432724118232727,-0.05112284794449806,0.12505629658699036,0.23679207265377045,-0.9972971081733704
0.2,-0.11332054436206818,-0.3196348547935486,0.22111324965953827,-0.05031467229127884,0.02426638826727867,0.0527297779917717,0.3047102689743042,0.7490193843841553,-0.030047697946429253,-0.6130114793777466,-0.24935345351696014,0.0616561584174633,0.0037993145920905236,-0.22030863382099283,-0.05667913226449313,-0.019554626364418667,0.053007482502831126,0.0535096642449594,0.3335551992724901,0.7152180516530326,-0.42370685655970947,-0.5904085737887698,-0.0405683725316307,0.07865736939711361,0.1054595559835434,-0.10062934458255768,-0.7992697358131409,0.9980387091636658,-0.8860229849815369,0.2466246336698532,0.04853277653455734,0.44222649931907654,-0.06664108484983444,0.1094205379486084,0.2799046039581299,-0.9974138140678406
0.22,-0.11215797066688538,-0.31308040022850037,0.2177959680557251,-0.04214667156338692,0.027316706255078316,0.048804908990859985,0.3059570789337158,0.7490560412406921,0.004732685163617134,-0.6092099547386169,-0.24938984215259552,0.06648164987564087,-0.01622146261591381,-0.2327020653289764,-0.05061545330051377,-0.012056011992751055,0.049668658649941334,0.04642676787069092,0.31910893335313606,0.7260141437518948,-0.42225795684743167,-0.594568413400181,-0.03686582527283768,0.07263806272015172,0.09760981798171997,-0.08429334312677383,-0.7861608266830444,0.9981120824813843,-0.8784198760986328,0.2659265995025635,0.05463341251015663,0.4355919361114502,-0.06431593745946884,0.11191414296627045,0.34946537017822266,-0.9975593686103821
0.24,-0.1124161034822464,-0.311920702457428,0.2184259295463562,-0.02543911710381508,0.030598321929574013,0.049643196165561676,0.31979861855506897,0.7489719390869141,0.04448942840099335,-0.6029702425003052,-0.24936065077781677,0.07694581151008606,-0.033495127936608075,-0.24433207988668457,-0.04233137046306918,-0.0036637427913206247,0.04495360464931303,0.043013394330009794,0.31111961852739073,0.7319000801744167,-0.4251355798259871,-0.595518733013518,-0.03203963292065748,0.07118831522310487,0.09928639233112335,-0.05087823420763016,-0.7838414311408997,0.9979439377784729,-0.865940511226654,0.30778324604034424,0.061196643859148026,0.4368518590927124,-0.06483220309019089,0.13959725201129913,0.4289788603782654,-0.9974426031112671
0.26,-0.11629540473222733,-0.3162420690059662,0.22736698389053345,-0.0025915419682860374,0.034422460943460464,0.048098597675561905,0.3491550087928772,0.7484890222549438,0.09358976781368256,-0.5925983190536499,-0.24921126663684845,0.09470786899328232,-0.04772290552631025,-0.2549253785785007,-0.031617253737737626,0.006055766569267722,0.03940311544588774,0.04272670058929749,0.31167270316829193,0.7349295534858604,-0.43360547752053963,-0.5931607384312069,-0.025804465362998966,0.0758520880801212,0.09619719535112381,-0.005183083936572075,-0.7924841642379761,0.9969779849052429,-0.8451966047286987,0.3788314759731293,0.06884492188692093,0.4547339677810669,-0.07259080559015274,0.19831004738807678,0.5271795392036438,-0.9968450665473938
0.28,-0.12208141386508942,-0.3220597803592682,0.231214240193367,0.028274361044168472,0.037843652069568634,0.03705791011452675,0.3997889459133148,0.7462164163589478,0.1595977395772934,-0.5760324001312256,-0.24862776696681976,0.12860234081745148,-0.05894127335180928,-0.26390953898514163,-0.017819927057925018,0.01747720059580807,0.03389271784321452,0.039890957531451374,0.32331655605976367,0.7362366388279875,-0.449193626051909,-0.5865270109289539,-0.018029773742268725,0.0894030105123304,0.0741158202290535,0.056548722088336945,-0.8041195869445801,0.9924328923225403,-0.8120647668838501,0.5144093632698059,0.07568730413913727,0.462428480386734,-0.08416283130645752,0.29957789182662964,0.6591954827308655,-0.994511067867279
0.3,-0.13198746740818024,-0.32462266087532043,0.1988062560558319,0.05343993008136749,0.03996843472123146,0.012562830001115799,0.4696013927459717,0.7323676347732544,0.2460099309682846,-0.552122950553894,-0.24695822596549988,0.17562514543533325,-0.06833158785597157,-0.2699664315391298,-0.0022369678996039762,0.028877332558058893,0.029240496639017323,0.027868095869288248,0.34762878827542515,0.7349488380664188,-0.4727882727570816,-0.5746952212132398,-0.008882671588495405,0.11390002761825897,0.025125660002231598,0.10687986016273499,-0.8092453479766846,0.964735209941864,-0.764245867729187,0.702500581741333,0.07993686944246292,0.3976125121116638,-0.10397492349147797,0.43920281529426575,0.8320198655128479,-0.9878329038619995
0.32,-0.13174225389957428,-0.31501561403274536,0.11948655545711517,0.0630638524889946,0.03896941617131233,-0.0239651408046484,0.5443474054336548,0.6370813846588135,0.31161394715309143,-0.5145029425621033,-0.24300652742385864,0.20818091928958893,-0.0732669604355433,-0.2685007911023343,0.013553299096380048,0.03834720418378243,0.026939586395845146,0.0037620616617862076,0.3850479110037099,0.7284416203477386,-0.503702338416229,-0.5261868949379486,-0.0010606999377963382,0.12910891866740026,-0.0479302816092968,0.1261277049779892,-0.7900312542915344,0.774162769317627,-0.6890058517456055,0.8327236771583557,0.07793883234262466,0.23897311091423035,-0.10348451137542725,0.5886948704719543,0.9632278680801392,-0.9720261096954346
0.34,-0.12299658358097076,-0.2968241572380066,0.01883460022509098,0.05226695165038109,0.03207075595855713,-0.02797985076904297,0.6242126822471619,0.4777076840400696,0.32723677158355713,-0.4516465663909912,-0.23140475153923035,0.22079667448997498,-0.06571505199817582,-0.25165950834928,0.02724330243322259,0.045212923016095155,0.02531646220315174,-0.014127347756658833,0.43329886592057876,0.7152380833806409,-0.5324684392008564,-0.5040497618765793,-0.0032935224887324414,0.10667323053957796,-0.05595970153808594,0.10453390330076218,-0.7536483407020569,0.4554153382778168,-0.5632931590080261,0.8831866979598999,0.06414151191711426,0.03766920045018196,-0.08599317073822021,0.7484253644943237,0.9944735169410706,-0.9256190061569214
0.36,-0.061300892382860184,-0.25593408942222595,-0.010995998978614807,0.05446862429380417,0.046900779008865356,-0.01573880761861801,0.7081385850906372,0.5048460364341736,0.32866841554641724,-0.07818549871444702,-0.1777530163526535,0.21184371411800385,-0.04329279803291109,-0.231126434784219,0.036533824625392966,0.047122309042656574,0.0390618902624599,-0.0336970663737845,0.4891234303126707,0.6862445605491048,-0.5493251370470024,-0.50711813481598,-0.01461791594340818,0.06322550528500555,-0.03147761523723602,0.10893724858760834,-0.6718682050704956,0.5096920728683472,0.18362900614738464,0.8473748564720154,0.09380155801773071,-0.021991997957229614,0.037398211658000946,0.9162771105766296,0.9973368048667908,-0.711012065410614
0.38,0.04491521418094635,-0.16485141217708588,-0.0011537050595507026,0.007934357970952988,0.030483979731798172,0.012723607011139393,0.7353856563568115,0.5526952743530273,0.3222048282623291,0.2555508613586426,-0.10971047729253769,0.16326402127742767,-0.017154390963267534,-0.2129983745975828,0.041181936161755944,0.04864776883142704,0.048073209416520504,-0.03749971813112958,0.5504912113093543,0.6552721220259656,-0.5496448128671824,-0.5049398329095213,-0.025306648484907237,0.04253030943462498,0.025447214022278786,0.015868715941905975,-0.48970282077789307,0.6053904891014099,0.8511016964912415,0.6530560851097107,0.060967959463596344,-0.002307410119101405,0.249830424785614,0.970771312713623,0.9844096302986145,-0.43884190917015076
0.4,0.12218451499938965,-0.06835246086120605,0.014086083509027958,-0.03161783516407013,0.010121896862983704,0.026177342981100082,0.7423865795135498,0.5706607103347778,-0.02989533357322216,0.3168599009513855,-0.009349293075501919,0.028518376871943474,0.005091669602330266,-0.1904931542609843,0.042620317402836734,0.048665028317011624,0.03702212139280291,-0.037547862489686695,0.6127594743432849,0.6261241126491787,-0.533953891888362,-0.5025810372444357,-0.023783062006787085,0.048925269582177015,0.052354685962200165,-0.06323567032814026,-0.2967049181461334,0.6413214206695557,0.9737197756767273,0.1140735074877739,0.020243793725967407,0.028172167018055916,0.4043690264225006,0.9847731590270996,0.28020933270454407,-0.037397172302007675
0.42,0.16216111183166504,0.023835184052586555,-0.010409786365926266,-0.04842502251267433,0.004070598632097244,0.018747953698039055,0.7459462285041809,0.559158205986023,-0.6095964312553406,0.32751497626304626,0.037302326411008835,-0.0711803138256073,0.01919846166127833,-0.1604909259177953,0.04013990450568629,0.04822167647693938,0.014968450012445771,-0.03709368335047761,0.6653932767742964,0.5961530566540268,-0.5362203461498509,-0.4985225378718963,-0.008305853112769363,0.0557604096291495,0.03749590739607811,-0.09685004502534866,-0.1123296320438385,0.6183163523674011,0.9950299263000488,-0.2847212553024292,0.008141197264194489,-0.02081957273185253,0.4843222200870514,0.9918924570083618,-0.8791928887367249,0.14920930564403534
0.44,0.17884056270122528,0.0860946998000145,-0.049702100455760956,-0.10508089512586594,0.004251071717590094,0.02705051563680172,0.7474638223648071,0.5405305624008179,-0.6433451771736145,0.3290678858757019,0.050124045461416245,-0.07580285519361496,0.028265727126796137,-0.12602766425350437,0.031146614308687343,0.04514929793448948,-0.00019450834626665733,-0.035944469472118795,0.701877191907613,0.5691383712842936,-0.5595809723709426,-0.49519949645444816,0.009595892715275335,0.060558167003587154,0.05410103127360344,-0.21016179025173187,0.01218939945101738,0.581061065196991,0.9981357455253601,-0.30321142077445984,0.008502143435180187,-0.09940420091152191,0.5176811218261719,0.994927704334259,-0.9466903805732727,0.20049618184566498
0.46,0.19161610305309296,0.10591071099042892,-0.044467050582170486,-0.1290206015110016,0.0064992839470505714,0.03169132024049759,0.7476451396942139,0.5240292549133301,-0.6434558033943176,0.3286319971084595,0.05137243494391441,-0.060729291290044785,0.04027728925005647,-0.09297946439663433,0.016807547462353543,0.03855958811830845,-0.002894978460662754,-0.033318691736262694,0.7254286559150613,0.544709496922626,-0.5838686299708017,-0.49254805036869626,0.023928010912906677,0.06326397903435331,0.06338264048099518,-0.2580412030220032,0.05182141810655594,0.5480584502220154,0.9972639679908752,-0.24291716516017914,0.012998567894101143,-0.08893410116434097,0.5432322025299072,0.995290219783783,-0.946911633014679,0.20548973977565765
0.48,0.19591380655765533,0.1001087948679924,-0.02964569814503193,-0.14504165947437286,0.0019916060846298933,0.03451014310121536,0.7478545904159546,0.5017046332359314,-0.6409012675285339,0.32723209261894226,0.047139301896095276,-0.003836767515167594,0.0577876508708838,-0.06365160858689578,0.0014518090250966143,0.03194146355060085,-0.0002509892749901314,-0.02933259452247345,0.738950430396952,0.5215056101122508,-0.6014111008818347,-0.48973303176801863,0.03321941848781309,0.06462768807304382,0.06902028620243073,-0.2900833189487457,0.04021758958697319,0.5034092664718628,0.9944641590118408,-0.015347070060670376,0.003983212169259787,-0.05929139629006386,0.551827609539032,0.9957091212272644,-0.9418025612831116,0.1885572075843811
0.5,0.20542491972446442,0.09276631474494934,-0.005202602595090866,-0.17106419801712036,-0.01981973648071289,0.034540168941020966,0.7484076619148254,0.47066593170166016,-0.6407244205474854,0.3227059543132782,0.03752995654940605,0.10290801525115967,0.08067047340977386,-0.03769421702989517,-0.012243921778580477,0.02795911025149716,-0.0047068400332436235,-0.024357862971578298,0.745609379144199,0.4980887662831108,-0.61284876121285,-0.48630763563081825,0.03724817159981322,0.06483532899280739,0.06908033788204193,-0.3421283960342407,0.025532623752951622,0.4413318336009979,0.9854118824005127,0.41163206100463867,-0.03963947296142578,-0.010405205190181732,0.5708498358726501,0.9968153238296509,-0.9414488673210144,0.1501198261976242
0.52,0.2195323258638382,0.08879906684160233,0.019344337284564972,-0.21840980648994446,-0.048911646008491516,0.029700586572289467,0.7491052150726318,0.4302184581756592,-0.6420660018920898,0.3083718419075012,0.023740820586681366,0.21043293178081512,0.10778778672998061,-0.013938516073007352,-0.022922505770088728,0.026781483064685536,-0.02053556242838959,-0.018864424189032118,0.7474881918030568,0.4732779391756646,-0.6202288544498227,-0.48198560239873545,0.036077380257757,0.06404949186752973,0.059401173144578934,-0.4368196129798889,0.017598140984773636,0.36043691635131836,0.9567436575889587,0.8417317271232605,-0.09782329201698303,0.038688674569129944,0.5990646481513977,0.9982104897499084,-0.9441319704055786,0.09496328234672546
0.54,0.23202376067638397,0.08416834473609924,0.029762068763375282,-0.274644672870636,-0.06521688401699066,0.017790688201785088,0.7495365738868713,0.390156626701355,-0.6392038464546204,0.27869221568107605,0.004980349913239479,0.24751631915569305,0.13733222676664525,0.008121553168121697,-0.03085912865006706,0.025474302265767433,-0.03903473311099925,-0.012653388639987266,0.7455273690541575,0.44764726544591193,-0.6241530256846376,-0.4774682147993694,0.0291919107642973,0.06222671414478852,0.035581376403570175,-0.549289345741272,0.008336695842444897,0.28031328320503235,0.8973844051361084,0.9900652766227722,-0.13043376803398132,0.059524137526750565,0.6240475177764893,0.9990731477737427,-0.9384076595306396,0.019921399652957916
0.56,0.24184386432170868,0.07881641387939453,0.04200196638703346,-0.3077187240123749,-0.06953588873147964,0.004942965228110552,0.7496951818466187,0.3600539267063141,-0.6336496472358704,0.24416957795619965,-0.02090970240533352,0.24949443340301514,0.1677202295795656,0.0287253642717962,-0.03621898325466987,0.021437494161819826,-0.0504884200978912,-0.005769516223536677,0.7412609689091225,0.4222742450477246,-0.6252265654855961,-0.47374294338956224,0.016151332687590513,0.05921511477404173,0.009885930456221104,-0.6154374480247498,-0.002367168664932251,0.22010786831378937,0.828339159488678,0.9979777336120605,-0.1390717774629593,0.08400393277406693,0.6436877250671387,0.9993904232978821,-0.9272992610931396,-0.08363880962133408
0.58,0.25294721126556396,0.07778055965900421,0.04742177203297615,-0.31442421674728394,-0.06941728293895721,-0.005132888909429312,0.7497459650039673,0.343583345413208,-0.6276169419288635,0.22301675379276276,-0.05099000781774521,0.24970297515392303,0.19757505173300904,0.048013827325370156,-0.039046657266408095,0.014102688086034059,-0.05440874464055209,0.0014313789521451631,0.7365263864683894,0.3986062614192024,-0.6242862643678472,-0.47190850162943004,-0.0026328147962070324,0.05502560586917095,-0.010265777818858624,-0.6288484334945679,-0.004438876174390316,0.1871667057275772,0.7860335111618042,0.9988119006156921,-0.13883456587791443,0.0948435440659523,0.6658944487571716,0.9994918704032898,-0.9152339100837708,-0.20396003127098083
0.6,0.2665119171142578,0.08238844573497772,0.04479512572288513,-0.30884334444999695,-0.06810594350099564,-0.012076284736394882,0.7497496604919434,0.3398382067680359,-0.6229883432388306,0.2255440503358841,-0.08207949250936508,0.2497592270374298,0.22568065816898664,0.06594815817983887,-0.03972582598147772,0.003892164143224695,-0.054995524354645865,0.008576296840505176,0.7325405075340008,0.37844484986491905,-0.6221971951193618,-0.4731451419287817,-0.02598530873362868,0.049692098935169834,-0.024152569472789764,-0.6176866888999939,0.004776898771524429,0.17967644333839417,0.7910881042480469,0.9990369081497192,-0.13621188700199127,0.08959025144577026,0.6930238604545593,0.9994992613792419,-0.9059766530990601,-0.3283179700374603
0.62,0.282173752784729,0.09298701584339142,0.03772921860218048,-0.30165067315101624,-0.06525827944278717,-0.01664908602833748,0.749709963798523,0.34756529331207275,-0.6203953623771667,0.24723170697689056,-0.11151991784572601,0.24976018071174622,0.2510403378903109,0.08259297073772376,-0.038674089574395366,-0.008657939134969489,-0.0546932318912646,0.015215077614175624,0.7298160639103312,0.36343962335698876,-0.6198230739025339,-0.4785069014294468,-0.05220205094549654,0.043227186620265215,-0.03329817205667496,-0.6033013463020325,0.025974033400416374,0.1951305866241455,0.8344634175300598,0.9990407228469849,-0.13051655888557434,0.07545843720436096,0.7243475317955017,0.9994199275970459,-0.9007906913757324,-0.44607967138290405
0.64,0.29719945788383484,0.10885494202375412,0.025167115032672882,-0.2966744899749756,-0.057512931525707245,-0.020003046840429306,0.7495851516723633,0.367116242647171,-0.619238018989563,0.2762257754802704,-0.13532528281211853,0.2497185617685318,0.27270834770300845,0.09834109658969212,-0.036529467147092834,-0.023382999613979903,-0.052583352784091986,0.02064815453907335,0.7283644045413181,0.3551729335779735,-0.617716868989823,-0.4890447775416083,-0.07892381689905535,0.035611540881702416,-0.04000609368085861,-0.5933489799499512,0.05770988389849663,0.23423248529434204,0.8924515247344971,0.9988742470741272,-0.11502586305141449,0.050334230065345764,0.7543989419937134,0.9991702437400818,-0.8984760642051697,-0.5413011312484741
0.66,0.30772802233695984,0.12840265035629272,9.521375613985583e-05,-0.29044654965400696,-0.03823317959904671,-0.02256789430975914,0.7491768002510071,0.40213650465011597,-0.6170555949211121,0.30340147018432617,-0.15090160071849823,0.2496172934770584,0.28960613954643394,0.11372322779092738,-0.034604732009544246,-0.04076283810428764,-0.04475800592732027,0.023982111274208205,0.7278810109813796,0.35588561524549334,-0.6157054998040353,-0.5062223213311109,-0.10351623551920512,0.026697327798866976,-0.04513578861951828,-0.5808930993080139,0.09680530428886414,0.30427297949790955,0.9468029141426086,0.9984691739082336,-0.07646635919809341,0.00019042751227971166,0.7754560708999634,0.9983536005020142,-0.8941112160682678,-0.6036064028739929
0.68,0.31379789113998413,0.15263064205646515,-0.06081809103488922,-0.2732984721660614,0.0035814233124256134,-0.02320302464067936,0.7472118735313416,0.4593968987464905,-0.6041829586029053,0.32291650772094727,-0.15755990147590637,0.24931591749191284,0.3008048463064318,0.12919324114889438,-0.036099596596772476,-0.06239498137373706,-0.024988935814719077,0.023715250044352886,0.7288952829170176,0.3690650236075126,-0.6098292354646916,-0.532340248425871,-0.12291058031647224,0.01614070881042048,-0.04640604928135872,-0.5465969443321228,0.14526128768920898,0.41879382729530334,0.9858329892158508,0.9972636699676514,0.007162846624851227,-0.12163618206977844,0.787595808506012,0.9944237470626831,-0.8683659434318542,-0.6302396059036255
0.7000000000000001,0.33825263381004333,0.21076522767543793,-0.14808271825313568,-0.26825186610221863,0.07390307635068893,-0.02393975853919983,0.729693591594696,0.5361862182617188,-0.5874589681625366,0.3288770914077759,-0.16294117271900177,0.24850016832351685,0.30304040250387626,0.14557194225697986,-0.04941648804203145,-0.0946349975348227,0.014967479340463672,0.01825128306309889,0.7404352480225563,0.3956915720841449,-0.5730578689612705,-0.5686144652999235,-0.12374767048367177,0.003476076075930354,-0.04787951707839966,-0.5365037322044373,0.26153045892715454,0.5723724961280823,0.9977541565895081,0.9940006732940674,0.14780615270137787,-0.29616543650627136,0.8365052938461304,0.9593871831893921,-0.8349179625511169,-0.6517646908760071
0.72,0.32820606231689453,0.21228939294815063,-0.18866834044456482,-0.19749106466770172,0.12411166727542877,-0.004287674091756344,0.5787875652313232,0.618079423904419,-0.46726125478744507,0.32994794845581055,-0.1861245036125183,0.24443605542182922,0.2971806214634265,0.15371484102596378,-0.06869546415803654,-0.12909169148561417,0.06361410408893804,0.006727224383837592,0.7178569797949441,0.43760599903618597,-0.5195841314251404,-0.611922422649698,-0.1327853639733797,-0.0007776079186649866,-0.008575348183512688,-0.39498212933540344,0.26457878947257996,0.7361587882041931,0.9998958706855774,0.9777442216873169,0.24822333455085754,-0.37733668088912964,0.8164121508598328,0.6575750708580017,-0.5945225358009338,-0.7444980144500732
0.74,0.29771438241004944,0.1611471176147461,-0.20679371058940887,-0.15412890911102295,0.10281537473201752,0.0004708874912466854,0.2736589312553406,0.7023836374282837,-0.05626073479652405,0.329995721578598,-0.21577666699886322,0.2392130345106125,0.27597378309805215,0.1391901690762665,-0.09660841148733054,-0.16528993971825537,0.07795971209465703,0.003473038337210951,0.653081661073377,0.4951485442191549,-0.4104548260957568,-0.6493052350034018,-0.11165907411709568,0.009371561989743605,0.0009417749824933708,-0.3082578182220459,0.16229422390460968,0.9047672152519226,0.9999914169311523,0.95685213804245,0.20563074946403503,-0.41358742117881775,0.7554287910461426,0.04731784388422966,0.2274785339832306,-0.8631066679954529
0.76,0.21666012704372406,-0.00048797400086186826,-0.054072305560112,-0.011770348064601421,0.04057187959551811,0.023127496242523193,0.37625226378440857,0.7483303546905518,0.32885944843292236,0.32998180389404297,-0.20482602715492249,0.22523291409015656,0.2588725829203475,0.09820987523713057,-0.105435788857099,-0.177927637717774,0.0828412469969832,0.007002857543545419,0.5930648064277579,0.5595678085552663,-0.405214644474345,-0.6530715923898497,-0.024781959733809946,0.048544762587144574,0.04625499248504639,-0.023540696129202843,-0.16097594797611237,0.9966607093811035,0.9999635815620422,0.9009316563606262,0.08114375919103622,-0.108144611120224,0.5933202505111694,0.25250452756881714,0.997718870639801,-0.8193041086196899
0.78,0.002873903140425682,-0.2096826285123825,-0.007868881337344646,0.11467159539461136,-0.012577342800796032,0.032780926674604416,0.49560433626174927,0.7488837242126465,0.3299834728240967,0.2560705840587616,0.06726889312267303,0.12851721048355103,0.24199473913366268,0.060717327735402254,-0.09010230491797233,-0.15730184370711445,0.07298759157051617,0.017247974184857358,0.5499573958784435,0.6295605616239217,-0.403581031960288,-0.6091689773952714,0.013432785061197184,0.08750310125635746,0.06556185334920883,0.22934319078922272,-0.5793652534484863,0.997767448425293,0.8521411418914795,0.5140688419342041,-0.025154685601592064,-0.015737762674689293,0.16574780642986298,0.4912087023258209,0.9999669194221497,0.26907557249069214
0.8,-0.15620946884155273,-0.31460273265838623,0.041855212301015854,0.18108120560646057,-0.03703741729259491,-0.006253248080611229,0.5612121820449829,0.7457014322280884,0.32999300956726074,-0.6145402789115906,0.2490326166152954,-0.008870881982147694,0.2127338598275993,0.03411358164980646,-0.05824514536845173,-0.11213845419705216,0.06114857993364643,0.025616639465265816,0.5210639672063048,0.6911542905209737,-0.40645071248288117,-0.575139496525511,0.00972872323641944,0.08199388665804332,-0.012506496161222458,0.36216241121292114,-0.7892054915428162,0.991402804851532,-0.8890805840492249,-0.035483527928590775,-0.07407483458518982,0.08371042460203171,-0.15241892635822296,0.6224244236946106,0.9999859929084778,0.9961304664611816
0.8200000000000001,-0.19233450293540955,-0.33517318964004517,0.13015590608119965,0.1939188838005066,-0.021388879045844078,-0.06863683462142944,0.5662103891372681,0.7420540452003479,0.32998061180114746,-0.6360395550727844,0.2491713911294937,0.022230271250009537,0.17630104560737908,0.006197390298296654,-0.014661170603778988,-0.05499316350312741,0.052760842438562834,-0.0027414269430650054,0.49735191994858335,0.7330317698354734,-0.4113846154927398,-0.575277731880638,0.009694025544293002,0.06273534372105069,-0.1372736692428589,0.3878377676010132,-0.830346405506134,0.9841080904006958,-0.9320791363716125,0.08892108500003815,-0.042777758091688156,0.2603118121623993,-0.22466900944709778,0.6324207782745361,0.9999611973762512,0.9966855645179749
0.84,-0.12749917805194855,-0.24302326142787933,0.11082272976636887,0.1401919722557068,-0.0005343627999536693,-0.12195511162281036,0.56667160987854,0.735216498374939,0.3298713266849518,-0.6296430826187134,0.24621473252773285,0.07474853843450546,0.13396272589079666,-0.020977038361006183,0.027485974913145163,-0.004098312415546686,0.03302445316324827,-0.060559893928328605,0.4817783861883724,0.7537239022011695,-0.42021415428752656,-0.5858063896231247,0.018653183482780233,0.060242515916599924,-0.24391022324562073,0.2803839445114136,-0.64604651927948,0.9704329967498779,-0.9192861318588257,0.29899415373802185,-0.0010687255999073386,0.22164545953273773,-0.09499835222959518,0.6333432197570801,0.9997426271438599,0.9848589301109314
0.86,-0.043584492057561874,-0.13340918719768524,0.09497060626745224,0.11329249292612076,0.02049502730369568,-0.14049933850765228,0.5862136483192444,0.7260658740997314,0.32962822914123535,-0.6192002892494202,0.22387343645095825,0.10178777575492859,0.09269229990609695,-0.04376159692432105,0.05405773653594046,0.03171514355312707,0.017133700735855305,-0.11133522596723967,0.483521415128434,0.7552494981187751,-0.431199251027051,-0.5955387359607486,0.03477832320620908,0.07022153884649575,-0.28099867701530457,0.22658498585224152,-0.4268183708190918,0.9521317481994629,-0.898400604724884,0.40715110301971436,0.04099005460739136,0.18994121253490448,0.07283101230859756,0.6724272966384888,0.999256432056427,0.895493745803833
0.88,-0.003295036032795906,-0.11925216019153595,0.11730414628982544,0.1671968698501587,0.026451433077454567,-0.13598011434078217,0.6323914527893066,0.6871549487113953,0.3294168710708618,-0.5801081657409668,0.19296251237392426,0.15947270393371582,0.06440076129732973,-0.06591109355110168,0.06676658186560444,0.06290937422932442,0.014665535359557872,-0.13150137406531623,0.5080416169249742,0.7379801772058081,-0.44714689693296095,-0.594076541988144,0.051493639182586454,0.09360653573751976,-0.27196022868156433,0.3343937397003174,-0.3985043168067932,0.8743098974227905,-0.8202162981033325,0.6378908157348633,0.052902866154909134,0.23460829257965088,0.1534099280834198,0.7647829055786133,0.9988337159156799,0.771850049495697
0.9,0.015567978844046593,-0.16430580615997314,0.08984962105751038,0.2008117288351059,0.029218235984444618,-0.12577947974205017,0.6782656908035278,0.5239107608795166,0.3293686807155609,-0.437309592962265,0.17965032160282135,0.21889546513557434,0.05397131047429567,-0.0898569888310876,0.06952329522211388,0.09383252874625031,0.01789530137750634,-0.1290965147324053,0.5461619870656187,0.6832046362206609,-0.46653010511994647,-0.5568651955754986,0.06166720438023428,0.1308282279737869,-0.25155895948410034,0.4016234576702118,-0.4886116087436676,0.5478215217590332,-0.5346192121505737,0.8755818605422974,0.058436471968889236,0.17969924211502075,0.1911359578371048,0.8565313220024109,0.9987373352050781,0.7186012864112854
0.92,0.07113252580165863,-0.1382136344909668,0.02244585193693638,0.13698145747184753,0.020824123173952103,-0.07194960117340088,0.7233802080154419,0.41163769364356995,0.32898852229118347,-0.09234105795621872,0.08797778189182281,0.24145525693893433,0.05319746307571191,-0.11093309227326142,0.052334911464116736,0.11109774438262017,0.01834593320077264,-0.10358908154109019,0.5919554446659714,0.6009678987617709,-0.48048012517049105,-0.4422876278355523,0.05155256042741114,0.168850394939837,-0.14389920234680176,0.27396291494369507,-0.4364272654056549,0.3232753872871399,0.15531788766384125,0.9658210277557373,0.041648246347904205,0.04489170387387276,0.3022650480270386,0.946760356426239,0.9979770183563232,0.35191112756729126
0.9400000000000001,0.1442926824092865,-0.06699983775615692,0.016805078834295273,0.06977888941764832,0.0020292121917009354,-0.012180175632238388,0.7444144487380981,0.4434589743614197,0.2971418797969818,0.21732692420482635,0.012947074137628078,0.24452045559883118,0.059689183533235574,-0.11758607511919669,0.025687451806950756,0.11957957699780461,0.005531865253237079,-0.054579561386759956,0.6447545821763221,0.5680637790699369,-0.48970119566970505,-0.4361542143709958,0.0350394045126631,0.16787671241162552,-0.024360351264476776,0.13955777883529663,-0.29399967193603516,0.38691791892051697,0.7746538519859314,0.9780818223953247,0.004058424383401871,0.033610157668590546,0.4485853612422943,0.9888288974761963,0.9342837333679199,0.051788296550512314
0.96,0.1492285430431366,-0.03371220827102661,-0.0963190570473671,-0.029393566772341728,0.054654672741889954,0.021868836134672165,0.7456965446472168,0.5187137126922607,-0.04259026050567627,0.3288039267063141,0.019234061241149902,0.1293054074048996,0.06746483151710653,-0.11086937572309444,-0.0065339228234222,0.10551346033732706,0.01855769967663915,-0.022765018641426247,0.686485650733316,0.5596797267391349,-0.4886085214580998,-0.458004214597936,0.02656047679479361,0.13643483110522361,0.04373767226934433,-0.058787133544683456,-0.22742441296577454,0.5374274253845215,0.9976078271865845,0.5172216296195984,0.10930934548377991,-0.1926381140947342,0.4584570825099945,0.9913930892944336,0.25481948256492615,0.07693624496459961
0.98,0.1740473061800003,0.024601349607110023,-0.166570246219635,-0.05945652350783348,0.08176692575216293,0.03681229427456856,0.7347487211227417,0.5713756084442139,-0.5312050580978394,0.3299032151699066,0.059133563190698624,-0.12730398774147034,0.06900052273399951,-0.09964288885537392,-0.025458800237449387,0.08797674355735689,0.046528851932501884,-0.03584891886553899,0.7093603739441159,0.5783413188668984,-0.4925459733686329,-0.48916247570809895,0.029006400653977322,0.13517380016500302,0.07362458854913712,-0.11891304701566696,-0.11079730093479156,0.6427512764930725,0.9998064041137695,-0.5092159509658813,0.16353385150432587,-0.33314049243927,0.5080946087837219,0.9694973826408386,-0.7224101424217224,0.2365342527627945
1.0,0.19806472957134247,0.10314561426639557,-0.2672594487667084,-0.15038898587226868,0.12987054884433746,0.04655594751238823,0.691401481628418,0.6505342721939087,-0.5063257217407227,0.3299528956413269,0.0183546282351017,-0.22705084085464478,0.06298876474435453,-0.08436401745042385,-0.0593669106267571,0.06409064614814536,0.08004640162507011,-0.03579718115680016,0.7113950270547252,0.5939926861010959,-0.49371612166888723,-0.5169230828501287,0.02767067978461177,0.13146057715606937,0.09311189502477646,-0.30077797174453735,0.046291228383779526,0.8010684847831726,0.9999057650566101,-0.9082033634185791,0.2597410976886749,-0.5345188975334167,0.5561294555664062,0.8828030228614807,-0.672651469707489,0.0734185129404068
1.02,0.22344066202640533,0.1465880572795868,-0.3010985553264618,-0.15172187983989716,0.17696915566921234,0.03670112043619156,0.537361741065979,0.70381098985672,-0.3900090157985687,0.3299807906150818,-0.07560531795024872,-0.239615336060524,0.054191805264511096,-0.07102431489303661,-0.10820947729426741,0.03183789492821726,0.12349327462095305,-0.026834716015219993,0.6782525402952031,0.6125665137469407,-0.46663404811113124,-0.5450197084440693,0.00227583905626892,0.12427818925990984,0.07340224087238312,-0.3034437596797943,0.13317610323429108,0.9076219797134399,0.9999615550041199,-0.958461344242096,0.3539383113384247,-0.6021971106529236,0.606881320476532,0.574723482131958,-0.44001802802085876,-0.3024212718009949
1.04,0.15513817965984344,0.08411618322134018,-0.2563788890838623,-0.08944356441497803,0.17305976152420044,0.028805263340473175,0.29599499702453613,0.7429675459861755,-0.000519646389875561,0.32999387383461,-0.19444900751113892,-0.2350827157497406,0.041381556148269175,-0.06433771318907183,-0.15814512049373525,0.003097520151987999,0.16070090292229683,-0.0018586360665037338,0.6032810279834655,0.631167372440933,-0.41388881510301423,-0.5702367425914832,-0.0592511200402482,0.10281108728672043,0.05761052668094635,-0.17888712882995605,0.008232364431023598,0.9859350919723511,0.9999877214431763,-0.9403308629989624,0.3461195230484009,-0.5127577781677246,0.4702763557434082,0.09198997169733047,0.3389607071876526,-0.7777960300445557
1.06,0.013268744572997093,-0.13126496970653534,-0.15796245634555817,0.026548078283667564,0.08764741569757462,0.03057209588587284,0.369083046913147,0.7496305704116821,0.3244055509567261,0.3299288749694824,-0.23119111359119415,-0.1693187952041626,0.03515732883399978,-0.07936943749072714,-0.18514229508868404,-0.003987899184340989,0.15288327198714527,0.02340336377771819,0.5472476406788954,0.6534675552426139,-0.3910580307297676,-0.5741820292489518,-0.13208043235768857,0.08263554428043435,0.06114419177174568,0.05309615656733513,-0.422529935836792,0.9992610812187195,0.9998577237129211,-0.6772751808166504,0.17529483139514923,-0.31592491269111633,0.1865374892950058,0.23816610872745514,0.9888110756874084,-0.9247644543647766
1.08,-0.13165836036205292,-0.26713934540748596,-0.04212934523820877,0.13775265216827393,0.012369150295853615,0.028592035174369812,0.5048093795776367,0.7484375238418579,0.3299727737903595,0.27830469608306885,0.015001923777163029,-0.12149835377931595,0.0237791626087606,-0.09911552085923116,-0.16560788985813465,0.018780745127086475,0.10824749805903461,0.030250814760227583,0.5074476965829033,0.6821757104723023,-0.3999106798912118,-0.5536434501466875,-0.13852231345162047,0.06303770092191284,0.057184070348739624,0.27550530433654785,-0.6942787170410156,0.996874988079071,0.896609365940094,-0.4859934151172638,0.02473830059170723,-0.08425869047641754,-0.10331673175096512,0.5096186995506287,0.9999455213546753,0.060007695108652115
1.1,-0.2455531358718872,-0.32974857091903687,0.08648335188627243,0.2442312240600586,-0.020735103636980057,-0.022053012624382973,0.5714045763015747,0.7434381246566772,0.3299986720085144,-0.5560454726219177,0.2466171383857727,-0.08865693211555481,0.0030303349371167253,-0.11140012389709482,-0.11347148227939134,0.06310327296515193,0.04384122082785667,0.015216610737911165,0.48420248312730535,0.7143668666242575,-0.43387909670664215,-0.5379833260639109,-0.03736616361268763,0.023368737933906078,-0.044106025248765945,0.4884624481201172,-0.8194971680641174,0.9868762493133545,-0.7720909118652344,-0.35462772846221924,-0.041470207273960114,0.17296670377254486,-0.3311062753200531,0.6428090929985046,0.9999973177909851,0.9864685535430908
1.12,-0.2773764431476593,-0.29342782497406006,0.21191105246543884,0.27101048827171326,-0.00988014042377472,-0.1227606013417244,0.5870810747146606,0.7310206890106201,0.32999879121780396,-0.6172069311141968,0.248319610953331,0.0062719169072806835,-0.03001009610923152,-0.11657350187034855,-0.04894630386365732,0.1134233999559863,-0.005170735954198432,-0.04277834138050191,0.47563281344834424,0.7362430870695781,-0.5057418941382056,-0.5458706469311168,0.05974158684645906,0.004636505513939432,-0.2455212026834488,0.5420209765434265,-0.7468556761741638,0.9620413780212402,-0.8944138288497925,0.025087667629122734,-0.01976028084754944,0.4238221049308777,-0.3947528600692749,0.6741620898246765,0.9999975562095642,0.993278443813324
1.1400000000000001,-0.23710943758487701,-0.16317689418792725,0.19949305057525635,0.30859729647636414,-0.006830465979874134,-0.2348962128162384,0.5907008051872253,0.70055091381073,0.32999926805496216,-0.6171483993530273,0.2481185495853424,0.0682886615395546,-0.07134643709721512,-0.11017096234881889,0.011613941257397783,0.15899868114036397,-0.02598982127715827,-0.13848006252889722,0.47927711860038946,0.7373086791505578,-0.5852576805649217,-0.5636464041518036,0.09694788835657674,0.01738614315888405,-0.4697924256324768,0.6171945929527283,-0.4863537847995758,0.90110182762146,-0.8942968249320984,0.2731546461582184,-0.013660931959748268,0.3989861011505127,-0.3142188787460327,0.6814016103744507,0.9999985098838806,0.9924741983413696
1.16,-0.19849205017089844,-0.07797397673130035,0.16854000091552734,0.36263710260391235,-0.00878111645579338,-0.2884788513183594,0.6187873482704163,0.6823068857192993,0.3299996852874756,-0.5867804884910583,0.2485855221748352,0.13393589854240417,-0.10455540230047294,-0.09406685234124004,0.0459868828796682,0.1911302424682755,-0.009473720958849182,-0.22241190260932855,0.5088156014779482,0.7216516721832592,-0.6244409848449131,-0.5741113654500998,0.056251193732587454,0.05025692930687194,-0.5769577026367188,0.7252742052078247,-0.315947949886322,0.8646137714385986,-0.8335609436035156,0.5357435941696167,-0.01756223291158676,0.3370800018310547,-0.23698408901691437,0.7375746965408325,0.9999993443489075,0.9943420886993408
1.18,-0.1890181303024292,-0.09815651178359985,0.12619933485984802,0.3964281976222992,-0.023143639788031578,-0.2915426790714264,0.6741399765014648,0.6118066310882568,0.3299999237060547,-0.4554578959941864,0.24944742023944855,0.21771131455898285,-0.12438809068523887,-0.0870540951034243,0.06794198629745532,0.2212170836758015,-0.009713896825110199,-0.270639190391875,0.5471448251863233,0.6931537095154046,-0.6572426211733566,-0.5525287551133183,0.028645323937245355,0.0993479740858367,-0.5830853581428528,0.7928563952445984,-0.356313019990921,0.7236132025718689,-0.5709158182144165,0.8708452582359314,-0.046287279576063156,0.25239866971969604,-0.2180362492799759,0.8482799530029297,0.9999998211860657,0.9977896809577942
1.2,-0.11368311196565628,-0.12247908115386963,0.05223173648118973,0.3765604794025421,-0.02794100157916546,-0.24270527064800262,0.7147808074951172,0.39428895711898804,0.3299998342990875,-0.18317916989326477,0.2479686737060547,0.24453221261501312,-0.11954946129476386,-0.09176110093115121,0.05547641014688526,0.22254693117948787,-0.018300010102089367,-0.27622794374328996,0.5897713852336062,0.6267513837538419,-0.6672006114349436,-0.4852064878837061,0.019836942586557167,0.1483138830927765,-0.48541054129600525,0.7531209588050842,-0.40495815873146057,0.28857794404029846,-0.026358334347605705,0.9781288504600525,-0.05588200315833092,0.10446347296237946,-0.06736622750759125,0.9295616745948792,0.9999996423721313,0.9918746948242188
1.22,0.03007468394935131,-0.040543973445892334,-0.009244770742952824,0.20808009803295135,-0.028512315824627876,-0.10215547680854797,0.7459322810173035,0.42143017053604126,0.3299858272075653,0.3225766122341156,0.1974690705537796,0.2456534504890442,-0.09378824330818973,-0.0924581170546511,0.03160028019440917,0.21736098948858282,-0.02693464112760834,-0.20745737497582956,0.6365312031910572,0.5850038647972396,-0.6638171787245545,-0.5151962780879239,0.026185967670954286,0.18334589478356395,-0.20431095361709595,0.4161601960659027,-0.24108794331550598,0.3428603708744049,0.9851531982421875,0.9826138019561768,-0.05702463164925575,-0.018489541485905647,0.22014936804771423,0.9918645620346069,0.9999716281890869,0.7898762822151184
1.24,0.12582947313785553,0.12564025819301605,-0.03576836735010147,0.10756806284189224,-0.025827893987298012,-0.014690016396343708,0.7484883666038513,0.5417115688323975,0.322066992521286,0.32997289299964905,0.16749221086502075,0.0846504420042038,-0.07263701371520047,-0.07477114560880208,0.00627858665640331,0.1976066633243886,-0.024985514230259978,-0.13014746013281203,0.6827933347381819,0.5426128290943854,-0.6475702963940893,-0.5415005691320455,0.036035409798729275,0.1372491192155084,-0.029380032792687416,0.21513612568378448,0.0912805125117302,0.5834231376647949,0.9999457597732544,0.3386017680168152,-0.051655787974596024,-0.07153673470020294,0.4116589426994324,0.9969767332077026,0.9841339588165283,0.669968843460083
1.26,0.16269277036190033,0.1992725282907486,-0.0457160547375679,0.07485547661781311,-0.022024117410182953,0.004216143861413002,0.7473642826080322,0.5622398257255554,0.24621160328388214,0.32999202609062195,0.14491385221481323,-0.12154427915811539,-0.06387371892126739,-0.05499921835631968,-0.008322269925087406,0.18667658219135747,-0.019186559166864372,-0.0829124438577466,0.7262075422238705,0.5258488036090315,-0.6151596567089631,-0.5468614137919835,0.04557072136237307,0.12799811432333297,0.008432287722826004,0.14971095323562622,0.23854506015777588,0.6244796514511108,0.9999840259552002,-0.48617711663246155,-0.044048234820365906,-0.0914321094751358,0.485385537147522,0.9947285652160645,0.832423210144043,0.5796554088592529
1.28,0.13928017020225525,0.24214445054531097,-0.07148247212171555,0.051457058638334274,-0.013436472974717617,0.025671323761343956,0.7461647987365723,0.5961732864379883,-0.10890743881464005,0.32999473810195923,0.11912093311548233,-0.21278151869773865,-0.062352584689018685,-0.025925422298620264,-0.02779870976437241,0.16782619390412942,-0.01635447862630154,-0.026958854411022075,0.763267859127631,0.509259598243672,-0.5700601029224878,-0.5540161128618475,0.05885191394391288,0.108740891004315,0.05134264752268791,0.10291411727666855,0.32428890466690063,0.6923465728759766,0.9999894499778748,-0.8511260747909546,-0.026872945949435234,-0.1429649442434311,0.4385603368282318,0.9923296570777893,0.122185118496418,0.4764837324619293
1.3,0.09659631550312042,0.31030547618865967,-0.1689900904893875,-0.04930080845952034,0.015232497826218605,0.057932302355766296,0.7432467341423035,0.642133355140686,-0.4701509177684784,0.32999879121780396,0.08003544807434082,-0.23593081533908844,-0.07588970822710286,0.012114849996732515,-0.054348055630727664,0.13983482231331537,-0.0077732426308240775,0.01805861333581846,0.7826951401488904,0.5071595312102644,-0.5305421949974825,-0.5718862510425256,0.06754390279686988,0.07456861857635569,0.11586460471153259,-0.09860161691904068,0.460610955953598,0.7842667102813721,0.9999975562095642,-0.9437232613563538,0.03046499565243721,-0.337980180978775,0.35319262742996216,0.9864934682846069,-0.6003018617630005,0.3201417922973633
1.32,0.08762054145336151,0.38716065883636475,-0.3066047132015228,-0.23033782839775085,0.10243678092956543,0.08431080728769302,0.7339175343513489,0.6710464954376221,-0.5889971256256104,0.3299998342990875,0.04278920590877533,-0.2456863671541214,-0.09730475680929015,0.05388308581613059,-0.0985286463226605,0.09369753637484082,0.03134672044525615,0.03541129425069656,0.7847096411088526,0.520901622674452,-0.5238454313326121,-0.6007941476584563,0.06152785896613025,0.05135538951865611,0.16862161457538605,-0.4606756567955017,0.6143212914466858,0.8420929312705994,0.9999996423721313,-0.9827454686164856,0.20487356185913086,-0.6132094264030457,0.33524107933044434,0.9678350687026978,-0.8379942774772644,0.17115682363510132
1.34,0.13337966799736023,0.3928179442882538,-0.3772641718387604,-0.2909884452819824,0.2100774496793747,0.07143610715866089,0.7073261141777039,0.6736148595809937,-0.5998200178146362,0.3299999535083771,0.06568340957164764,-0.24825982749462128,-0.1007285941556084,0.085734330276948,-0.1571407522354562,0.030370093541657203,0.10962664567678343,0.038224370747548225,0.7767619364040669,0.5396018625310754,-0.5352893089556835,-0.6333185837553383,0.05624588507668362,0.047259261400719094,0.14287221431732178,-0.5819768905639648,0.6256358623504639,0.8472296595573425,0.9999998807907104,-0.9930393099784851,0.4201548993587494,-0.7545283436775208,0.4267593324184418,0.9146522283554077,-0.8596400618553162,0.2627336382865906
1.36,0.14498384296894073,0.2936418950557709,-0.40598541498184204,-0.2580232620239258,0.2806890606880188,0.050379473716020584,0.6523150205612183,0.6881353259086609,-0.5591974854469299,0.3299998939037323,0.0690804272890091,-0.24885129928588867,-0.0775700731375136,0.10046951994600041,-0.21812043532678127,-0.03623434952981562,0.20097062669541382,0.03809903732670387,0.7557772226779512,0.5584909997628087,-0.5417402611450738,-0.6653876275259576,0.05748688262833636,0.04052818865993354,0.10075894743204117,-0.5160465240478516,0.42728379368782043,0.8762706518173218,0.9999997615814209,-0.9954051971435547,0.5613781213760376,-0.8119708299636841,0.4499676823616028,0.8046299815177917,-0.7783949971199036,0.2763217091560364
1.3800000000000001,0.11882029473781586,0.14605781435966492,-0.40471088886260986,-0.20014804601669312,0.28265368938446045,0.05398136004805565,0.5174834728240967,0.7105628252029419,-0.45662814378738403,0.33000001311302185,0.02551722154021263,-0.24794359505176544,-0.03733766010403575,0.0971821718766108,-0.23207537472943957,-0.05949301265628247,0.28122779464978936,0.043368431489562535,0.7086131857743768,0.5818037397559036,-0.5239809163857162,-0.6662133328826786,0.056340804653740806,0.02529279878341421,0.1079627200961113,-0.40029609203338623,0.13211561739444733,0.9211257100105286,1.0,-0.9917743802070618,0.5653073787689209,-0.8094217777252197,0.397640585899353,0.5349670052528381,-0.5732563138008118,0.10206888616085052
1.4000000000000001,0.012394970282912254,-0.06331770122051239,-0.3681202232837677,-0.09987711161375046,0.20001322031021118,0.07383256405591965,0.27941054105758667,0.7465179562568665,0.29415997862815857,0.32999977469444275,-0.15043507516384125,-0.2394455373287201,-0.002106047942321334,0.07176042568746345,-0.22499994959527053,-0.05067815572609337,0.2861339866747003,0.059827518443776755,0.6217748946248298,0.6234137056272883,-0.41963942758137274,-0.6491119924493071,-0.001558485425685546,-0.0051043830715783904,0.1476651281118393,-0.19975422322750092,-0.2866353988647461,0.9930359125137329,0.9999995231628418,-0.9577821493148804,0.40002644062042236,-0.7362404465675354,0.18478994071483612,0.058821097016334534,0.9283199310302734,-0.601740300655365
1.42,-0.14545460045337677,-0.2937534749507904,-0.16362303495407104,0.1819697767496109,0.046863652765750885,0.04490590840578079,0.4238862693309784,0.7493190765380859,0.3299849033355713,0.32979321479797363,0.07371336221694946,-0.18691469728946686,0.009697112380164801,0.019039105513604694,-0.20650115697969504,-0.02261771736068346,0.200656828413698,0.06812530427444984,0.5764368809152063,0.6735622492669621,-0.4156299159243795,-0.6073130244218694,-0.04852718822370447,-0.02615009511457905,0.08981181681156158,0.3639395534992218,-0.7475069761276245,0.9986380934715271,0.9995864033699036,-0.7476587891578674,0.09372730553150177,-0.3272460699081421,-0.13090920448303223,0.3477725386619568,0.9999697804450989,0.29485344886779785
1.44,-0.3560015857219696,-0.3725612759590149,0.16298934817314148,0.31267285346984863,-0.030962936580181122,-0.008057989180088043,0.5950330495834351,0.7418750524520874,0.33000001311302185,-0.19743768870830536,0.24991460144519806,-0.17238527536392212,-0.012048333876421409,-0.017488355309086177,-0.13931114316324586,0.044456474952702725,0.08012677937426534,0.041032574749128956,0.5270988014675135,0.7217771293790357,-0.44956078754890544,-0.5337332589997619,0.007435840481141201,-0.04952966438041247,-0.016115978360176086,0.6253457069396973,-0.9051225781440735,0.9837501645088196,-0.054875366389751434,-0.6895411014556885,-0.061925873160362244,0.32597869634628296,-0.5520031452178955,0.6900661587715149,1.0,0.9996584057807922
1.46,-0.4025510847568512,-0.3586765229701996,0.29217585921287537,0.3982599377632141,-0.042180921882390976,-0.20678699016571045,0.6350191831588745,0.7134161591529846,0.33000001311302185,-0.6501020193099976,0.24998143315315247,-0.07756692171096802,-0.04613088476586321,-0.03953773317892291,-0.035430826872902076,0.12809313107646972,-0.009539477027278679,-0.06453717613671107,0.5016676115917887,0.7511462113430185,-0.5201646671229976,-0.5155910173425389,0.08993684628193892,-0.06297007593325708,-0.4135739803314209,0.7965198755264282,-0.8773530721664429,0.9268323183059692,-0.960204005241394,-0.31026768684387207,-0.08436184376478195,0.5843517184257507,-0.6451021432876587,0.7700384259223938,1.0,0.9999257326126099
1.48,-0.3451983332633972,-0.16648729145526886,0.25071781873703003,0.4433155953884125,-0.03921615704894066,-0.34733182191848755,0.6107848882675171,0.6559679508209229,0.33000001311302185,-0.6495022177696228,0.24994917213916779,-0.04624004289507866,-0.09669588747895594,-0.03984628406662033,0.06631233543122193,0.2050316059292859,-0.05068174878847435,-0.21159394692128822,0.4915353520044656,0.7468501091082806,-0.5969100551591313,-0.5450135594060311,0.13202335634802384,-0.06061576315724983,-0.6946636438369751,0.886631190776825,-0.49297457933425903,0.8119359612464905,-0.9590044617652893,-0.18496017158031464,-0.07843231409788132,0.5014356374740601,-0.5303966403007507,0.7215697169303894,1.0,0.9997966885566711
1.5,-0.2875618636608124,-0.02573542110621929,0.2450026124715805,0.46613502502441406,-0.05354275926947594,-0.3871743977069855,0.622887134552002,0.6657536029815674,0.33000001311302185,-0.6417391300201416,0.24992090463638306,-0.03602056950330734,-0.14905729900868928,-0.03040355812056302,0.11661273986612558,0.23525420830152216,-0.06062735606419767,-0.3438322454370393,0.5025271188055025,0.737690722048805,-0.6405927566552667,-0.5800164131437926,0.13328387907291514,-0.05717447258263271,-0.774348795413971,0.9322700500488281,-0.2114708423614502,0.8315072059631348,-0.9434782266616821,-0.14408227801322937,-0.10708551853895187,0.490005224943161,-0.41512370109558105,0.7457742094993591,1.0,0.9996836185455322
1.52,-0.30110815167427063,-0.04485374689102173,0.2449088841676712,0.473479300737381,-0.06921183317899704,-0.36418017745018005,0.684928297996521,0.613693118095398,0.33000001311302185,-0.33260634541511536,0.24987076222896576,0.1026415154337883,-0.1890975469699598,-0.02663893523531627,0.11842199186261482,0.23030172014174904,-0.06431908300999996,-0.39361262969976085,0.5342044749240993,0.7132730891490622,-0.6563551026282034,-0.5428760351644485,0.1329561304839583,-0.02570253928435609,-0.7283603549003601,0.946958601474762,-0.24970749020576477,0.7273862361907959,-0.3252127170562744,0.4105660617351532,-0.13842366635799408,0.4898177683353424,-0.44221630692481995,0.8698565363883972,1.0,0.999483048915863
1.54,-0.21177363395690918,-0.07322579622268677,0.19443963468074799,0.4740101099014282,-0.08486577868461609,-0.34904956817626953,0.7112821936607361,0.41930386424064636,0.33000001311302185,-0.08644062280654907,0.24989698827266693,0.22897858917713165,-0.19700690322272216,-0.03463853729267753,0.1063533357302676,0.22309148795384307,-0.07883793210996369,-0.3923572791592462,0.5784587401935584,0.6646417900016839,-0.6626574765367813,-0.5097854695081695,0.14328311467163413,0.04800458919810849,-0.6980991363525391,0.9480202198028564,-0.30645158886909485,0.3386077284812927,0.16711875796318054,0.9159143567085266,-0.16973155736923218,0.38887926936149597,-0.26354727149009705,0.9225643873214722,1.0,0.9995879530906677
1.56,-0.08747568726539612,-0.008710769936442375,0.14364872872829437,0.4520478844642639,-0.10969910025596619,-0.29239243268966675,0.7360564470291138,0.27498534321784973,0.33000001311302185,0.31804710626602173,0.249734565615654,0.24349088966846466,-0.170998226176421,-0.028664793128863678,0.08887194469400485,0.21882233007061017,-0.10490200447273737,-0.3536118923150634,0.6243314601065418,0.6007435984837015,-0.6487282263061589,-0.5392763116325205,0.16125918201095135,0.09550293162960592,-0.5847848653793335,0.9040957689285278,-0.17742154002189636,0.04997068643569946,0.9760941863059998,0.9739635586738586,-0.21939820051193237,0.28729745745658875,-0.014951368793845177,0.9721128344535828,1.0,0.998938262462616
1.58,-0.06200527399778366,0.17274928092956543,0.15610527992248535,0.3645084500312805,-0.1698060929775238,-0.12326489388942719,0.7484003305435181,0.23430001735687256,0.33000001311302185,0.3299945294857025,0.24956627190113068,0.2084084302186966,-0.1515683584366823,0.01782601143081254,0.06786263895163334,0.21606567469120644,-0.1384365945673881,-0.250791631373925,0.6641060905460209,0.49074118319999177,-0.6167303998123851,-0.5454256600028058,0.1807560528992855,0.11591413267511386,-0.24652978777885437,0.729016900062561,0.18549855053424835,-0.03139996901154518,0.9999890327453613,0.8336337208747864,-0.3396121859550476,0.3122105598449707,0.03598944842815399,0.9968006610870361,1.0,0.9982650876045227
1.6,-0.08901602029800415,0.3876272439956665,0.2797277569770813,0.21259954571723938,-0.23338820040225983,-0.003897961461916566,0.7495847940444946,0.20653748512268066,0.3299996554851532,0.32999974489212036,0.24984601140022278,0.00784528162330389,-0.16157516957532747,0.09841809381029987,0.06114666530448181,0.21357591805638695,-0.18068940996882785,-0.12623726633872068,0.7000682656788177,0.3674412761788982,-0.5894016685704535,-0.5136159462335155,0.20588965031191495,0.09419358025604986,-0.007795922923833132,0.42519909143447876,0.6152544617652893,-0.08692502975463867,0.999999463558197,0.03138112649321556,-0.46677640080451965,0.5594555139541626,-0.018032047897577286,0.999169647693634,0.9999992847442627,0.9993840456008911
