time,cmd_L_hip_pitch,cmd_R_hip_pitch,cmd_L_hip_roll,cmd_R_hip_roll,cmd_L_hip_yaw,cmd_R_hip_yaw,cmd_L_knee,cmd_R_knee,cmd_L_foot_pitch,cmd_R_foot_pitch,cmd_L_foot_roll,cmd_R_foot_roll,pos_L_hip_pitch,pos_R_hip_pitch,pos_L_hip_roll,pos_R_hip_roll,pos_L_hip_yaw,pos_R_hip_yaw,pos_L_knee,pos_R_knee,pos_L_foot_pitch,pos_R_foot_pitch,pos_L_foot_roll,pos_R_foot_roll,act_R_hip_yaw,act_R_hip_roll,act_R_hip_pitch,act_R_knee,act_R_foot_pitch,act_R_foot_roll,act_L_hip_yaw,act_L_hip_roll,act_L_hip_pitch,act_L_knee,act_L_foot_pitch,act_L_foot_roll
0.0,0.010866476222872734,-0.04453795403242111,0.05017724633216858,-0.033393144607543945,0.00657074898481369,-0.016049085184931755,0.35274234414100647,0.3484589457511902,-0.5059888958930969,-0.4722149670124054,-0.2111920565366745,0.200055792927742,-0.050341351121059676,0.048676600259747446,0.0021563851419098175,0.0002993611564044651,0.004038768038052197,-0.007736389938207362,0.28035364603560825,0.28140049461303895,-0.3429780052242245,-0.336323606939406,-0.04282091441244267,0.04048567482477786,-0.03209817036986351,-0.06678628921508789,-0.24907590448856354,0.19691792130470276,-0.6044299602508545,0.800223171710968,0.01314149796962738,0.10035449266433716,0.18173295259475708,0.20548467338085175,-0.6719777584075928,-0.844768226146698
0.02,0.013503549620509148,-0.09732227027416229,0.1047481819987297,0.05184569209814072,-0.009431754238903522,-0.03581955283880234,0.3842150568962097,0.42700180411338806,-0.2145189791917801,-0.2763076424598694,-0.23596155643463135,0.24411967396736145,-0.021698665555739467,0.010960391575198295,0.016357742047839654,0.01037036608096295,0.0010917554247947309,-0.02151511915407035,0.30762607130838576,0.32264783279302356,-0.3696096151650607,-0.3707597669891821,-0.10699510511334828,0.10684382898147357,-0.07163910567760468,0.10369138419628143,-0.3546445369720459,0.3540036082267761,-0.21261531114578247,0.9764786958694458,-0.018863508477807045,0.2094963639974594,0.1870070993900299,0.2684301435947418,-0.0890379548072815,-0.9438462257385254
0.04,-0.00027325181872583926,-0.1142934262752533,0.15621206164360046,0.13307645916938782,-0.03037281148135662,-0.04945077747106552,0.4483293294906616,0.45520806312561035,0.19494296610355377,-0.424246609210968,-0.24133683741092682,0.23787695169448853,-0.0008972927295455753,-0.017168606800926214,0.03679704628676272,0.027563830346080412,-0.01251793135650675,-0.036157060393480836,0.32302139960645737,0.3656161341235722,-0.40578981851430557,-0.3825859100824048,-0.09813973767535401,0.15827107466676113,-0.09890155494213104,0.26615291833877563,-0.3885868489742279,0.4104161262512207,-0.5084932446479797,0.9515078067779541,-0.06074562296271324,0.3124241232872009,0.15945349633693695,0.39665862917900085,0.7298859357833862,-0.9653473496437073
0.06,-0.03188951313495636,-0.1653202921152115,0.20673926174640656,0.15545661747455597,-0.011553311720490456,-0.052429769188165665,0.5457310080528259,0.3057394027709961,0.3069233298301697,-0.47870346903800964,-0.22837679088115692,0.24423937499523163,0.02436357685303126,-0.029590859911354496,0.04926068125258507,0.03860535130079889,-0.008776369180916527,-0.04204234815603243,0.3603081983197458,0.36684636765590817,-0.4299798924630826,-0.4221717472431896,0.012398581531006248,0.19010891667999313,-0.10485953837633133,0.31091323494911194,-0.4906405806541443,0.11147882044315338,-0.617406964302063,0.9769574999809265,-0.02310662344098091,0.4134785234928131,0.0962209701538086,0.5914620161056519,0.9538466334342957,-0.9135071635246277
0.08,0.04751117527484894,-0.07323338091373444,0.035475485026836395,-0.02561112493276596,0.011819020844995975,-0.005704541690647602,0.6827356815338135,0.27764156460762024,0.3215303122997284,-0.48427248001098633,-0.19019651412963867,0.24843306839466095,0.04817454977078755,-0.028464377772570496,0.051567202389934036,0.039113307473163314,-0.0016974395145004338,-0.037567046423387554,0.42774610622182574,0.3698691162655171,-0.46321634529781675,-0.42736005157244017,0.011635794117944463,0.1508165179118977,-0.011409083381295204,-0.05122224986553192,-0.3064667582511902,0.05528312548995018,-0.6285449862480164,0.9937322735786438,0.02363804168999195,0.07095097005367279,0.2550223469734192,0.865471363067627,0.9830605983734131,-0.7607860565185547
0.1,0.1578231304883957,0.02036743424832821,-0.021439645439386368,-0.07161244750022888,0.01600796915590763,0.015559481456875801,0.7278085947036743,0.32760050892829895,-0.13382045924663544,-0.30020850896835327,-0.1063796728849411,0.24828775227069855,0.0758831121333795,-0.01990901912122263,0.045573474183783186,0.03035406468242901,0.01085504244690217,-0.034480885297124356,0.5106856544144039,0.36578634386018427,-0.4885523136002702,-0.4272264359693401,-0.00623057977491945,0.08962120194261536,0.031118962913751602,-0.14322489500045776,-0.1192651316523552,0.1552010029554367,-0.26041704416275024,0.9931510090827942,0.03201593831181526,-0.042879290878772736,0.4756462574005127,0.9556172490119934,0.07235909253358841,-0.4255186915397644
0.12,0.21072454750537872,0.046266477555036545,-0.02164817973971367,-0.13962110877037048,-0.004389055538922548,0.016061529517173767,0.7362872362136841,0.3270115852355957,-0.6227295398712158,-0.10994639992713928,-0.07151538133621216,0.2487921565771103,0.10408612132744265,-0.011784018363010719,0.03530698416896218,0.020150016330766046,0.005004309758589097,-0.029741623171376096,0.5864761816074522,0.3577425613185077,-0.5215230098298884,-0.4258683730148076,-0.029245490228619848,0.021683824563885266,0.032123059034347534,-0.27924221754074097,-0.06746704131364822,0.1540232002735138,0.12010719627141953,0.9951686263084412,-0.008778111077845097,-0.04329635947942734,0.5814490914344788,0.9725744724273682,-0.9054591059684753,-0.28606152534484863
0.14,0.2365850955247879,0.06422534584999084,-0.014138082973659039,-0.21171468496322632,-0.023388640955090523,0.007746158167719841,0.7439183592796326,0.3158644139766693,-0.6341472268104553,-0.03782135248184204,-0.07870562374591827,0.24951383471488953,0.1289765488993064,-0.003589403081411054,0.02685466024027493,0.018464202559119864,-0.012508428063883558,-0.025284078558239158,0.641259317757432,0.3490986453357076,-0.5555292366936916,-0.4243415329537695,-0.047770660603821,-0.00044221769253621876,0.015492316335439682,-0.42342936992645264,-0.03154931217432022,0.13172884285449982,0.2643572986125946,0.9980553388595581,-0.046777281910181046,-0.028276165947318077,0.6331701874732971,0.9878367185592651,-0.9282944202423096,-0.3148224949836731
0.16,0.23899637162685394,0.0686495378613472,-0.012456938624382019,-0.27244871854782104,-0.020469093695282936,-0.0022530790884047747,0.744827151298523,0.3173513412475586,-0.6196393966674805,-0.03071489743888378,-0.11389490216970444,0.24971801042556763,0.14983447612193304,0.006042755256586439,0.012917571392971698,0.013270389819405794,-0.02114539060136112,-0.02211198972432833,0.6758947263588888,0.3400731848095507,-0.5775545575526755,-0.4240515670870115,-0.06816637155334632,-0.003195782668409612,-0.004506158176809549,-0.5448974370956421,-0.022700922563672066,0.1347026526927948,0.2785702049732208,0.9988720417022705,-0.04093818739056587,-0.024913877248764038,0.6379927396774292,0.9896542429924011,-0.8992788195610046,-0.45557960867881775
0.18,0.23051755130290985,0.06283028423786163,-0.008199647068977356,-0.28081443905830383,-0.01655406504869461,-0.00677437474951148,0.7444566488265991,0.3307653069496155,-0.6123358607292175,-0.012763438746333122,-0.14737123250961304,0.249789759516716,0.16677042463087666,0.01573504865349515,-0.005333494505727241,0.0016787933251752895,-0.017791949953604745,-0.018733850547021258,0.6970898103055816,0.3346810854280691,-0.5888737670822222,-0.42709569831059563,-0.09253774557411554,-0.008593237066599329,-0.01354874949902296,-0.5616288781166077,-0.034339435398578644,0.16153058409690857,0.31447312235832214,0.999159038066864,-0.03310813009738922,-0.016399294137954712,0.621035099029541,0.9889132380485535,-0.8846717476844788,-0.5894849300384521
0.2,0.2211664766073227,0.05927814915776253,-0.02139315940439701,-0.28266221284866333,-0.013896632008254528,-0.007251224014908075,0.7429980039596558,0.35608598589897156,-0.6058166027069092,0.023415612056851387,-0.1731712371110916,0.24980373680591583,0.17927424380833853,0.024798265219810437,-0.024453553147347037,-0.012958538219575957,-0.011475587327751618,-0.014173447839211224,0.7096457048603418,0.3362438929765791,-0.5936500082177455,-0.43496297106151083,-0.1182089126604443,-0.015723933137067124,-0.01450244802981615,-0.5653244256973267,-0.04144370183348656,0.21217195689678192,0.38683122396469116,0.9992149472236633,-0.027793264016509056,-0.04278631880879402,0.6023329496383667,0.9859960675239563,-0.8716332316398621,-0.6926849484443665
0.22,0.21880243718624115,0.06656330823898315,-0.04767224192619324,-0.2894853353500366,-0.009077163413167,-0.007957438006997108,0.7391183376312256,0.398840069770813,-0.5975261330604553,0.07008428871631622,-0.19551144540309906,0.2497776597738266,0.1871946667886446,0.03311342704169361,-0.04374386451642519,-0.029498459441519773,-0.006471533244251063,-0.008698233238580644,0.7166193156090634,0.3470428518141546,-0.5939875987713967,-0.4488461105938783,-0.14328649177160324,-0.02434515776288117,-0.015914876013994217,-0.5789706707000732,-0.026873379945755005,0.297680139541626,0.48016858100891113,0.9991106390953064,-0.018154326826334,-0.09534448385238647,0.5976048707962036,0.9782366156578064,-0.8550522923469543,-0.7820457816123962
0.24,0.22021593153476715,0.08326470851898193,-0.09100357443094254,-0.3014298677444458,0.005955812521278858,-0.012143809348344803,0.7253168821334839,0.466819167137146,-0.5787822008132935,0.1257782131433487,-0.2142385095357895,0.2496597021818161,0.19015536696842922,0.04080709689099091,-0.0644200161997777,-0.04902256115742559,0.0004347722011636367,-0.003842704067438653,0.7182180595755545,0.37013163201267185,-0.5886803944418312,-0.47066783238415966,-0.16699935399742222,-0.03467009956527496,-0.024287618696689606,-0.6028597354888916,0.006529420148581266,0.4336383044719696,0.5915564298629761,0.9986388087272644,0.011911625042557716,-0.18200714886188507,0.6004318594932556,0.9506337642669678,-0.8175644278526306,-0.856954038143158
0.26,0.22392185032367706,0.10120972245931625,-0.1235160157084465,-0.2941148281097412,0.028224634006619453,-0.019629579037427902,0.6618930101394653,0.555961012840271,-0.5218109488487244,0.20800910890102386,-0.22746311128139496,0.24921318888664246,0.18817253682732654,0.04665244572178582,-0.08681997411609023,-0.07207895476205475,0.014101944279137952,-0.0013929384092103412,0.7055613628980116,0.40711628771400316,-0.5698900796124664,-0.5016023738338089,-0.1881249508394328,-0.0464307990803627,-0.039259158074855804,-0.5882296562194824,0.0424194410443306,0.611922025680542,0.7560182213783264,0.9968527555465698,0.05644926801323891,-0.247032031416893,0.6078436970710754,0.8237860798835754,-0.7036218643188477,-0.9098524451255798
0.28,0.20875217020511627,0.090981625020504,-0.04564486816525459,-0.18727761507034302,0.02332879789173603,-0.02841452695429325,0.4899016320705414,0.6603881120681763,-0.3269602954387665,0.30941006541252136,-0.23645679652690887,0.24780750274658203,0.17990079131156375,0.04570656604989158,-0.09708137802711705,-0.08431253673909914,0.02674353672218418,-0.008755244058698814,0.6611350970692454,0.46022183633615277,-0.5119283656404314,-0.5356280858269472,-0.19961624742122078,-0.043171973287030846,-0.0568290539085865,-0.37455523014068604,0.021963246166706085,0.8207762837409973,0.958820104598999,0.9912300109863281,0.04665759578347206,-0.09128973633050919,0.5775043368339539,0.47980326414108276,-0.3139205873012543,-0.9458271861076355
0.3,0.1448952853679657,0.028576092794537544,0.07699105143547058,0.007637054659426212,-0.01731063611805439,-0.018315639346837997,0.47092241048812866,0.7310962677001953,0.19128601253032684,0.2897227704524994,-0.2307063788175583,0.23626454174518585,0.15674137308974656,0.0301362627377537,-0.08754459591657783,-0.07910888257614117,0.018611381012340854,-0.01167672749918379,0.6502121136492716,0.5265563511060911,-0.5234388355370292,-0.5512422448726962,-0.1254201367266758,-0.013964642995282217,-0.036631278693675995,0.015274109318852425,-0.10284781455993652,0.9621925950050354,0.9194455146789551,0.9450581669807434,-0.03462127223610878,0.15398210287094116,0.4497905671596527,0.44184479117393494,0.7225720286369324,-0.9228255152702332
0.32,0.05466289818286896,-0.043523915112018585,0.07492953538894653,0.08363757282495499,-0.05236371234059334,-0.011175841093063354,0.5544527769088745,0.7327876091003418,0.32757923007011414,-0.5518751740455627,-0.0011625242186710238,0.17843271791934967,0.1343236830416823,0.01577502773031994,-0.0740687228238392,-0.06148773105458419,0.01666123141907102,-0.011072031619387444,0.6355321519330999,0.5891533570205878,-0.5291353015545995,-0.5564151401591897,-0.08122157854726948,0.04393488448985635,-0.02235168218612671,0.16727514564990997,-0.24704782664775848,0.9655752778053284,-0.7637503743171692,0.7137308716773987,-0.10472742468118668,0.14985907077789307,0.26932579278945923,0.6089054942131042,0.9951584339141846,-0.004650096874684095
0.34,-0.0814356803894043,-0.13612604141235352,0.1406143456697464,0.12359987944364548,-0.05849868431687355,-0.004103814251720905,0.550945520401001,0.7314625978469849,0.3287942707538605,-0.6294119954109192,0.17820726335048676,0.1929088532924652,0.10646209002947082,0.007008508817333545,-0.06336294968510854,-0.03435879971934421,0.017282209712638667,0.0014143614271836821,0.6205287891539175,0.6421636914729925,-0.5327403886223477,-0.5682150058485905,-0.08499440599467586,0.10044744097525328,-0.00820762850344181,0.24719975888729095,-0.43225207924842834,0.962925136089325,-0.9188239574432373,0.7716354131698608,-0.1169973686337471,0.2812286913394928,-0.0028713608626276255,0.601891040802002,0.9975885152816772,0.712829053401947
0.36,-0.11175922304391861,-0.17359869182109833,0.1489977091550827,0.1407063603401184,-0.04964416101574898,-0.03214079514145851,0.5684900283813477,0.7238134741783142,0.32748672366142273,-0.609397828578949,0.21672415733337402,0.19945025444030762,0.08022322668743154,-0.007075310717600246,-0.046599474526247325,0.0018224729727126794,0.01624723340619624,-0.0055320732256455485,0.600465297521628,0.678748037967398,-0.5332733614594816,-0.5784163254487504,-0.08744444938200589,0.14113548109361063,-0.06428159028291702,0.2814127206802368,-0.507197380065918,0.9476269483566284,-0.8787956833839417,0.7978010177612305,-0.09928832203149796,0.2979954183101654,-0.06351844221353531,0.6369799971580505,0.9949734210968018,0.8668966293334961
0.38,-0.10048630088567734,-0.16357246041297913,0.1537461131811142,0.1684211939573288,-0.0389314629137516,-0.06348840147256851,0.5887001752853394,0.7117563486099243,0.32747021317481995,-0.59428870677948,0.22181981801986694,0.18424241244792938,0.05742431343080306,-0.022697924938404595,-0.026603969191535803,0.04195365974373341,0.012143603925023946,-0.03154986236427431,0.5853046024721966,0.6980378930942281,-0.5355096196824527,-0.581341601380134,-0.08411704012653147,0.16341305639834097,-0.12697680294513702,0.3368423879146576,-0.48714491724967957,0.9235126376152039,-0.8485773801803589,0.7369696497917175,-0.0778629258275032,0.3074922263622284,-0.04097260162234306,0.6774003505706787,0.9949404001235962,0.8872792720794678
0.4,-0.0854334831237793,-0.1376054584980011,0.15711459517478943,0.19741299748420715,-0.0260553490370512,-0.0865817666053772,0.6103159189224243,0.6926411390304565,0.32772234082221985,-0.5818155407905579,0.21929535269737244,0.16064780950546265,0.03623063436601394,-0.03606096697943025,-0.006505868629189736,0.08352184702709763,0.006230002971043782,-0.06092485800425844,0.5795365355618938,0.7027356489533267,-0.5421984451754358,-0.5791493712608354,-0.0730321269828582,0.16879351110800103,-0.1731635332107544,0.3948259949684143,-0.4352109134197235,0.8852822184562683,-0.8236310482025146,0.6425912380218506,-0.0521106980741024,0.31422919034957886,-0.010866967961192131,0.7206318974494934,0.995444655418396,0.8771814107894897
0.42,-0.07353512197732925,-0.10856953263282776,0.1627655178308487,0.23069244623184204,-0.011821730993688107,-0.10677369683980942,0.6396819353103638,0.6528851985931396,0.32810258865356445,-0.5596957206726074,0.2193007469177246,0.1343063861131668,0.016152746675305724,-0.04540631777936782,0.01165228409779776,0.12472190617070295,0.00015317686556717697,-0.08625551640678493,0.5846265606867026,0.6922951459118286,-0.5546295820941987,-0.5714982040029909,-0.05482971575664985,0.16178215675592847,-0.21354739367961884,0.4613848924636841,-0.37713906168937683,0.8057703971862793,-0.7793914079666138,0.5372255444526672,-0.023643461987376213,0.3255310356616974,0.012929758988320827,0.7793639302253723,0.9962051510810852,0.8772029876708984
0.44,-0.06253866851329803,-0.09128376841545105,0.14271807670593262,0.25159648060798645,0.002426152117550373,-0.12492575496435165,0.6727765798568726,0.5600297451019287,0.3287898302078247,-0.5116600394248962,0.22894886136054993,0.13780106604099274,0.000259602226979607,-0.05114073433953421,0.024954179441144028,0.16216173288017843,-0.0012788002865976918,-0.10795502750274982,0.5993023212482099,0.6586151326552515,-0.5708383181440323,-0.5530784914241904,-0.03204121190755462,0.15308869258106778,-0.2498515099287033,0.5031929612159729,-0.3425675332546234,0.6200594902038574,-0.6833200454711914,0.551204264163971,0.004852304235100746,0.28543615341186523,0.03492266312241554,0.8455532193183899,0.9975796341896057,0.9157954454421997
0.46,-0.04030228406190872,-0.08627331256866455,0.061702460050582886,0.1906975656747818,0.017423467710614204,-0.11220970004796982,0.7068780064582825,0.3876204192638397,0.3292382061481476,-0.4005136489868164,0.23031386733055115,0.19943122565746307,-0.006027277626705126,-0.054605868319196796,0.021549703713264222,0.18443071098438038,0.005221823693351703,-0.11718772058528978,0.6206553465271768,0.5878221197200028,-0.5788403274275675,-0.510701639334143,-0.01265652250389078,0.1595484566431858,-0.22441940009593964,0.3813951313495636,-0.3325466215610504,0.27524083852767944,-0.4610272943973541,0.7977249026298523,0.03484693542122841,0.12340492010116577,0.07939542829990387,0.9137560129165649,0.9984763860702515,0.9212554693222046
0.48,0.0533108115196228,-0.03842184692621231,0.02767920307815075,0.032730426639318466,0.032484620809555054,-0.04075653851032257,0.7413876056671143,0.37610211968421936,0.3224933445453644,-0.023254601284861565,0.1786884069442749,0.2429843544960022,-0.0015615154314749717,-0.06345668817653571,-0.009442103268231344,0.1785036600796317,0.02022348038392461,-0.09041443611418817,0.6516517288131686,0.5165706405373008,-0.5729171594501138,-0.4019085765191891,0.001908832482677326,0.17878051053057398,-0.08151307702064514,0.06546085327863693,-0.23684369027614594,0.2522042393684387,0.29349079728126526,0.9719374179840088,0.06496924161911011,0.0553584061563015,0.2666216194629669,0.9827752113342285,0.9849866628646851,0.7147536277770996
0.5,0.11303159594535828,-0.031135989353060722,-0.032025981694459915,-0.04520836099982262,0.03799380362033844,-4.4263895688345656e-05,0.7478786706924438,0.44048285484313965,-0.507872998714447,0.3135726749897003,0.06274289637804031,0.21008415520191193,0.01582685186838111,-0.06863003925484867,-0.033457943186720684,0.1636501806758321,0.0312971222165286,-0.05766879545902064,0.6891214364529664,0.5170586614620649,-0.5709594334265048,-0.4271441057378136,0.02128354117692751,0.13574975717266205,-8.852779137669131e-05,-0.09041672199964523,-0.22227197885513306,0.3809657096862793,0.9671453237533569,0.8403366208076477,0.07598760724067688,-0.06405196338891983,0.38606318831443787,0.9957573413848877,-0.6757460236549377,0.25097158551216125
0.52,0.13286665081977844,-0.008953278884291649,-0.09432761371135712,-0.12319893389940262,0.05578145757317543,0.015002824366092682,0.7398542165756226,0.49534374475479126,-0.6248087286949158,0.32385602593421936,0.005897739436477423,0.22047607600688934,0.03179887369593802,-0.069527714945359,-0.04105700961116416,0.15252813490438666,0.044491065311061194,-0.07023070708684916,0.7078960835919842,0.526221573571924,-0.578511617414805,-0.4477790646888827,0.02415016151674975,0.13924434852540388,0.030005648732185364,-0.24639786779880524,-0.1779065579175949,0.4906874895095825,0.987712025642395,0.8819043040275574,0.11156291514635086,-0.18865522742271423,0.4257332980632782,0.9797084927558899,-0.9096174836158752,0.02359095774590969
0.54,0.1596316397190094,0.02472398243844509,-0.08399736136198044,-0.14071859419345856,0.03037751279771328,0.012758464552462101,0.739533543586731,0.5341089963912964,-0.6248779296875,0.3236097991466522,-0.021574731916189194,0.21038298308849335,0.04552763288573483,-0.0670096365389705,-0.05679719522643581,0.1385042572137526,0.043973275490864924,-0.07130183139250602,0.7185691006072698,0.5291659957680678,-0.58944536162259,-0.46238846656149546,0.013274421126181107,0.13954695349950968,0.025516929104924202,-0.2814371883869171,-0.11055203527212143,0.5682180523872375,0.9872195720672607,0.8415319323539734,0.06075502559542656,-0.16799472272396088,0.4792632758617401,0.9790671467781067,-0.9097558259963989,-0.08629892766475677
0.56,0.17112909257411957,0.047616999596357346,-0.06572026014328003,-0.13044041395187378,0.005668956786394119,0.008540407754480839,0.7419736981391907,0.529901385307312,-0.6298413872718811,0.3214964270591736,-0.03156699612736702,0.20146453380584717,0.05771369466889816,-0.05893066668553627,-0.07306878854805886,0.12572096389568518,0.03012681644237907,-0.06657284483825301,0.7281588140217248,0.5272626090838104,-0.5994708848455635,-0.47306355615782186,-0.00048060163013304924,0.13874019861611878,0.017080815508961678,-0.26088082790374756,-0.06476599723100662,0.5598027110099792,0.9829928278923035,0.8058581352233887,0.011337913572788239,-0.13144052028656006,0.5022581815719604,0.9839473962783813,-0.9196827411651611,-0.12626798450946808
0.58,0.17979539930820465,0.06332261115312576,-0.043291181325912476,-0.12870265543460846,-0.015457553789019585,0.005064469296485186,0.7449685335159302,0.506941556930542,-0.6347630023956299,0.3151913583278656,-0.03748542070388794,0.20992131531238556,0.07061732988164533,-0.04626503135148587,-0.08311328935666233,0.11743686127757212,0.01152245400200823,-0.058964813792084694,0.7362447957367787,0.5182052470675732,-0.6080954523522921,-0.4790152149638076,-0.012305331875044453,0.13776295618560241,0.010128938592970371,-0.2574053108692169,-0.033354777842760086,0.5138831734657288,0.9703826904296875,0.8396852612495422,-0.03091510757803917,-0.08658236265182495,0.5195907950401306,0.9899370670318604,-0.9295260310173035,-0.14994168281555176
0.6,0.19129110872745514,0.07467639446258545,-0.031729958951473236,-0.1419396847486496,-0.02937765046954155,0.002838252577930689,0.7467354536056519,0.48044636845588684,-0.6359130144119263,0.3052193522453308,-0.04838846996426582,0.2259383201599121,0.08557476123444094,-0.03124525790132083,-0.08604912726979408,0.11268917119511193,-0.006078064440184304,-0.050068884209161175,0.7416149574191551,0.503619726161013,-0.6145070309016093,-0.48156957594709043,-0.02308059947350765,0.1367627103671072,0.005676505155861378,-0.2838793694972992,-0.01064720842987299,0.4608927369117737,0.9504386782646179,0.9037532806396484,-0.0587553009390831,-0.06345991790294647,0.5425822138786316,0.9934709072113037,-0.9318259954452515,-0.1935538798570633
0.62,0.2050725668668747,0.08128581196069717,-0.03004763089120388,-0.15925884246826172,-0.03554220497608185,0.0011370801366865635,0.7474748492240906,0.4594344198703766,-0.6350195407867432,0.2955121397972107,-0.06481193006038666,0.23535490036010742,0.10302299559408465,-0.0158279548693868,-0.08425169825313782,0.10854073083460766,-0.01921325934715755,-0.04091706888956563,0.7440780010382669,0.4868267141657338,-0.6183067616372869,-0.4829326098847653,-0.03516160063758966,0.1355000124239702,0.002274160273373127,-0.31851768493652344,0.002571627264842391,0.4188688397407532,0.9310242533683777,0.9414196014404297,-0.0710844099521637,-0.06009526178240776,0.5701451301574707,0.9949496984481812,-0.9300390481948853,-0.25924772024154663
0.64,0.2175106257200241,0.08209230750799179,-0.030738597735762596,-0.16928407549858093,-0.03638807311654091,-0.00011016869393642992,0.7476674318313599,0.4465065598487854,-0.6336142420768738,0.2903500199317932,-0.08171433210372925,0.2385697066783905,0.122661602565797,-0.0011331921638447747,-0.08008827459192103,0.10285065013578842,-0.026571640999515585,-0.03207324577484046,0.7442933077934569,0.4706443174606885,-0.6200870858826449,-0.48492875302683125,-0.049128066855813494,0.13375168144454655,-0.00022033738787285984,-0.33856815099716187,0.004184610676020384,0.3930130898952484,0.9207000136375427,0.954278826713562,-0.07277614623308182,-0.06147719547152519,0.5950212478637695,0.995334804058075,-0.9272285103797913,-0.326857328414917
0.66,0.22724293172359467,0.07943154126405716,-0.03327985107898712,-0.1697351336479187,-0.034868013113737106,-0.0010232573840767145,0.7475912570953369,0.44147512316703796,-0.6316465139389038,0.2906176745891571,-0.09504985809326172,0.23901718854904175,0.14352773000411195,0.012460283384499825,-0.07498143772009361,0.09497670638995168,-0.029354382676214985,-0.023652066989314473,0.7430682534701646,0.45702785537868157,-0.6206407605876504,-0.4887984749383578,-0.06366990923702744,0.13139795315684819,-0.002046514768153429,-0.3394702672958374,-0.0011369152925908566,0.3829502463340759,0.9212353229522705,0.956068754196167,-0.06973602622747421,-0.06655970215797424,0.6144858598709106,0.995182454586029,-0.9232929944992065,-0.3801994323730469
0.68,0.23520223796367645,0.07662755250930786,-0.03976215794682503,-0.1652025580406189,-0.03230178728699684,-0.0018229781417176127,0.7472699880599976,0.4438653588294983,-0.6287780404090881,0.29506251215934753,-0.10540249943733215,0.2381841391324997,0.16441967727937976,0.024943519249023056,-0.06982212298936886,0.08507712423717326,-0.02983212932647763,-0.015639275448061592,0.7410633890039955,0.447378860304007,-0.6205407784336681,-0.4954450587112383,-0.07740676580890968,0.12833653297085562,-0.0036459562834352255,-0.3304051160812378,-0.006744894199073315,0.3877306878566742,0.9301249980926514,0.9527365565299988,-0.06460357457399368,-0.07952431589365005,0.6304044723510742,0.9945400357246399,-0.91755610704422,-0.4216099977493286
0.7000000000000001,0.24226294457912445,0.0759459063410759,-0.05146530643105507,-0.16044968366622925,-0.028098493814468384,-0.00255826604552567,0.7465263605117798,0.45398280024528503,-0.6242492198944092,0.302226722240448,-0.11477004736661911,0.23640410602092743,0.18420243669384895,0.03646726516622291,-0.06540808919291519,0.07334415707234695,-0.02911319379138781,-0.008144580271931436,0.7386994696882413,0.4428191072589599,-0.6195415257349794,-0.5056347436385586,-0.08995756958505294,0.12448245140162442,-0.00511653209105134,-0.3208993673324585,-0.008108180947601795,0.40796560049057007,0.9444534182548523,0.9456164240837097,-0.05619698762893677,-0.10293061286211014,0.6445258855819702,0.9930527806282043,-0.9084984064102173,-0.45908018946647644
0.72,0.24808664619922638,0.07870195060968399,-0.0723036602139473,-0.1581653356552124,-0.020090818405151367,-0.0032361014746129513,0.7448195219039917,0.47381865978240967,-0.616243302822113,0.31070297956466675,-0.12406079471111298,0.23321767151355743,0.20177385693511654,0.04731556199266692,-0.0629620132866919,0.059493754025793336,-0.026640859309663523,-0.0015263329226503138,0.7360805446395652,0.4445356735790586,-0.6167843929103991,-0.5202286676634568,-0.10164372018720098,0.11970871162540359,-0.0064722029492259026,-0.3163306713104248,-0.002596096368506551,0.44763728976249695,0.9614059329032898,0.9328706860542297,-0.040181636810302734,-0.1446073204278946,0.6561732888221741,0.9896389842033386,-0.892486572265625,-0.4962431788444519
0.74,0.25128963589668274,0.08635424077510834,-0.11190474033355713,-0.16066135466098785,-0.004624563734978437,-0.0038672820664942265,0.7403702735900879,0.5075074434280396,-0.6008935570716858,0.3193197548389435,-0.13234129548072815,0.22707614302635193,0.21575117507527303,0.05790712675542206,-0.06486946420850034,0.04224199184426926,-0.02039009132707348,0.0036258830961318853,0.7327442680750389,0.454416730962064,-0.6106430071323797,-0.5405623979477767,-0.11273835254790865,0.11375012637548851,-0.007734564132988453,-0.3213227093219757,0.012708480469882488,0.5150148272514343,0.9786394834518433,0.9083045721054077,-0.009249127469956875,-0.22380948066711426,0.6625792980194092,0.980740487575531,-0.8617870807647705,-0.5293651819229126
0.76,0.252187579870224,0.10098636150360107,-0.17367501556873322,-0.16726675629615784,0.021025216206908226,-0.0047562918625772,0.7253793478012085,0.5555797815322876,-0.5710150599479675,0.32547813653945923,-0.138145312666893,0.21262718737125397,0.22474222092245322,0.06877012313705883,-0.07464845336585728,0.01946592456463242,-0.007512751606991846,0.006302654988413405,0.7266528030810734,0.47426023053700944,-0.5979621352223492,-0.5680574342346029,-0.12299521306222883,0.10620767768465103,-0.0095125837251544,-0.3345335125923157,0.04197273030877113,0.6111595630645752,0.9909562468528748,0.8505087494850159,0.04205043241381645,-0.34735003113746643,0.6643751859664917,0.9507586359977722,-0.8020301461219788,-0.552581250667572
0.78,0.25482243299484253,0.11789797246456146,-0.2334682196378708,-0.1662224680185318,0.056872330605983734,-0.007018539123237133,0.6652249693870544,0.6108534932136536,-0.4986647665500641,0.3287249803543091,-0.14446240663528442,0.17939214408397675,0.22862943602870098,0.07883146522201008,-0.09400074751046272,-0.00972495211071855,0.015777865868374163,0.005895034463268555,0.7085723412874451,0.5033099204484053,-0.5698379895317189,-0.6026263549337962,-0.13238047446949047,0.09687582525105641,-0.014037078246474266,-0.3324449360370636,0.07579594105482101,0.7217069864273071,0.9974499344825745,0.717568576335907,0.11374466121196747,-0.4669364392757416,0.6696448922157288,0.8304499387741089,-0.6573295593261719,-0.5778496265411377
0.8,0.23777733743190765,0.10980450361967087,-0.22478452324867249,-0.11668117344379425,0.08749273419380188,-0.019300295040011406,0.5221782326698303,0.6689366102218628,-0.35447296500205994,0.32984575629234314,-0.17718297243118286,0.12274402379989624,0.22730157397820971,0.08486497644891462,-0.11632710609573331,-0.03891672443384942,0.04778161500977558,-0.0010448113001313697,0.6668554062819126,0.5389083691335884,-0.49976934386231325,-0.6404682674595896,-0.1395950081780741,0.08668497348716432,-0.03860059008002281,-0.2333623468875885,0.05960901454091072,0.8378732204437256,0.9996914863586426,0.49097609519958496,0.17498546838760376,-0.44956904649734497,0.6355546712875366,0.5443564653396606,-0.3689459562301636,-0.7087318897247314
0.8200000000000001,0.17236565053462982,0.07600010931491852,-0.12000962346792221,-0.040892720222473145,0.06783856451511383,-0.02340761572122574,0.3829403817653656,0.7274125814437866,0.00077998818596825,0.32996970415115356,-0.2325206696987152,0.044772546738386154,0.20760024690646722,0.08148030804739771,-0.13149828549537576,-0.05988894913528757,0.06102475551644636,-0.005733587112561489,0.6281443683520541,0.5838562734925461,-0.4406018157887664,-0.6675862283095361,-0.11133255176704589,0.07531713539073297,-0.04681523144245148,-0.08178544044494629,-0.007999787107110023,0.954825222492218,0.9999393820762634,0.17909018695354462,0.13567712903022766,-0.24001924693584442,0.504731297492981,0.2658807635307312,0.3415599763393402,-0.9300826787948608
0.84,0.1039213240146637,0.02794153429567814,-0.008280182257294655,0.07816150039434433,0.018337633460760117,-0.01474058162420988,0.5046589374542236,0.74495929479599,0.3235264718532562,0.32938191294670105,-0.2389385849237442,-0.03531782701611519,0.1819735866890659,0.07079525575097316,-0.12222430858823284,-0.05864253865741623,0.07016252656824355,-0.015824269897754546,0.6004357339173919,0.625461852959515,-0.45028632056977985,-0.6623850198038949,-0.04407144249214291,0.0636856798482956,-0.02948116324841976,0.15632300078868866,-0.10411693155765533,0.98991858959198,0.9987637996673584,-0.14127130806446075,0.03667526692152023,-0.01656036451458931,0.3678426444530487,0.5093178749084473,0.9870529174804688,-0.9557543396949768
0.86,-0.02486777864396572,-0.047121867537498474,0.0022722745779901743,0.1283891648054123,-0.016609255224466324,0.00653834780678153,0.5754479765892029,0.7429698705673218,0.32965564727783203,0.2802020311355591,-0.15306460857391357,-0.03988324850797653,0.1551892051070104,0.06894756327910982,-0.0993904064265876,-0.037621688855127594,0.06355732343926385,-0.014905088666975477,0.5855201609269451,0.665093433444213,-0.4622997942065413,-0.6261583309929324,-0.011004055470008604,0.05665980543235509,0.01307669561356306,0.2567783296108246,-0.25424373149871826,0.9859397411346436,0.9004040360450745,-0.15953299403190613,-0.03321851044893265,0.004544549155980349,0.11026444286108017,0.6508959531784058,0.9993112683296204,-0.6122584342956543
0.88,-0.09915807843208313,-0.0916978120803833,0.06346404552459717,0.17364467680454254,-0.04155956208705902,0.0004725877079181373,0.6043036580085754,0.7375138401985168,0.3296811878681183,-0.41260436177253723,0.09092605859041214,0.00920881424099207,0.12860317154342327,0.07037776336960737,-0.07265096709212077,-0.004434746130245306,0.05026833802276385,-0.0012590577151197374,0.5788817948530052,0.7006951380025752,-0.47532307376533034,-0.5741867916691342,-0.014583691190523029,0.04793993012548144,0.0009451754158362746,0.3472893536090851,-0.3433956205844879,0.9750276803970337,-0.4852087199687958,0.03683525696396828,-0.08311912417411804,0.12692809104919434,-0.03831615671515465,0.7086073160171509,0.9993623495101929,0.36370423436164856
0.9,-0.1586035043001175,-0.15685510635375977,0.15571469068527222,0.20559024810791016,-0.03929440304636955,-0.010547290556132793,0.5869499444961548,0.7344700694084167,0.32961398363113403,-0.6037571430206299,0.19811004400253296,0.07547512650489807,0.10345394219992506,0.063833421570713,-0.041196617812084405,0.036269396694809664,0.036775236511340806,0.005434640408553826,0.5681167498981029,0.7293572577881409,-0.48483878800916214,-0.5581571933167564,-0.015322368626437663,0.05189120147429925,-0.021094581112265587,0.4111804962158203,-0.47371020913124084,0.9689401388168335,-0.8675143122673035,0.3019005060195923,-0.0785888060927391,0.31142938137054443,-0.15720701217651367,0.6738998293876648,0.9992279410362244,0.7924401760101318
0.92,-0.1554160714149475,-0.16904819011688232,0.1750112622976303,0.19363990426063538,-0.03464093059301376,-0.03982095047831535,0.5903316736221313,0.7305914163589478,0.32929202914237976,-0.6104199290275574,0.21387052536010742,0.1218251958489418,0.07920276415452163,0.04731139568014391,-0.0076177455410456184,0.07607070045774113,0.02742931773878834,-0.010011153907538406,0.5540354457054726,0.7450441163394173,-0.49218780587129135,-0.5636299864054604,-0.013402353781869202,0.07118583670821056,-0.0796419009566307,0.38727980852127075,-0.49809637665748596,0.9611827731132507,-0.8808398246765137,0.4873007833957672,-0.06928186118602753,0.3500225245952606,-0.1508321464061737,0.6806633472442627,0.9985840320587158,0.8554821014404297
0.9400000000000001,-0.1235860213637352,-0.14055386185646057,0.18100550770759583,0.19022402167320251,-0.02801656164228916,-0.06558380275964737,0.5984874367713928,0.7235226035118103,0.3290535509586334,-0.609619677066803,0.19276116788387299,0.12613478302955627,0.05436407513780433,0.026210583296071385,0.024059370395591608,0.11083887549845951,0.010472586475120022,-0.03838307743195953,0.5439756012668636,0.7499600711752346,-0.5021394353236329,-0.5737666512624129,-0.008584886664197678,0.09150855151176825,-0.13116760551929474,0.38044804334640503,-0.44110772013664246,0.9470452070236206,-0.8792393207550049,0.5045391321182251,-0.05603312328457832,0.36201101541519165,-0.08717204630374908,0.6969748735427856,0.9981070756912231,0.7710446715354919
0.96,-0.09162087738513947,-0.0903017669916153,0.19335877895355225,0.21131734549999237,-0.020378608256578445,-0.092472605407238,0.6174678802490234,0.7049188613891602,0.32910287380218506,-0.605789303779602,0.15963353216648102,0.09074747562408447,0.027397525834033827,0.006920902141063785,0.052218484257723505,0.1407904865943769,-0.010689630813844908,-0.06764967683172463,0.5438937280437522,0.7432593147337422,-0.5182488175699089,-0.5820064427883072,-0.003914898703569197,0.09818603386851593,-0.184945210814476,0.42263469099998474,-0.3406035304069519,0.9098376631736755,-0.8715786337852478,0.3629899024963379,-0.04075721651315689,0.3867175579071045,-0.02324175275862217,0.7349357008934021,0.9982057213783264,0.6385341286659241
0.98,-0.07497140020132065,-0.057280972599983215,0.20424120128154755,0.25491005182266235,-0.015883678570389748,-0.12067002803087234,0.6481212377548218,0.6522411704063416,0.3293655812740326,-0.576757550239563,0.17746476829051971,0.059014637023210526,0.002515429270149787,-0.007131576412132059,0.07656815555793495,0.16845880919487033,-0.020966031046605403,-0.09576056361170265,0.5579804995673989,0.7197499823835641,-0.5420893335394525,-0.5817026144110101,0.0029978432255565726,0.09050886459638469,-0.2413400560617447,0.5098201036453247,-0.27456194162368774,0.8044823408126831,-0.8135150671005249,0.2360585480928421,-0.031767357140779495,0.4084824025630951,0.010057205334305763,0.7962424755096436,0.9987311363220215,0.7098590731620789
1.0,-0.07197043299674988,-0.05270978808403015,0.18356461822986603,0.2856995761394501,-0.013110081665217876,-0.14180970191955566,0.6816511154174805,0.521356463432312,0.32971030473709106,-0.49154427647590637,0.2234307825565338,0.09461399167776108,-0.015558139922752656,-0.015930748707649964,0.09531947919058482,0.19429292521187447,-0.021172141215791737,-0.12046533304431405,0.582921579442944,0.6665136734172229,-0.5698377717562678,-0.559265667734595,0.01284320731468583,0.08734778135653544,-0.28361940383911133,0.5713991522789001,-0.2654195725917816,0.5427129864692688,-0.6430885791778564,0.3784559667110443,-0.026220163330435753,0.36712923645973206,0.016059137880802155,0.8633022904396057,0.9994205832481384,0.8937231302261353
1.02,-0.03663850575685501,-0.047120362520217896,0.06301257014274597,0.20197656750679016,-0.00762430764734745,-0.11572052538394928,0.719694972038269,0.3151250183582306,0.32987287640571594,-0.24714265763759613,0.2357332855463028,0.20877018570899963,-0.020819946419409426,-0.022722629770812706,0.09236990001194573,0.20378906324447912,-0.0164511293377215,-0.12597258848069942,0.6137744478742901,0.5706530481000662,-0.5879090999741082,-0.4819891233152396,0.02445514517245069,0.11303288621515778,-0.23144105076789856,0.4039531350135803,-0.2542407214641571,0.13025003671646118,-0.15428531169891357,0.8350807428359985,-0.0152486152946949,0.12602514028549194,0.08672298491001129,0.9393899440765381,0.9997457265853882,0.9429331421852112
1.04,0.0977967381477356,0.030089477077126503,0.028188273310661316,0.014454681426286697,0.004186329431831837,-0.03421100601553917,0.7466957569122314,0.355164110660553,0.3233572840690613,0.22635896503925323,0.17099878191947937,0.24553905427455902,-0.01159665103402331,-0.03181390745763815,0.06108762063548053,0.18374627650578157,-0.007407861665560249,-0.0995795162767683,0.6533392927452543,0.5100888170034551,-0.5901119447802953,-0.44116885073563405,0.04091599985623363,0.16666829549715187,-0.06842201203107834,0.028909362852573395,-0.0998210459947586,0.21032822132110596,0.7927179336547852,0.9821562170982361,0.008372658863663673,0.05637654662132263,0.3555934727191925,0.9933915138244629,0.9867145419120789,0.6839951276779175
1.06,0.14630545675754547,0.04305087774991989,-0.08163058012723923,-0.0819527879357338,0.04697626456618309,0.002563868649303913,0.7485059499740601,0.49755895137786865,-0.5192481279373169,0.32973164319992065,0.0791168287396431,0.1069146916270256,0.008182788687108828,-0.03598052006832194,0.03449064185943505,0.15766482066928006,0.014475484195701287,-0.08003190337444735,0.690646073373626,0.5218050515329605,-0.5823043885531966,-0.4806692465918843,0.05521935224499542,0.14525113889609345,0.005127737298607826,-0.1639055758714676,-0.07389824092388153,0.4951179027557373,0.9994632601737976,0.4276587665081024,0.09395252913236618,-0.16326116025447845,0.45261090993881226,0.9970118999481201,-0.6984962821006775,0.3164673149585724
1.08,0.17833812534809113,0.06177310273051262,-0.15434888005256653,-0.1297818124294281,0.06033206731081009,0.013620096258819103,0.7386214733123779,0.5594258308410645,-0.6162158846855164,0.3295972943305969,0.03818988427519798,-0.10137403011322021,0.025235379194191585,-0.04069383159749223,0.006157219050378359,0.13451536741717682,0.03511503653021105,-0.07994100766389985,0.7114431931753076,0.5378940556296398,-0.5833857419364061,-0.5072550198113619,0.05350035653104672,0.1470871793677069,0.027240192517638206,-0.2595636248588562,-0.036453790962696075,0.6188516616821289,0.9991945624351501,-0.40549612045288086,0.12066413462162018,-0.30869776010513306,0.5166762471199036,0.9772429466247559,-0.8924317955970764,0.15275953710079193
1.1,0.18114210665225983,0.08613469451665878,-0.22473786771297455,-0.0928880050778389,0.058822523802518845,0.007627193350344896,0.7288587093353271,0.603416383266449,-0.6149184107780457,0.32964855432510376,0.01960483007133007,-0.1915966123342514,0.036997060653019866,-0.03925802825965514,-0.037440132568966666,0.10503913410805413,0.043804103331032324,-0.06982660365400636,0.7215473549361102,0.5514015479306105,-0.5878290358027137,-0.5304019918078643,0.042871981213336914,0.14562084082377016,0.015254386700689793,-0.1857760101556778,0.012269383296370506,0.706832766532898,0.9992970824241638,-0.7663864493370056,0.11764504760503769,-0.4494757354259491,0.522284209728241,0.9577173590660095,-0.889836847782135,0.07841932028532028
1.12,0.17984695732593536,0.10402730107307434,-0.2628287971019745,-0.07697750627994537,0.06084677204489708,-0.003262839512899518,0.7142565250396729,0.6259667277336121,-0.6012279987335205,0.32963117957115173,0.002782626310363412,-0.1966286599636078,0.04607628224597212,-0.0311922501490108,-0.08608396032228186,0.07590152620499949,0.04697425973536923,-0.05590941531896802,0.7257319200484722,0.562735881838817,-0.5898372780603663,-0.5514592443914644,0.02903133637558251,0.14135476268925712,-0.006525679025799036,-0.15395501255989075,0.04805459827184677,0.7519334554672241,0.9992623329162598,-0.7865146398544312,0.12169354408979416,-0.525657594203949,0.519693911075592,0.9285131096839905,-0.8624560236930847,0.011130505241453648
1.1400000000000001,0.17659525573253632,0.10720313340425491,-0.27617013454437256,-0.09032805263996124,0.06652424484491348,-0.010538626462221146,0.691569447517395,0.6428446769714355,-0.5681757926940918,0.3295935094356537,-0.024049103260040283,-0.186721071600914,0.05573191233798029,-0.01977274728366081,-0.13227737699134404,0.05095581555592567,0.05216168508164492,-0.04311980997140025,0.7224247422997143,0.5733148431748967,-0.583332487549549,-0.5718487824705342,0.01195521969311783,0.1311265881807921,-0.02107725292444229,-0.18065610527992249,0.05440627411007881,0.7856894135475159,0.9991869926452637,-0.746884286403656,0.13304848968982697,-0.5523402690887451,0.513190507888794,0.88313889503479,-0.7963515520095825,-0.09619641304016113
1.16,0.17198874056339264,0.09925457090139389,-0.2804209887981415,-0.10667245835065842,0.07682990282773972,-0.01734154298901558,0.6455228328704834,0.6649318337440491,-0.4857940077781677,0.3296016752719879,-0.08496762812137604,-0.1721809357404709,0.06694153036945519,-0.007987462726293942,-0.1731211271600751,0.03126714412139511,0.06185939948005022,-0.030577293534372572,0.7067522143423551,0.5859282472710367,-0.5574774273940447,-0.593283513229723,-0.015598222341702878,0.11558630950072292,-0.03468308597803116,-0.21334491670131683,0.03850914165377617,0.8298636674880981,0.9992033243179321,-0.6887237429618835,0.15365980565547943,-0.560841977596283,0.5039774775505066,0.7910456657409668,-0.6315880417823792,-0.33987051248550415
1.18,0.15303561091423035,0.0741150975227356,-0.2382964938879013,-0.07451926916837692,0.08437267690896988,-0.02746284008026123,0.5486363172531128,0.7035338282585144,-0.2547840178012848,0.3297773003578186,-0.18952350318431854,-0.1485484093427658,0.07704934826606082,0.0007278156546120381,-0.20173283484882512,0.02246467035915896,0.07553145628373185,-0.023631475325493884,0.6682304353400961,0.6047799260531771,-0.4815261024082843,-0.6105336791942196,-0.06388541745646124,0.10156434052362574,-0.05492568016052246,-0.14903853833675385,-0.01176980696618557,0.9070676565170288,0.9995545744895935,-0.5941936373710632,0.16874535381793976,-0.4765929877758026,0.466071218252182,0.5972725749015808,-0.1695680320262909,-0.7580940127372742
1.2,0.07828877866268158,-0.00429784320294857,-0.12501417100429535,0.004996952135115862,0.05994304642081261,-0.017249181866645813,0.45968592166900635,0.7388545274734497,0.25482627749443054,0.32970061898231506,-0.23923279345035553,-0.11320876330137253,0.07563539499643884,-0.0001432300405659634,-0.21355164130331197,0.028562760601714223,0.08635898908122278,-0.015372426193920494,0.6397004253051358,0.6342302515502488,-0.45843224271574223,-0.615060071164552,-0.13222788893216447,0.09001326312603308,-0.034498363733291626,0.009993904270231724,-0.16859568655490875,0.9777090549468994,0.9994012117385864,-0.4528350532054901,0.11988609284162521,-0.2500283420085907,0.3165775537490845,0.4193718731403351,0.8496525287628174,-0.9569311738014221
1.22,-0.005798341706395149,-0.06119869649410248,-0.03435041382908821,0.12927687168121338,0.00980550330132246,-0.012246496044099331,0.5797322392463684,0.7416937351226807,0.3294143080711365,0.31556951999664307,-0.20119121670722961,-0.0679294615983963,0.06152176875348479,-0.007580351258568057,-0.19439349709460932,0.05484485132014,0.07527383617532697,-0.012807911800706038,0.6252524189759079,0.6623440187969956,-0.484129073746541,-0.5967222581906901,-0.1859210796315851,0.08010995317677079,-0.024492992088198662,0.25855374336242676,-0.28239738941192627,0.9833874702453613,0.9711390137672424,-0.2717178463935852,0.01961100660264492,-0.06870082765817642,0.1484033167362213,0.6594644784927368,0.9988285899162292,-0.8047648668289185
1.24,-0.10943885147571564,-0.08219443261623383,0.017891906201839447,0.25319385528564453,-0.03189820051193237,-0.037132736295461655,0.6419395208358765,0.724197268486023,0.32996273040771484,0.023843111470341682,0.15480589866638184,-0.034928396344184875,0.03611998225036571,-0.0054003090117354996,-0.14755751883327783,0.09815320459838203,0.03140685991283333,-0.02345613373946011,0.6127669835113981,0.6860858234822973,-0.5227516281998216,-0.561824728690946,-0.12372586308933214,0.06789465834704216,-0.07426547259092331,0.5063877105712891,-0.32438886165618896,0.9483945965766907,0.38768622279167175,-0.1397135853767395,-0.06379640102386475,0.035783812403678894,-0.05887771025300026,0.7838791012763977,0.999925434589386,0.6192235946655273
1.26,-0.20268326997756958,-0.06977644562721252,0.09066344797611237,0.3466108441352844,-0.05298285186290741,-0.0928296148777008,0.6612269878387451,0.6866251826286316,0.3299962282180786,-0.515826940536499,0.24925246834754944,-0.02954021282494068,-0.001537878492324582,0.008921894210469237,-0.09083531361116741,0.14809617692362403,-0.021640861292060318,-0.04961756133225736,0.6069508942178725,0.6982943058678519,-0.5886246901554899,-0.5337193018767323,-0.028636315909860342,0.04343176978555487,-0.1856592297554016,0.6932216882705688,-0.29955288767814636,0.8732503652572632,-0.6916539072990417,-0.11816085129976273,-0.10596570372581482,0.18132689595222473,-0.24536652863025665,0.822454035282135,0.9999924302101135,0.9970098733901978
1.28,-0.2632523775100708,-0.028882822021842003,0.16209197044372559,0.424670934677124,-0.07929103821516037,-0.17191562056541443,0.6609319448471069,0.6071967482566833,0.3299996852874756,-0.6018730401992798,0.24993936717510223,0.015075747855007648,-0.043539855298419375,0.03481701550529119,-0.04177666688560271,0.19480916601902934,-0.04745909376625098,-0.10158470883243088,0.6107846701277019,0.6841439956413876,-0.640784729898625,-0.5335604366677335,-0.01826326500812881,0.028638023527605264,-0.34383124113082886,0.849341869354248,-0.21776564419269562,0.7143934965133667,-0.8637460470199585,0.060302991420030594,-0.15858207643032074,0.32418394088745117,-0.3665047287940979,0.8218639492988586,0.9999993443489075,0.9997574687004089
1.3,-0.28834497928619385,0.000656450109090656,0.15153492987155914,0.44261613488197327,-0.10516089200973511,-0.21018347144126892,0.683314323425293,0.4899720549583435,0.3299998939037323,-0.5786733627319336,0.24998188018798828,0.08375118672847748,-0.08088392138861031,0.06416576104754414,-0.011355037741649615,0.22504142387060916,-0.059274268378160834,-0.16879331941094228,0.6197597898737776,0.6422051839215112,-0.6603037354705318,-0.5444941522024204,-0.03833963882378871,0.03669710979571902,-0.42036694288253784,0.8852322697639465,-0.15868709981441498,0.479944109916687,-0.8173467516899109,0.3350047469139099,-0.21032178401947021,0.3030698597431183,-0.4166899621486664,0.8666286468505859,0.9999997615814209,0.9999275207519531
1.32,-0.2941094934940338,-0.016642576083540916,0.15416595339775085,0.44214144349098206,-0.13278162479400635,-0.19664213061332703,0.716958224773407,0.27595189213752747,0.33000001311302185,-0.293255478143692,0.24995960295200348,0.2137516587972641,-0.10690841530087197,0.08225351328835172,-0.009537593895407058,0.22471545234741533,-0.09179852945747553,-0.20696143259069116,0.6247149391838213,0.5571652994821704,-0.6645227776039561,-0.4944428054384801,-0.024302074421520464,0.07713468739181656,-0.39328426122665405,0.8842828869819641,-0.19328515231609344,0.05190379172563553,-0.24651093780994415,0.8550066351890564,-0.2655632495880127,0.3083319067955017,-0.4282189607620239,0.933916449546814,1.0,0.9998384118080139
1.34,-0.14271530508995056,0.09281564503908157,0.03264486789703369,0.35730358958244324,-0.14763537049293518,-0.14357660710811615,0.74842369556427,0.12529326975345612,0.32999977469444275,0.1511555165052414,0.24914133548736572,0.24851106107234955,-0.11001358080481571,0.09813475911992976,-0.01681696623065141,0.21970927152790456,-0.12894035621822436,-0.1934059089311844,0.6429170857028941,0.4578983941813703,-0.6636596275039759,-0.4823387339405071,0.0036404136197210465,0.14493080489654228,-0.2871532142162323,0.7146071791648865,0.025631293654441833,-0.24941346049308777,0.6423110365867615,0.9940442442893982,-0.29527074098587036,0.06528973579406738,-0.12543059885501862,0.99684739112854,0.9999995231628418,0.9965653419494629
1.36,0.02649795077741146,0.2574228048324585,-0.09791295975446701,0.17510463297367096,-0.1594438999891281,-0.05848955735564232,0.7498526573181152,0.25950148701667786,0.32992011308670044,0.3283253610134125,0.24411427974700928,0.24494753777980804,-0.09504678801761854,0.12134880424172664,-0.03404664668119342,0.20648982575739702,-0.1553833922779043,-0.1260863251289296,0.6751981926281729,0.38791646091087384,-0.6502343255837533,-0.4763191844113255,0.02775523581432581,0.1713830497939975,-0.11697911471128464,0.3502092659473419,0.3548455834388733,0.01900300197303295,0.9966506958007812,0.9797901511192322,-0.3188877999782562,-0.19582591950893402,0.21299590170383453,0.9997053742408752,0.9998401999473572,0.9764571189880371
1.3800000000000001,0.11225232481956482,0.3347925543785095,-0.14334897696971893,0.026907790452241898,-0.11890753358602524,-0.008345113135874271,0.7497129440307617,0.39211899042129517,0.3134448230266571,0.32998302578926086,0.23615442216396332,0.1274736374616623,-0.0764031745884485,0.1400789835380533,-0.06599208881084612,0.17057355482231906,-0.14460233115701304,-0.059678631014332406,0.7098684514032915,0.3398407969942138,-0.6188002206180578,-0.4801139140740831,0.05289385489178132,0.13681898040955204,-0.016690226271748543,0.053815580904483795,0.5095850825309753,0.28423795104026794,0.999966025352478,0.5098945498466492,-0.23781506717205048,-0.28669795393943787,0.38450464606285095,0.9994259476661682,0.9668896198272705,0.9446176886558533
1.4000000000000001,0.18792645633220673,0.3455309271812439,-0.19025282561779022,-0.03009289689362049,-0.06648916006088257,0.004176371265202761,0.7491136789321899,0.49023035168647766,-0.2106214016675949,0.32999616861343384,0.19094306230545044,-0.10212932527065277,-0.054241775582175036,0.14352321420614053,-0.10230155356653993,0.12318062708026649,-0.10456241939353172,-0.013289163174231844,0.7470493064464675,0.33030177186439325,-0.5812166190771786,-0.5082869087795518,0.08569299590119997,0.05657980700898663,0.008352742530405521,-0.06018579378724098,0.5310618281364441,0.4804607033729553,0.999992311000824,-0.4085173010826111,-0.13297832012176514,-0.38050565123558044,0.5358529090881348,0.9982274174690247,-0.08124279975891113,0.7637722492218018
1.42,0.20441751182079315,0.34679609537124634,-0.28122153878211975,-0.14874768257141113,0.03745068982243538,0.009684440679848194,0.7437501549720764,0.5725415945053101,-0.6300808191299438,0.32999804615974426,0.08280681073665619,-0.20958693325519562,-0.03632890912622767,0.14237548116392582,-0.13435664737044092,0.08088838322445101,-0.03855710998558115,0.009129859512670679,0.7687350234698892,0.35023509494540606,-0.5704115638524053,-0.5520076094381063,0.09599102092122067,0.030585774200573415,0.019368881359696388,-0.29749536514282227,0.533592164516449,0.6450831890106201,0.9999960660934448,-0.8383477330207825,0.07490137964487076,-0.5624430775642395,0.5688350200653076,0.9875003099441528,-0.9201616644859314,0.33122724294662476
1.44,0.22006671130657196,0.33233189582824707,-0.36287882924079895,-0.21903404593467712,0.14093150198459625,0.0018741647945716977,0.6973797082901001,0.6172167062759399,-0.622540295124054,0.32999706268310547,-0.0264279805123806,-0.23192095756530762,-0.019561292041445664,0.13795958054363475,-0.17378093863430039,0.03401019283000739,0.047081104857517146,0.0047362002988053115,0.7651659530260149,0.388389365439254,-0.5762683964422655,-0.5941316754349599,0.06760612193130902,0.031631808317492786,0.0037483295891433954,-0.43806809186935425,0.5046637654304504,0.7344334125518799,0.9999940991401672,-0.9276838302612305,0.2818630039691925,-0.7257576584815979,0.6001334190368652,0.894759476184845,-0.9050806164741516,-0.1057119220495224
1.46,0.22037164866924286,0.2622438371181488,-0.36235758662223816,-0.1525358408689499,0.18970230221748352,-0.01197495311498642,0.5842660665512085,0.6570472121238708,-0.5613568425178528,0.3299994170665741,-0.12597684562206268,-0.23196078836917877,0.004554440997450924,0.12730503075854518,-0.21692310427937267,-0.01302422862053911,0.1279769489851539,-0.0032950177874515292,0.732278044654703,0.43419851281208516,-0.5724136891692636,-0.6363686475730171,0.01161321681788299,0.029137222259907718,-0.02394990622997284,-0.3050716817378998,0.3644876778125763,0.8140944242477417,0.9999988079071045,-0.9278431534767151,0.37940460443496704,-0.7247151732444763,0.600743293762207,0.6685320734977722,-0.7827137112617493,-0.5039073824882507
1.48,0.13331742584705353,0.0989200696349144,-0.3040542006492615,-0.03634460270404816,0.17704030871391296,-0.015485999174416065,0.4346960186958313,0.7248448133468628,-0.1010558232665062,0.3299998641014099,-0.2305210679769516,-0.20295168459415436,0.028509296939496564,0.10430950225162663,-0.2250495417398813,-0.022010106103748726,0.18420627941102122,-0.007961470305371315,0.6792241277658051,0.49573519775759994,-0.5159193227788607,-0.6516750504521408,-0.06210373553315363,0.025344937529116332,-0.03097199834883213,-0.07268920540809631,0.037840139120817184,0.9496895670890808,0.9999997019767761,-0.8118067383766174,0.3540806174278259,-0.608108401298523,0.42663484811782837,0.3693920075893402,0.1378883570432663,-0.9220842719078064
1.5,-0.02547573857009411,-0.057009145617485046,-0.24526821076869965,0.1100955531001091,0.1039171889424324,0.013599337078630924,0.4835624694824219,0.7477809190750122,0.32782116532325745,0.3299944996833801,-0.2407117486000061,-0.1265721321105957,0.024814007442076267,0.07028501397256151,-0.21933646602329615,-0.006996707409066953,0.17719260555407595,0.002278601381031753,0.6534589992218965,0.5671538743712622,-0.5185098585343625,-0.6432233509008198,-0.1520336430161174,0.022348124719608252,0.02719867415726185,0.2201911062002182,-0.2740182876586914,0.9955618381500244,0.9999889731407166,-0.5062885284423828,0.2078343778848648,-0.4905364215373993,0.1090485230088234,0.46712493896484375,0.9956423044204712,-0.9628469944000244
1.52,-0.17402704060077667,-0.09908275306224823,-0.14950577914714813,0.3012636601924896,0.000957170152105391,0.00614094827324152,0.5990146398544312,0.7463029026985168,0.32999444007873535,0.3293266296386719,0.051728036254644394,-0.1059783324599266,-0.0015333492691363025,0.04976510418603378,-0.18756023658830034,0.0315325253191884,0.10417360313658565,0.003793648272953165,0.6140308938866674,0.6280725461879875,-0.5368215044316231,-0.6066368393390085,-0.15931688342888345,0.025830152631949817,0.01228189654648304,0.6025273203849792,-0.3581655025482178,0.9926058053970337,0.9986532330513,-0.4239133298397064,0.001914340304210782,-0.29901155829429626,-0.18805408477783203,0.6980292797088623,0.999988853931427,0.20691214501857758
1.54,-0.3330238461494446,-0.11902640759944916,-0.04676641523838043,0.401762455701828,-0.06337374448776245,-0.02924695797264576,0.652482807636261,0.7403969168663025,0.32999977469444275,0.17958955466747284,0.24978633224964142,-0.10220316052436829,-0.04587993952825228,0.051801826516652036,-0.12308609807785392,0.09219503241139042,0.014177155011071325,-0.008503833145397172,0.5878056453084033,0.6810916840569154,-0.5747882013793856,-0.5454044289913226,-0.07407508438843866,0.021148101151798115,-0.05849391594529152,0.803524911403656,-0.39805281162261963,0.980793833732605,0.6991791129112244,-0.40881264209747314,-0.1267474889755249,-0.09353283047676086,-0.5060476660728455,0.804965615272522,0.9999995231628418,0.9991453289985657
1.56,-0.4095800518989563,-0.10605786740779877,0.08944071829319,0.4561862051486969,-0.11199301481246948,-0.10214345157146454,0.6515325307846069,0.7188374996185303,0.33000001311302185,-0.5107601881027222,0.24999836087226868,-0.14303980767726898,-0.09785109781790434,0.062139758573376884,-0.047064210844277164,0.1597647567411371,-0.06732343612840909,-0.04043541496606188,0.5704513427166792,0.7159192097882632,-0.6282108738877566,-0.5050480630540195,0.009862232121414639,-0.015465709868669946,-0.20428690314292908,0.9123724102973938,-0.37211573123931885,0.9376749396324158,-0.681520402431488,-0.5721592307090759,-0.22398602962493896,0.17888143658638,-0.6591600775718689,0.8030650019645691,1.0,0.9999934434890747
1.58,-0.44543397426605225,-0.07851749658584595,0.2370402216911316,0.48525285720825195,-0.14568479359149933,-0.20881424844264984,0.6303069591522217,0.6491562128067017,0.33000001311302185,-0.652739942073822,0.24999967217445374,-0.16358426213264465,-0.1519471292598886,0.07236507542894133,0.028882495813512866,0.2233223444968598,-0.1263042983255353,-0.11501304388795798,0.5550682520689785,0.7199258699735591,-0.6844754768453549,-0.5193594802560834,0.05809758167915983,-0.06266922975403437,-0.4176284968852997,0.9705057144165039,-0.3170349895954132,0.7983124256134033,-0.9654799103736877,-0.6543370485305786,-0.29136958718299866,0.4740804433822632,-0.7308679223060608,0.7606138586997986,1.0,0.9999986886978149
1.6,-0.46279868483543396,0.0003354492655489594,0.24282215535640717,0.4936577379703522,-0.19347739219665527,-0.26900702714920044,0.6282103061676025,0.451386034488678,0.33000001311302185,-0.642245888710022,0.2499999850988388,-0.1526002287864685,-0.20745121437138453,0.09155504771694449,0.06301273148917107,0.23417543531618473,-0.16971288859293032,-0.22500941497218988,0.5421115278950687,0.6749313458245327,-0.7063518372667463,-0.5541414101028009,0.0779057159966567,-0.10273478471561122,-0.5380140542984009,0.9873154759407043,-0.1593291014432907,0.40277206897735596,-0.9444917440414429,-0.610400915145874,-0.38695478439331055,0.48564431071281433,-0.7655973434448242,0.7564206123352051,1.0,0.9999999403953552
