time,cmd_L_hip_pitch,cmd_R_hip_pitch,cmd_L_hip_roll,cmd_R_hip_roll,cmd_L_hip_yaw,cmd_R_hip_yaw,cmd_L_knee,cmd_R_knee,cmd_L_foot_pitch,cmd_R_foot_pitch,cmd_L_foot_roll,cmd_R_foot_roll,pos_L_hip_pitch,pos_R_hip_pitch,pos_L_hip_roll,pos_R_hip_roll,pos_L_hip_yaw,pos_R_hip_yaw,pos_L_knee,pos_R_knee,pos_L_foot_pitch,pos_R_foot_pitch,pos_L_foot_roll,pos_R_foot_roll,act_R_hip_yaw,act_R_hip_roll,act_R_hip_pitch,act_R_knee,act_R_foot_pitch,act_R_foot_roll,act_L_hip_yaw,act_L_hip_roll,act_L_hip_pitch,act_L_knee,act_L_foot_pitch,act_L_foot_roll
0.0,0.06564103066921234,-0.0701763927936554,0.04320875182747841,-0.08347576856613159,0.01655038259923458,-0.009410401806235313,0.37286433577537537,0.3158336281776428,-0.26360729336738586,-0.49633345007896423,-0.2087423950433731,0.2004576325416565,-0.036251835967825635,0.03979608225069565,-0.00173917068586204,-0.004630007161933907,0.008450983779801998,-0.0058791569176647384,0.2846985683064635,0.2739596146024422,-0.2970176189572881,-0.3403345357532504,-0.042219611623708346,0.04011586887480621,-0.018820803612470627,-0.16695153713226318,-0.3003527820110321,0.13166725635528564,-0.6526669263839722,0.801830530166626,0.03310076519846916,0.08641750365495682,0.291282057762146,0.24572865664958954,-0.18721459805965424,-0.8349695801734924
0.02,0.10330718755722046,-0.10291674733161926,-0.021083032712340355,-0.09672268480062485,0.0479351170361042,-0.018905578181147575,0.4257284700870514,0.3939310312271118,0.14426405727863312,-0.12886175513267517,-0.2352439910173416,0.24545131623744965,0.00933185861289282,-0.00472234582228762,-0.013479404758373779,-0.021874444438971817,0.024836033698760102,-0.014338525948216703,0.3103395048925227,0.3044718401945633,-0.31023063627615083,-0.3495550261234844,-0.08946202698305328,0.1056356432674335,-0.03781115636229515,-0.1934453696012497,-0.36583349108695984,0.287862092256546,0.08227647840976715,0.9818052649497986,0.0958702340722084,-0.04216606542468071,0.36661437153816223,0.3514569401741028,0.6285281181335449,-0.9409759640693665
0.04,0.1123586893081665,-0.1636587679386139,-0.023113900795578957,0.004275243263691664,0.06633525341749191,-0.013977215625345707,0.5482761263847351,0.42762184143066406,0.3055903911590576,0.05779650807380676,-0.19428686797618866,0.24807536602020264,0.05623587875515744,-0.043460998138795996,-0.02308804205020404,-0.030579531490854506,0.04586627679524662,-0.011132116879935056,0.3491112151186728,0.32724256184467276,-0.3493379067759262,-0.3910420597246202,-0.09126344062198265,0.12301162175207275,-0.027954431250691414,0.008550486527383327,-0.4873175323009491,0.35524365305900574,0.4555930197238922,0.9923014640808105,0.13267050683498383,-0.04622780159115791,0.3847173750400543,0.5965522527694702,0.9511807560920715,-0.7771474719047546
0.06,0.15127602219581604,-0.17055223882198334,-0.06270500272512436,0.004440298303961754,0.06707494705915451,-0.0057538640685379505,0.632123589515686,0.42111027240753174,0.32502982020378113,0.10874311625957489,-0.1919192373752594,0.24745763838291168,0.09858318686420715,-0.07298997709389521,-0.01570787535841834,-0.026141945639891792,0.06479187641397721,-0.013964661003331233,0.41045957826424995,0.357459970520595,-0.3954209741494669,-0.41013054090348217,-0.08576115487709873,0.08489545242975752,-0.011507728137075901,0.008880596607923508,-0.501104474067688,0.3422205150127411,0.5574862360954285,0.9898305535316467,0.13414989411830902,-0.12541000545024872,0.4625520408153534,0.7642471790313721,0.9900596141815186,-0.7676769495010376
0.08,0.1843007653951645,-0.16585777699947357,-0.06424035131931305,0.0061316355131566525,0.05603581294417381,-0.004691637121140957,0.6507173776626587,0.42310696840286255,0.31758177280426025,-0.008842302486300468,-0.17194929718971252,0.24905520677566528,0.13503971620150995,-0.0932280744905377,-0.008654497918141204,-0.022638359523247165,0.06898211846266246,-0.019471619958128898,0.47144428416911915,0.38374433953593706,-0.42854999969646773,-0.4229962707059046,-0.08006617345838889,0.05716249691137752,-0.009383274242281914,0.012263271026313305,-0.49171555042266846,0.3462139666080475,0.32231539487838745,0.9962208271026611,0.11207162588834763,-0.1284807026386261,0.5286015272140503,0.8014347553253174,0.9751635193824768,-0.6877971887588501
0.1,0.19485096633434296,-0.16725653409957886,-0.06620925664901733,0.007927848026156425,0.05153197422623634,0.0015265436377376318,0.6722009181976318,0.42435890436172485,0.30270588397979736,-0.13577717542648315,-0.13363251090049744,0.24945583939552307,0.16308612144428683,-0.10778102795397793,-0.004120630754535705,-0.02162638666151467,0.06417500084604114,-0.022222824318841355,0.522371000467592,0.40630979444696746,-0.4465792549364943,-0.4335436063481542,-0.06661041936586437,0.04088824473470027,0.0030530872754752636,0.01585569605231285,-0.49451306462287903,0.3487178385257721,0.06844563782215118,0.9978233575820923,0.10306394845247269,-0.13241851329803467,0.5497019290924072,0.8444018363952637,0.945411741733551,-0.5345300436019897
0.12,0.20588834583759308,-0.1531207114458084,-0.0634315237402916,-0.007317962124943733,0.04363784193992615,0.01112049538642168,0.6955947875976562,0.4221072196960449,0.2749107778072357,-0.24965928494930267,-0.07982391864061356,0.24962478876113892,0.1829300825873121,-0.11628851352428271,-0.0018679699053362597,-0.022795306624436608,0.05570142415457224,-0.02129002778068803,0.565527150518367,0.4243838812569909,-0.4543955989247111,-0.4413847516234576,-0.045915720066289585,0.03072166428347949,0.02224099077284336,-0.014635924249887466,-0.46624141931533813,0.34421440958976746,-0.15931856632232666,0.9984991550445557,0.0872756838798523,-0.1268630474805832,0.5717766880989075,0.8911896347999573,0.8898215293884277,-0.3192956745624542
0.14,0.21911899745464325,-0.12823310494422913,-0.0529710128903389,-0.03448937088251114,0.03047753870487213,0.022078316658735275,0.7169011831283569,0.41463392972946167,0.1817319244146347,-0.3238489031791687,-0.017862292006611824,0.24971644580364227,0.19639648767076545,-0.11844871312640491,-0.001255416563979918,-0.025371055152521315,0.04365389927248496,-0.017711331437008804,0.6043043675715805,0.4363494025196787,-0.45786769457212323,-0.4460693824943294,-0.022985437735629312,0.021484871308656416,0.04415663331747055,-0.06897874176502228,-0.41646620631217957,0.32926782965660095,-0.3076978027820587,0.9988657832145691,0.06095507740974426,-0.1059420257806778,0.5982379913330078,0.9338023662567139,0.7034638524055481,-0.0714491680264473
0.16,0.23698119819164276,-0.09785531461238861,-0.037451960146427155,-0.07026110589504242,0.009573757648468018,0.028003253042697906,0.73240065574646,0.3992047905921936,-0.12527522444725037,-0.35046854615211487,0.03226759657263756,0.249786376953125,0.20608040976246597,-0.11499313724800575,-0.0001551702592349749,-0.026920887498179558,0.025939623456447805,-0.013224348493045981,0.6409717201462065,0.4403260645948125,-0.46341257278221226,-0.4471334411335227,-0.0032687540552604932,0.00844469470343197,0.05600650608539581,-0.14052221179008484,-0.35571062564849854,0.2984095513820648,-0.36093711853027344,0.9991455078125,0.019147515296936035,-0.07490392029285431,0.6339623928070068,0.9648012518882751,0.08944954723119736,0.12907038629055023
0.18,0.26291680335998535,-0.06324724853038788,-0.02606412023305893,-0.14079952239990234,-0.013955079950392246,0.028973247855901718,0.7409412860870361,0.37741324305534363,-0.5225152373313904,-0.34328460693359375,0.05747181549668312,0.24988050758838654,0.21428887721546475,-0.10770179642682552,0.0005830797012151814,-0.027260291524358406,0.0014109587895894903,-0.009283974449680904,0.6731485673155478,0.43562988181504136,-0.47698732768517604,-0.445097354952598,0.01585135430842589,-0.018135387346780718,0.057946495711803436,-0.2815990447998047,-0.28649449348449707,0.25482648611068726,-0.3465692102909088,0.9995220303535461,-0.027910159900784492,-0.05212824046611786,0.6858336329460144,0.9818825125694275,-0.7050304412841797,0.22988726198673248
0.2,0.2805563509464264,-0.035718291997909546,-0.020288577303290367,-0.2444409877061844,-0.02172035537660122,0.026978757232427597,0.7442911863327026,0.3671002984046936,-0.5804223418235779,-0.2975311875343323,0.04926910996437073,0.24994394183158875,0.22073291354695163,-0.09887246006398089,0.0011950991882328879,-0.025218390275063264,-0.0180135285913508,-0.007665566708176582,0.6961652440127649,0.4298918108965673,-0.5010326797126379,-0.4437091953642221,0.02904108159278917,-0.02689367932633426,0.053957514464855194,-0.4888819754123688,-0.2314365804195404,0.2342005968093872,-0.25506237149238586,0.999775767326355,-0.04344071075320244,-0.040577154606580734,0.7211127281188965,0.98858243227005,-0.8208446502685547,0.1970764398574829
0.22,0.27328869700431824,-0.02921164594590664,-0.015528794378042221,-0.3064155876636505,-0.0026277562137693167,0.01857883483171463,0.7434621453285217,0.38652753829956055,-0.5680645108222961,-0.220636248588562,0.017509307712316513,0.24996750056743622,0.224790021298042,-0.08923277883875932,-0.004576825231404664,-0.03075575962058945,-0.01670008251927961,-0.00728388644784039,0.7096834962594837,0.42638126195109827,-0.5230378656283311,-0.4456020408407004,0.02953729420781021,-0.033437349298682806,0.03715766966342926,-0.612831175327301,-0.2184232920408249,0.2730550467967987,-0.10127248615026474,0.9998700022697449,-0.005255512427538633,-0.031057588756084442,0.7065774202346802,0.9869242906570435,-0.7961289882659912,0.07003723084926605
0.24,0.2550550103187561,-0.03191380947828293,-0.04782014712691307,-0.30236780643463135,0.02982868254184723,0.009517122060060501,0.7382983565330505,0.4412629008293152,-0.5525192022323608,-0.1212226077914238,-0.027764955535531044,0.24995902180671692,0.2251648912262248,-0.08080354103095831,-0.016982500412877858,-0.04498389908772746,0.004373935933490999,-0.006450434855449477,0.7165545295511438,0.432506110024945,-0.5341501059921538,-0.4541485450581865,0.015370977941845955,-0.0422595567838049,0.019034244120121002,-0.6047356128692627,-0.22382761538028717,0.38252580165863037,0.09755478799343109,0.9998360872268677,0.05965736508369446,-0.09564029425382614,0.6701100468635559,0.9765967130661011,-0.7650383710861206,-0.11105982214212418
0.26,0.2503054141998291,-0.024110792204737663,-0.12259625643491745,-0.2614530920982361,0.07232566177845001,-0.002793821506202221,0.7002209424972534,0.5418400764465332,-0.5064346790313721,0.021923797205090523,-0.10500337928533554,0.24987180531024933,0.22098282616467577,-0.07594138355346022,-0.03708330989127617,-0.06672992866412505,0.036097660808067505,-0.005473718013303326,0.7134519477777562,0.4552676837604424,-0.529201825579668,-0.4729296008896105,-0.01783095994570541,-0.053713479029431195,-0.005587643012404442,-0.5229061841964722,-0.20822158455848694,0.5836802124977112,0.38384759426116943,0.9994872212409973,0.14465132355690002,-0.2451925128698349,0.6606108546257019,0.9004419445991516,-0.6728693842887878,-0.42001351714134216
0.28,0.24116362631320953,-0.024743882939219475,-0.1211106926202774,-0.17243342101573944,0.08845595270395279,-0.028233835473656654,0.5133522152900696,0.6528398394584656,-0.4279567301273346,0.286051481962204,-0.20270095765590668,0.24907836318016052,0.2097072711666007,-0.07739322251544228,-0.05802452815940123,-0.08600290086741583,0.06570532956659297,-0.012728660997081668,0.6699824709178531,0.4937622867237836,-0.5005726077121481,-0.5005919364176338,-0.07153002481054775,-0.05101268321754862,-0.05646767094731331,-0.3448668420314789,-0.20948776602745056,0.8056796789169312,0.9121029376983643,0.9963134527206421,0.17691190540790558,-0.2422213852405548,0.6423272490501404,0.5267044305801392,-0.5159134864807129,-0.8108038306236267
0.3,0.1801677793264389,-0.12246021628379822,0.028201162815093994,-0.041655153036117554,0.029461512342095375,-0.03218084201216698,0.4001767039299011,0.7402344346046448,-0.06888257712125778,0.32670891284942627,-0.24074815213680267,0.22556942701339722,0.19362788541714862,-0.09674694466969289,-0.060566830126544714,-0.08173206555735418,0.05737839600974799,-0.02292117302855574,0.6164773845814348,0.5503772832606153,-0.5017532244475825,-0.516729292251005,-0.10478210578244955,-0.03129144512975992,-0.06436168402433395,-0.08331030607223511,-0.40492042899131775,0.9804688692092896,0.9934177994728088,0.9022777080535889,0.05892302468419075,0.05640232563018799,0.5203355550765991,0.30035343766212463,0.20223484933376312,-0.9629926085472107
0.32,0.11995100975036621,-0.19558198750019073,0.06735415011644363,-0.01818065345287323,0.0027633695863187313,-0.02699437364935875,0.4787124991416931,0.7454352378845215,0.30466988682746887,-0.4573676288127899,-0.1855657696723938,0.15217241644859314,0.1775748612941567,-0.1212509106012861,-0.05838549102876431,-0.07884335592400406,0.05729542686882044,-0.027484049479115452,0.5898325186153309,0.6097784579535764,-0.504104020146159,-0.528317843647047,-0.06723054315483837,0.015612969980767284,-0.0539887472987175,-0.03636130690574646,-0.5511639714241028,0.9908704161643982,-0.5747352838516235,0.6086896657943726,0.005526739172637463,0.13470830023288727,0.39990201592445374,0.45742499828338623,0.949339747428894,-0.7422630786895752
0.34,0.019934771582484245,-0.25724124908447266,0.14217032492160797,-0.002605049405246973,-0.001020143274217844,0.026865268126130104,0.49822700023651123,0.7465043663978577,0.32362788915634155,-0.5646841526031494,-0.17659814655780792,0.11137733608484268,0.1563498934575433,-0.1369879794062789,-0.06255142128451964,-0.07209538131983995,0.06384109511487185,0.0009487037372353664,0.5679940598080153,0.6580360608521278,-0.5001492140278596,-0.5378603732193149,-0.07394597878853355,0.058143796763679235,0.05373053625226021,-0.005210098810493946,-0.674482524394989,0.9930087327957153,-0.7893682718276978,0.4455093443393707,-0.002040286548435688,0.28434064984321594,0.1998695433139801,0.49645403027534485,0.9872557520866394,-0.7063925862312317
0.36,-0.013151558116078377,-0.27193763852119446,0.13911908864974976,-0.03174486383795738,-0.005889530293643475,0.05449404567480087,0.4923943281173706,0.7469167113304138,0.3189464211463928,-0.5723378658294678,-0.18876409530639648,0.06956031918525696,0.13292657169752622,-0.15002749200146293,-0.06315235575460443,-0.05730997781330132,0.06611709571262689,0.032258669647089434,0.5434699436849153,0.6922247658119212,-0.49415440445427566,-0.5440995560222526,-0.07957272646626755,0.07244426140523212,0.10898809134960175,-0.06348972767591476,-0.7038753032684326,0.9938334226608276,-0.8046757578849792,0.27824127674102783,-0.01177906058728695,0.2782381772994995,0.13369688391685486,0.4847886264324188,0.9778928160667419,-0.7550563812255859
0.38,-0.034116651862859726,-0.2872040271759033,0.15388058125972748,-0.045982543379068375,-0.008793576620519161,0.07832181453704834,0.4627543091773987,0.7483501434326172,0.30905529856681824,-0.5763049125671387,-0.21627579629421234,0.023843346163630486,0.10998188587945328,-0.16364013882293557,-0.06440590331066119,-0.04331229124874601,0.06351459772648112,0.05612961668126686,0.5159230649589389,0.7152693451032524,-0.4856431876510426,-0.5501504753966854,-0.08406884918977327,0.0635328410043375,0.15664362907409668,-0.09196508675813675,-0.7344080805778503,0.9967002272605896,-0.812609851360321,0.09537338465452194,-0.017587153241038322,0.30776116251945496,0.09176669269800186,0.42550864815711975,0.9581105709075928,-0.8651031851768494
0.4,-0.05620276927947998,-0.3060731291770935,0.17621874809265137,-0.06359117478132248,-0.008500011637806892,0.09984473139047623,0.4260441064834595,0.7492794990539551,0.2835610806941986,-0.5785648822784424,-0.23565779626369476,-0.02191646583378315,0.08682773798468198,-0.17932806766211187,-0.0666623939067818,-0.032046078293260935,0.05832887072089429,0.07602735032608719,0.4845568772705396,0.7302164516208256,-0.474720877242683,-0.5554850456189733,-0.08766626268895426,0.039162357579065124,0.19968946278095245,-0.12718234956264496,-0.7721462845802307,0.9985589385032654,-0.8171297311782837,-0.0876658633351326,-0.017000023275613785,0.35243749618530273,0.04759445786476135,0.35208818316459656,0.9071221351623535,-0.942631185054779
0.42,-0.07773776352405548,-0.324049174785614,0.1986524611711502,-0.07324285805225372,-0.005483714397996664,0.11361023038625717,0.39088717103004456,0.7496715784072876,0.25051596760749817,-0.5769221186637878,-0.24277052283287048,-0.054244279861450195,0.06296691975941353,-0.19700749400997908,-0.06877340803460143,-0.023672635768312755,0.051908960595204674,0.09177205960566863,0.45070434047052066,0.7391350681643176,-0.46251946913096353,-0.5590970718446963,-0.09031859809090961,0.008434850416078292,0.22722046077251434,-0.14648571610450745,-0.8080983757972717,0.9993430972099304,-0.8138442635536194,-0.21697711944580078,-0.010967428795993328,0.3973049223423004,0.00452447310090065,0.2817743420600891,0.8410319089889526,-0.9710820913314819
0.44,-0.09474100917577744,-0.33896487951278687,0.21432922780513763,-0.07743658125400543,-0.0009070438100025058,0.12080252915620804,0.3613044321537018,0.7498176097869873,0.2213752716779709,-0.5738169550895691,-0.2451493889093399,-0.06918618083000183,0.03875163182947886,-0.21629424113901807,-0.06941512749560058,-0.017625348334861225,0.04478485270438666,0.10230520330717431,0.416691946226972,0.7437287691529557,-0.4506060391644095,-0.5606543025583417,-0.09206554586152388,-0.02003245763809119,0.24160505831241608,-0.15487316250801086,-0.8379297852516174,0.9996352791786194,-0.8076338768005371,-0.2767447233200073,-0.0018140876200050116,0.42865845561027527,-0.029482025653123856,0.22260887920856476,0.7827505469322205,-0.9805975556373596
0.46,-0.10537081211805344,-0.3496454954147339,0.22054874897003174,-0.07763911038637161,0.0037783137522637844,0.12397485971450806,0.33690857887268066,0.7498769760131836,0.20066268742084503,-0.5705141425132751,-0.24625062942504883,-0.07408925890922546,0.014873422633050687,-0.23669882464177533,-0.06803985994910028,-0.013506268446656882,0.0370281444408543,0.10826185159706883,0.384516994312512,0.7453646076492113,-0.4402017588944401,-0.5608481037504706,-0.09281114816332225,-0.04169771442521409,0.2479497194290161,-0.15527822077274323,-0.8592910170555115,0.9997539520263672,-0.8010282516479492,-0.29635703563690186,0.007556627504527569,0.4410974979400635,-0.05074162408709526,0.17381715774536133,0.7413253784179688,-0.9850025177001953
0.48,-0.1123490110039711,-0.3575732409954071,0.22267082333564758,-0.07373517006635666,0.008057993836700916,0.12569314241409302,0.3177458643913269,0.7499071359634399,0.1892123967409134,-0.567245602607727,-0.24695895612239838,-0.07524370402097702,-0.00816139400656212,-0.25753480529978473,-0.06455817270976136,-0.01087507124053196,0.02866116666098501,0.11174941907888243,0.35552271260244783,0.7450777212518378,-0.43221585153201897,-0.5601685195255275,-0.09259609099454913,-0.05616822398929644,0.25138628482818604,-0.14747034013271332,-0.8751465082168579,0.9998142123222351,-0.7944912314414978,-0.3009748160839081,0.016115987673401833,0.44534164667129517,-0.06469801813364029,0.135491743683815,0.7184247970581055,-0.9878358244895935
0.5,-0.11796823889017105,-0.3643001616001129,0.22401905059814453,-0.06837394833564758,0.011873858980834484,0.12719982862472534,0.3048485815525055,0.7499240636825562,0.18835751712322235,-0.5640226006507874,-0.2474168837070465,-0.07580561190843582,-0.030015945507988372,-0.2781274520342746,-0.05898587343776889,-0.009275781884248768,0.019874036538108292,0.11454984949949583,0.3305822173813125,0.7436414018313597,-0.42729026426325406,-0.5588647395327643,-0.09135367264416469,-0.06510930340283912,0.2543996572494507,-0.13674789667129517,-0.8886003494262695,0.9998481869697571,-0.7880451679229736,-0.3032224476337433,0.023747717961668968,0.44803810119628906,-0.07593647390604019,0.10969715565443039,0.7167150378227234,-0.989667534828186
0.52,-0.12265430390834808,-0.37004631757736206,0.22798727452754974,-0.0626392588019371,0.015231377445161343,0.1284387856721878,0.29890239238739014,0.7499328255653381,0.1991891711950302,-0.5608868598937988,-0.24773335456848145,-0.0767437294125557,-0.050401799191588784,-0.29788755390790084,-0.051272273599413165,-0.00827450728826968,0.010957694192379417,0.11726418874977801,0.31036804101972815,0.7415813706076061,-0.425988853029715,-0.5571549054675362,-0.08906525378919324,-0.07050992009973148,0.2568775713443756,-0.1252785176038742,-0.9000926613807678,0.9998656511306763,-0.7817736864089966,-0.3069749176502228,0.030462754890322685,0.4559745490550995,-0.08530861139297485,0.09780480712652206,0.7383783459663391,-0.9909334182739258
0.54,-0.12561026215553284,-0.37481147050857544,0.23373591899871826,-0.05763019248843193,0.01796204037964344,0.1293206512928009,0.30056658387184143,0.7499350309371948,0.22098858654499054,-0.5577943921089172,-0.24789494276046753,-0.07753221690654755,-0.06888963746582512,-0.3164225596620559,-0.041342262720163746,-0.00751357151755053,0.0021934552701315547,0.11971478260420648,0.2955343158554973,0.7392705528765177,-0.4288038525234317,-0.5552046339120466,-0.08563082944325458,-0.07380253113767204,0.2586413025856018,-0.11526038497686386,-0.9096229672431946,0.9998700022697449,-0.7755888104438782,-0.3101288676261902,0.03592408075928688,0.4674718379974365,-0.09122052043676376,0.10113318264484406,0.7819771766662598,-0.9915797710418701
0.56,-0.127052903175354,-0.37821993231773376,0.24352915585041046,-0.05179723724722862,0.019591905176639557,0.12948566675186157,0.3104096055030823,0.7499306201934814,0.2487802952528,-0.5546836256980896,-0.24791839718818665,-0.07730800658464432,-0.0851164985688912,-0.33324275320733554,-0.029008756719171306,-0.006532548446551877,-0.006245655555698474,0.12156061205026972,0.2868156302944969,0.7369114205075443,-0.43629241982261247,-0.5530901683367032,-0.08107278865705239,-0.07564872505616325,0.25897133350372314,-0.10359447449445724,-0.9164398908615112,0.9998612403869629,-0.7693672180175781,-0.30923202633857727,0.039183810353279114,0.4870583117008209,-0.0941057950258255,0.12081921100616455,0.8375605940818787,-0.9916735887527466
0.58,-0.1275997757911682,-0.38023316860198975,0.2553122937679291,-0.043646883219480515,0.019224537536501884,0.12869910895824432,0.32954031229019165,0.7499164342880249,0.276922345161438,-0.5525641441345215,-0.24775515496730804,-0.0748693197965622,-0.09879911856677075,-0.3477874678805527,-0.01398666113015587,-0.004761370348673933,-0.014304432607991246,0.1225329547861874,0.28505858596591943,0.7347115474258998,-0.4489769689470599,-0.5510470001030303,-0.07523342311264294,-0.0761736629248354,0.25739821791648865,-0.08729376643896103,-0.9204663634300232,0.9998329281806946,-0.7651283144950867,-0.2994772791862488,0.03844907507300377,0.5106245875358582,-0.09519956260919571,0.1590805947780609,0.8938446640968323,-0.9910206198692322
0.6,-0.12793441116809845,-0.38092657923698425,0.26906412839889526,-0.029964948073029518,0.01615462638437748,0.12639863789081573,0.3595197796821594,0.749881386756897,0.30126383900642395,-0.550582230091095,-0.2473640888929367,-0.06810061633586884,-0.1097184671437273,-0.35945841318940414,0.004119686885540829,-0.001414245469246124,-0.022025828606669892,0.12249865935218689,0.2913543417434016,0.7328797119095292,-0.46753674808846984,-0.5491846287250596,-0.06803871489584255,-0.07466992839093639,0.25279727578163147,-0.059929896146059036,-0.9218531847000122,0.9997627139091492,-0.7611644864082336,-0.27240246534347534,0.03230925276875496,0.5381282567977905,-0.09586883336305618,0.21903952956199646,0.9425276517868042,-0.9894563555717468
0.62,-0.13026560842990875,-0.37995561957359314,0.28166821599006653,-0.009532573632895947,0.009173442609608173,0.12255513668060303,0.401679128408432,0.749793529510498,0.31927552819252014,-0.5471569895744324,-0.24647016823291779,-0.053799789398908615,-0.11807762578175757,-0.36746690106415325,0.025664700534203454,0.004365764155812123,-0.029472085229564904,0.12126196117787078,0.3068855527875334,0.7316988612546791,-0.4926844203330957,-0.547158359491932,-0.059387557987569,-0.06945333250761163,0.24511027336120605,-0.019065147265791893,-0.91991126537323,0.9995870590209961,-0.7543139457702637,-0.21519915759563446,0.018346885219216347,0.5633364319801331,-0.10053122043609619,0.303358256816864,0.9785510301589966,-0.9858806729316711
0.64,-0.1413668543100357,-0.37662866711616516,0.2954796552658081,0.023745344951748848,-0.004703660029917955,0.11521761864423752,0.452798992395401,0.7495481967926025,0.32736736536026,-0.5410727262496948,-0.244729146361351,-0.030053699389100075,-0.12541251197427455,-0.3703661069227122,0.0511418445819602,0.013761055738582332,-0.03664180665531622,0.11825682019839998,0.3320385611464048,0.7313709530643586,-0.5247631750669303,-0.5441653578991443,-0.04916426018418141,-0.058549033863989915,0.23043523728847504,0.047490689903497696,-0.913257360458374,0.9990963935852051,-0.7421454787254333,-0.1202147975564003,-0.00940732005983591,0.5909593105316162,-0.1227337047457695,0.405597984790802,0.9947347044944763,-0.978916585445404
0.66,-0.17168298363685608,-0.3718157410621643,0.3021981716156006,0.05919710546731949,-0.02392355166375637,0.10338350385427475,0.509833574295044,0.7486974596977234,0.3294726312160492,-0.5373840928077698,-0.2414223998785019,0.004411425441503525,-0.13498130499928299,-0.3665013030539967,0.08019239309281526,0.027031921262648844,-0.043283047353686016,0.11194337569055159,0.3655575583856035,0.7325192661027278,-0.5632081022812836,-0.5404957238555257,-0.037304270500557346,-0.040219700724824725,0.2067670077085495,0.11839421093463898,-0.9036315083503723,0.9973949193954468,-0.7347681522369385,0.0176457017660141,-0.04784710332751274,0.6043963432312012,-0.18336597084999084,0.5196670889854431,0.9989452362060547,-0.9656895995140076
0.68,-0.2144588679075241,-0.3666057884693146,0.29759275913238525,0.12798522412776947,-0.039501093327999115,0.06820700317621231,0.5673278570175171,0.744591474533081,0.3299042284488678,-0.5240889191627502,-0.23394715785980225,0.0386945977807045,-0.14923870865720584,-0.35661344278992463,0.11262025234852295,0.04495181781260862,-0.04715255094787436,0.09602774673303464,0.40514657934164255,0.734560191567241,-0.6072360153064023,-0.5343831858022483,-0.023715329859498598,-0.014998005400427453,0.13641400635242462,0.25597044825553894,-0.8932116031646729,0.9891829490661621,-0.7081778645515442,0.154778391122818,-0.07900218665599823,0.5951855182647705,-0.2689177393913269,0.6346557140350342,0.9998084306716919,-0.935788631439209
0.7000000000000001,-0.24942515790462494,-0.3513054847717285,0.27396029233932495,0.19904452562332153,-0.05457098409533501,0.0049333288334310055,0.6256448030471802,0.707343578338623,0.329986035823822,-0.47057172656059265,-0.20677578449249268,0.07066982984542847,-0.16716978090630466,-0.3419545099794187,0.14797953075741854,0.0670712366778725,-0.04971722874641402,0.05986954815479229,0.4497014051557632,0.7293880411739959,-0.6559431723486272,-0.5169350670376102,-0.009538232730565081,0.014489918907868191,0.009866657666862011,0.39808905124664307,-0.8626109957695007,0.9146871566772461,-0.601143479347229,0.28267931938171387,-0.10914196819067001,0.5479205846786499,-0.33885031938552856,0.7512895464897156,0.9999720454216003,-0.8271031379699707
0.72,-0.24364396929740906,-0.3136211633682251,0.2189808338880539,0.22758646309375763,-0.07812023907899857,-0.057626400142908096,0.6758501529693604,0.4599330425262451,0.32999852299690247,-0.3816382586956024,-0.08844920992851257,0.11015347391366959,-0.17793832361472886,-0.3176388559803053,0.186236857574263,0.09234986419197151,-0.06296122356511193,0.014603765171356541,0.49968808748788945,0.6930156448747798,-0.7026033921034204,-0.4316841215888509,0.0016178898416758084,0.02266649919467461,-0.11525280028581619,0.45517292618751526,-0.7872423529624939,0.41986608505249023,-0.42327654361724854,0.44061389565467834,-0.15624047815799713,0.4379616677761078,-0.3272879421710968,0.8517003655433655,0.9999970197677612,-0.3537968397140503
0.74,-0.1795712262392044,-0.27228644490242004,0.15301339328289032,0.2165721356868744,-0.09405943751335144,-0.09294482320547104,0.7308773994445801,0.22916272282600403,0.3299996852874756,-0.26187074184417725,0.20283812284469604,0.19840405881404877,-0.16051332804152743,-0.2805224611858958,0.23537177923837174,0.12070935698704945,-0.08151078057232189,-0.02026936821742029,0.5544735209241627,0.6375383469089262,-0.7317224381025502,-0.40981246203071925,0.03418036803612878,-0.042460633403538756,-0.18588964641094208,0.4331442713737488,-0.7045729160308838,-0.04167456924915314,-0.1837414801120758,0.7936162352561951,-0.18811887502670288,0.30602678656578064,-0.1991424560546875,0.9617548584938049,0.9999993443489075,0.8113524913787842
0.76,-0.07226340472698212,-0.21324555575847626,0.09481614828109741,0.1836317777633667,-0.07261665165424347,-0.14102895557880402,0.7483102083206177,0.16109861433506012,0.32999759912490845,0.20523770153522491,0.24920320510864258,0.2444947063922882,-0.1203995726661306,-0.2452819948931941,0.2772533683055122,0.1494694320141069,-0.0842911336335987,-0.05241590780538764,0.6049220301745848,0.5462154600458068,-0.7225821334160935,-0.3910145848276488,0.057219727458128436,-0.05443177399659595,-0.28205791115760803,0.3672635555267334,-0.5864911079406738,-0.17780277132987976,0.7504754066467285,0.9779788255691528,-0.14523330330848694,0.18963229656219482,0.015473194420337677,0.9966203570365906,0.9999951720237732,0.9968128204345703
0.78,0.05994562804698944,-0.05702212452888489,0.09649952501058578,0.06765048205852509,-0.0575467087328434,-0.08917136490345001,0.7497690916061401,0.26580631732940674,0.3168114125728607,0.3143611252307892,0.24510346353054047,0.23190173506736755,-0.07969940913268672,-0.2053158321907625,0.28092915524325746,0.1490743523515694,-0.07263667109463973,-0.07295620105436393,0.6516235022616812,0.45489782851530414,-0.6674466525602734,-0.3706035769465537,0.08023487301800991,-0.04412791464932799,-0.17834272980690002,0.13530096411705017,-0.2740442454814911,0.031612664461135864,0.9687222242355347,0.9276069402694702,-0.1150934174656868,0.19299905002117157,0.2798912525177002,0.9995381236076355,0.9736227989196777,0.9804138541221619
0.8,0.13202901184558868,0.04621291905641556,0.043848246335983276,0.002254496794193983,0.005765923764556646,-0.03919099643826485,0.7498301863670349,0.40338626503944397,-0.6245558857917786,0.32839012145996094,0.15626631677150726,0.08597396314144135,-0.052737938248991735,-0.17015418098404128,0.24742182222612819,0.12200721367374981,-0.04247315441817762,-0.07861620827696303,0.691605291143766,0.3999326652778486,-0.6233908190613601,-0.3656419841262398,0.10348370950351242,-0.036833431147380725,-0.0783819928765297,0.004508993588387966,-0.0675741583108902,0.30677253007888794,0.9967802166938782,0.3438958525657654,0.011531847529113293,0.08769649267196655,0.4240580201148987,0.9996603727340698,-0.9091117978096008,0.625065267086029
0.8200000000000001,0.16785132884979248,0.1304185837507248,-0.04295770451426506,-0.03186500445008278,0.038525912910699844,-0.02596111036837101,0.749801754951477,0.4487840533256531,-0.6502148509025574,0.32993143796920776,0.10210196673870087,-0.1334286779165268,-0.037712926230806985,-0.13401021084717563,0.1933059421880933,0.08310835873827932,-0.00818741176492242,-0.07697564585334431,0.7242303266213694,0.3748438748846092,-0.6144031984847927,-0.3744203715529314,0.10917353262261253,-0.033400675886500135,-0.05192222073674202,-0.06373000890016556,0.10083717852830887,0.39756813645362854,0.9998628497123718,-0.5337147116661072,0.07705182582139969,-0.08591540902853012,0.4957026541233063,0.9996034502983093,-0.9604297280311584,0.40840786695480347
0.84,0.15819057822227478,0.16925138235092163,-0.10034434497356415,-0.03646636754274368,0.07521238923072815,-0.02305462583899498,0.7494942545890808,0.46643203496932983,-0.6442795395851135,0.329961359500885,0.0798875167965889,-0.2018185257911682,-0.027522074680191966,-0.09295295141322352,0.1315633022936401,0.04025087121938808,0.02758558687654402,-0.0655149495668505,0.7470916260891212,0.36454709178097555,-0.6169498806206084,-0.3912317735520616,0.10074005354300393,-0.032850766686989046,-0.04610925167798996,-0.07293273508548737,0.17850276827812195,0.43286409974098206,0.9999226927757263,-0.8072741031646729,0.1504247784614563,-0.2006886899471283,0.4763811528682709,0.9989885091781616,-0.9485591053962708,0.3195500671863556
0.86,0.11450961232185364,0.16882622241973877,-0.16228948533535004,-0.06847146153450012,0.10305274277925491,-0.012197253294289112,0.7487414479255676,0.49228596687316895,-0.6385110020637512,0.329967737197876,0.07392071932554245,-0.2066565304994583,-0.020616974795887318,-0.05085132997495342,0.06932365843549401,0.0010534374938093818,0.061870359551654625,-0.0484500770728158,0.7584778385017726,0.36898179238200046,-0.6200297056383927,-0.4134120221975176,0.08980681537019035,-0.03698585119945517,-0.024394506588578224,-0.13694292306900024,0.17765244841575623,0.4845719635486603,0.9999354481697083,-0.8266261219978333,0.20610548555850983,-0.3245789706707001,0.3890192210674286,0.9974828958511353,-0.9370220303535461,0.2956828773021698
0.88,0.09800228476524353,0.1695653349161148,-0.22551169991493225,-0.13608981668949127,0.1193956658244133,0.00251335883513093,0.7460440397262573,0.5342284440994263,-0.6208564639091492,0.3299669027328491,0.05253351852297783,-0.200736403465271,-0.01176787469270726,-0.01149881218140217,0.0018719168103406068,-0.03795067745900817,0.08710002095777465,-0.020918857844431173,0.7617065934465717,0.38742672090307945,-0.6187584936652991,-0.4465555959538065,0.07697175776860336,-0.04363743913919559,0.00502671767026186,-0.27217963337898254,0.1791306734085083,0.5684569478034973,0.9999337792396545,-0.802945613861084,0.2387913316488266,-0.4510233998298645,0.3560045659542084,0.9920881390571594,-0.9017128944396973,0.21013407409191132
0.9,0.09243565797805786,0.17989568412303925,-0.29052430391311646,-0.23776304721832275,0.16345246136188507,0.014164951629936695,0.732857346534729,0.5814158916473389,-0.581177830696106,0.3299825191497803,-0.020344162359833717,-0.21466432511806488,-0.0008117533249298508,0.025730164798972846,-0.06969263181107965,-0.0762747268699396,0.11828870367154122,0.006558070909128367,0.7571275265007155,0.41919045036692887,-0.6071098031618134,-0.49268853180236005,0.04993349438275326,-0.05107818182546859,0.02832990325987339,-0.4755260944366455,0.19979135692119598,0.662831723690033,0.9999650120735168,-0.8586573004722595,0.32690492272377014,-0.5810486078262329,0.34487131237983704,0.9657146334648132,-0.8223556280136108,-0.08137664943933487
0.92,0.10287627577781677,0.18038226664066315,-0.34367525577545166,-0.31022337079048157,0.2300659567117691,0.012655563652515411,0.6221941709518433,0.6427634954452515,-0.4926953613758087,0.3299923539161682,-0.16230373084545135,-0.23347213864326477,0.009542208800851625,0.052534415566998914,-0.14261660036393822,-0.11096613335318954,0.17161688178106238,0.01000922553267991,0.7249681732630218,0.4644360215077492,-0.5735068882692769,-0.540580278805216,-0.008211108626680595,-0.049473970208692625,0.025311127305030823,-0.6204467415809631,0.2007645219564438,0.7855269312858582,0.9999846816062927,-0.9338885545730591,0.4601319134235382,-0.6873505115509033,0.36575254797935486,0.7443884015083313,-0.6453907489776611,-0.6492149233818054
0.9400000000000001,0.084623783826828,0.10503116995096207,-0.337436318397522,-0.25255703926086426,0.23288123309612274,0.006312617566436529,0.2235124111175537,0.7116273045539856,-0.094651959836483,0.3299981653690338,-0.2414313703775406,-0.23563037812709808,0.016797781371721568,0.056623353679265645,-0.2154978445061523,-0.13794990786551778,0.21689313143165498,0.013768674029491201,0.6024719215829625,0.5191075025728672,-0.45354470087245047,-0.5866155988117675,-0.08195538855720874,-0.05374783183187985,0.012625235132873058,-0.5051140785217285,0.05006233975291252,0.9232546091079712,0.9999963045120239,-0.9425215125083923,0.4657624661922455,-0.674872636795044,0.3292475640773773,-0.052975162863731384,0.15069608390331268,-0.9657254815101624
0.96,-0.06126180663704872,-0.20826224982738495,-0.1945507675409317,-0.10073146969079971,0.11813544481992722,0.019135504961013794,0.2429821491241455,0.749609649181366,0.32374653220176697,0.32997819781303406,-0.2488401085138321,-0.13794119656085968,0.03287210337857605,0.021126940882510326,-0.22919703861601576,-0.11709003902823556,0.23560777379836367,0.01572630898419261,0.5143142886297748,0.587230952342302,-0.44984413887575314,-0.6002969353903443,-0.18840874604873542,-0.058942984506424836,0.03827100992202759,-0.20146293938159943,-0.5765244960784912,0.9992192983627319,0.9999563694000244,-0.5517647862434387,0.23627088963985443,-0.3891015350818634,0.03747638314962387,-0.014035714790225029,0.9874930381774902,-0.9953604340553284
0.98,-0.17049577832221985,-0.36796173453330994,-0.07538175582885742,0.12973110377788544,0.04067610576748848,-0.031525492668151855,0.4569375514984131,0.7465598583221436,0.3299902379512787,-0.3278462290763855,0.013856926932930946,0.014333548955619335,0.03781928889044916,-0.030262514547477814,-0.20404814218053954,-0.0668216916818102,0.16781201463484466,0.0023426218284649876,0.47262515875377736,0.6597298195987381,-0.47970761952576096,-0.5904971960692696,-0.19275858831593307,-0.045810771895968834,-0.06305098533630371,0.2594622075557709,-0.8959234952926636,0.9931197166442871,-0.3156924843788147,0.05733419582247734,0.08135221153497696,-0.15076351165771484,-0.18099156022071838,0.41387510299682617,0.9999804496765137,0.055427707731723785
1.0,-0.22649142146110535,-0.3742504417896271,0.025629401206970215,0.2982373535633087,0.020140603184700012,-0.15142852067947388,0.5530048608779907,0.7130393981933594,0.3299996256828308,-0.5197751522064209,0.24892465770244598,0.05632432550191879,0.03213216707236061,-0.06476966593342505,-0.1458886566921006,-0.0034746236577778223,0.10976551931398429,-0.05982846121221951,0.45142121582308486,0.703424217575173,-0.5456968652888557,-0.5784249547315643,-0.1493485568815985,-0.013215611384254576,-0.30285704135894775,0.5964747071266174,-0.9085009098052979,0.926078736782074,-0.6995503306388855,0.22529730200767517,0.040281206369400024,0.05125880241394043,-0.2929828464984894,0.6060097813606262,0.9999992251396179,0.9956986308097839
1.02,-0.29247501492500305,-0.3611791133880615,0.024860670790076256,0.36866360902786255,-0.0011513415956869721,-0.23214219510555267,0.6154162883758545,0.6639289855957031,0.3299998342990875,-0.5310089588165283,0.2499866783618927,0.19151538610458374,0.0203527326369467,-0.0716203266871854,-0.11025430428173348,0.04275062189125088,0.08584702827232313,-0.13492849695498188,0.46915023633312014,0.7127282014555536,-0.5711364323733901,-0.5555021486944521,-0.1515070661183652,0.045905809257311116,-0.46428439021110535,0.7373272180557251,-0.8823582530021667,0.8278579115867615,-0.7220179438591003,0.766061544418335,-0.0023026831913739443,0.04972134158015251,-0.4249500036239624,0.730832576751709,0.9999996423721313,0.9999467134475708
1.04,-0.24652929604053497,-0.3142203688621521,0.0335799939930439,0.38780492544174194,-0.009205371141433716,-0.27521100640296936,0.6638203859329224,0.5362590551376343,0.32999974489212036,-0.4987567365169525,0.24997156858444214,0.2399621158838272,0.00696043968645061,-0.0771016932139737,-0.06771971956981651,0.10502338413933267,0.04796645430053799,-0.2007063235134395,0.49286950585144185,0.6899767825039043,-0.5992496980572198,-0.5643348736899951,-0.13132978832791928,0.11320430672742908,-0.5504220128059387,0.7756098508834839,-0.7884407639503479,0.5725180506706238,-0.6575134992599487,0.9598484635353088,-0.01841074228286743,0.0671599879860878,-0.33305859565734863,0.8276408314704895,0.999999463558197,0.9998862743377686
1.06,-0.19517938792705536,-0.26797720789909363,0.03356777876615524,0.3769502341747284,-0.008715134114027023,-0.27056464552879333,0.7101434469223022,0.32857221364974976,0.32999980449676514,-0.3924722671508789,0.24991735816001892,0.24185428023338318,-9.081857210094439e-05,-0.08010357298774826,-0.028500861544754407,0.17358033882502905,0.007440030826719335,-0.23839380599097515,0.5212702582938695,0.6114110599299745,-0.6251403773336767,-0.5525200321054008,-0.0980158215479791,0.1643976995255133,-0.5411292910575867,0.7539004683494568,-0.695954442024231,0.1571444272994995,-0.4449445605278015,0.9674171209335327,-0.017430268228054047,0.06713555753231049,-0.2303587794303894,0.9202868938446045,0.9999995827674866,0.9996694326400757
1.08,-0.06803718209266663,-0.16654564440250397,0.06818583607673645,0.26850274205207825,-0.01837247796356678,-0.20848192274570465,0.7481454014778137,0.2801671624183655,0.3299959897994995,0.08677060902118683,0.24907109141349792,0.24555891752243042,-9.016454848430611e-05,-0.08575952554228697,-0.01225252772654666,0.22120746822542903,-0.015987648031028038,-0.23771738402291906,0.5624289611496419,0.5291707295746256,-0.6377041683954856,-0.5070964486008384,-0.055431412387731964,0.19031111221994912,-0.4169638454914093,0.5370054841041565,-0.49309128522872925,0.06033429503440857,0.5135412216186523,0.9822356700897217,-0.03674495592713356,0.1363716721534729,0.02392563968896866,0.9962908029556274,0.9999919533729553,0.9962843656539917
1.1,0.09922078251838684,-0.025252295657992363,0.06005708500742912,0.10174942761659622,-0.03457687795162201,-0.06552507728338242,0.7497687339782715,0.4595556855201721,0.31542205810546875,0.3260466754436493,0.21390648186206818,0.22321602702140808,0.007246017754552838,-0.09031705044378546,-0.027316963486926204,0.225555354670261,-0.026793758380186973,-0.18129755329246133,0.6139424511119007,0.5021465176346416,-0.6227657418259903,-0.48077046805497087,-0.008623893208227661,0.19965254028507218,-0.13105015456676483,0.20349885523319244,-0.21050459146499634,0.4191114008426666,0.9920933246612549,0.8928641080856323,-0.06915375590324402,0.12011417001485825,0.358441561460495,0.9995375275611877,0.9708440899848938,0.8556259274482727
1.12,0.1831856518983841,0.08544802665710449,3.2788371754577383e-05,0.06079891696572304,-0.010964984074234962,-0.018352653831243515,0.7495375871658325,0.5313547849655151,-0.4410138726234436,0.3298274576663971,0.12018784135580063,-0.011815940029919147,0.017485101721610507,-0.07966441131291153,-0.040581944248309076,0.21091812723499806,-0.022983015195279632,-0.11572297025626796,0.6699589943951372,0.5012960864132703,-0.6066242554101628,-0.4871876181968953,0.04082557726250517,0.16357452744270104,-0.03670530766248703,0.12159783393144608,0.010896055027842522,0.5627095103263855,0.9996548891067505,-0.04726376011967659,-0.021929968148469925,6.557674350915477e-05,0.5263713002204895,0.9990752339363098,-0.5420277714729309,0.4807513654232025
1.1400000000000001,0.20983241498470306,0.22196121513843536,-0.1362394392490387,-0.012010650709271431,0.014802336692810059,0.006052128039300442,0.7489060163497925,0.5738873481750488,-0.5965073108673096,0.32999637722969055,0.09491641074419022,-0.2007790058851242,0.019987814960327404,-0.04621738538920986,-0.05748012277391241,0.1828586507561855,-0.00954286551072105,-0.04685928515670621,0.7134801135015111,0.494994700732649,-0.5970617722723004,-0.5210218246742182,0.06780791565359395,0.06444128682910218,0.012104256078600883,-0.024021301418542862,0.2839224338531494,0.6477746963500977,0.9999927282333374,-0.8031160235404968,0.029604673385620117,-0.2724788784980774,0.5796648263931274,0.9978120923042297,-0.8530145883560181,0.37966564297676086
1.16,0.19196899235248566,0.3565414845943451,-0.3116447329521179,-0.19267280399799347,0.12507545948028564,0.016627440229058266,0.7466540336608887,0.6134552955627441,-0.6260830163955688,0.3299999237060547,0.07078125327825546,-0.2462940663099289,0.010325479875292818,0.011225627690231822,-0.09749766391919933,0.13062928610747246,0.03751231621166465,0.009365302377607566,0.7401277099575503,0.4907858024936277,-0.5920796964779301,-0.5951827170702795,0.07171092452960946,-0.014486459011707486,0.03325488045811653,-0.38534560799598694,0.5530829429626465,0.7269106507301331,0.9999998211860657,-0.9851762652397156,0.2501509189605713,-0.6232894659042358,0.5439379811286926,0.9933080077171326,-0.9121659994125366,0.28312501311302185
1.18,0.1593635529279709,0.3801988661289215,-0.3991602957248688,-0.2614876627922058,0.2722543478012085,0.0036411683540791273,0.7355138063430786,0.6100214719772339,-0.6245026588439941,0.33000001311302185,0.028029922395944595,-0.2492523342370987,-0.0033134280611106207,0.06541798070963153,-0.14239102103716336,0.07681792079749589,0.14066955458130673,-0.004850946325222011,0.7508767206946388,0.505570782064762,-0.5921173474125916,-0.6373311727351351,0.058636796951735806,0.012084815419866274,0.007282336708158255,-0.5229753255844116,0.6003977060317993,0.7200430035591125,1.0,-0.9970093369483948,0.544508695602417,-0.7983205914497375,0.4787271022796631,0.9710276126861572,-0.909005343914032,0.11211968958377838
1.2,0.12980005145072937,0.277736097574234,-0.41677576303482056,-0.16082380712032318,0.31518635153770447,-0.003191507887095213,0.687118649482727,0.6633003354072571,-0.5889841318130493,0.33000001311302185,-0.01780531369149685,-0.24938982725143433,0.0020175728355113255,0.09891720038852478,-0.20132728891656607,0.016249392104174733,0.23915251336308133,-0.01575558111831351,0.7432147557287823,0.5309004013702006,-0.5886141115910004,-0.6799773141132683,0.0353860414554655,0.03032242945236944,-0.006383015774190426,-0.32164761424064636,0.3954721987247467,0.8266006708145142,1.0,-0.9975593090057373,0.6303727030754089,-0.8335515260696411,0.41960009932518005,0.8742372989654541,-0.8379682302474976,-0.0712212547659874
1.22,0.08964148163795471,0.1615268737077713,-0.4262631833553314,-0.08697859942913055,0.2871273458003998,0.024271899834275246,0.6474257707595825,0.6966955661773682,-0.5351150035858154,0.33000001311302185,-0.03371111676096916,-0.24920862913131714,0.023440320198111562,0.11479729815149774,-0.23131161526177166,-0.008763680517350223,0.2970252736168993,-0.0017828960578235196,0.7260624528787434,0.5670652972555246,-0.5765970384679102,-0.6973076615743742,0.01461469167709994,0.035806236770063844,0.04854379966855049,-0.1739571988582611,0.1630537360906601,0.8933911919593811,1.0,-0.9968345165252686,0.5742546916007996,-0.8525263667106628,0.33928295969963074,0.7948514819145203,-0.7302299737930298,-0.13484446704387665
1.24,0.03108835779130459,0.02258586697280407,-0.39980870485305786,-0.07510759681463242,0.20106390118598938,0.06436025351285934,0.5633723735809326,0.7284220457077026,-0.010853661224246025,0.33000001311302185,-0.1259669065475464,-0.2468339055776596,0.048199003269503486,0.11249012836935707,-0.22674265537861835,0.005092134514737811,0.2898290145417182,0.028454454237573933,0.6963173332536036,0.6150976441663992,-0.5321649105052599,-0.6895552044598426,-0.03442595892726316,0.016032804332398103,0.1287205070257187,-0.15021519362926483,-0.11482826620340347,0.9568440318107605,1.0,-0.9873356223106384,0.40212780237197876,-0.7996174097061157,0.2221767157316208,0.62674480676651,0.31829267740249634,-0.5038676261901855
1.26,-0.05823608115315437,-0.13266052305698395,-0.276558518409729,0.0763954371213913,0.07541932165622711,0.09554623812437057,0.580517053604126,0.7432882785797119,0.328764408826828,0.3299996554851532,-0.10750608146190643,-0.23869352042675018,0.06101033768847304,0.08758275382897486,-0.2176765905130841,0.025967680764562608,0.2124063707659333,0.06733767545014231,0.680479859902735,0.6671708169034185,-0.5350705564909163,-0.66735241351954,-0.10192824940571633,-0.015157174323907298,0.19109247624874115,0.1527908742427826,-0.4253210425376892,0.986576497554779,0.9999992847442627,-0.9547740817070007,0.15083864331245422,-0.553117036819458,0.04352783411741257,0.6610341668128967,0.9975287914276123,-0.43002432584762573
1.28,-0.25440555810928345,-0.21517182886600494,0.053873952478170395,0.2249746173620224,-0.04186619445681572,0.13524313271045685,0.6444163918495178,0.736916184425354,0.3299959897994995,0.32990598678588867,0.2027982920408249,-0.23909714818000793,0.040001835073265005,0.06767486343615824,-0.17904800719936723,0.07079745156843703,0.09405507388445368,0.10767575694728286,0.6456540726148692,0.7139509606017928,-0.558323312276497,-0.612239417807045,-0.05679055450902666,-0.04277170140920889,0.2704862654209137,0.4499492347240448,-0.5903436541557312,0.973832368850708,0.9998119473457336,-0.9563885927200317,-0.08373238891363144,0.10774790495634079,-0.3488110899925232,0.7888327836990356,0.9999919533729553,0.8111931681632996
1.3,-0.46526363492012024,-0.33936238288879395,0.3790993392467499,0.3418716788291931,-0.1449490636587143,0.09930878132581711,0.6935775279998779,0.72406405210495,0.3299999237060547,-0.002089662477374077,0.24992135167121887,-0.21047532558441162,-0.0017736336599111886,0.053636082061936804,-0.08915770723123294,0.155005864393136,-0.03365509568382789,0.11913801109397361,0.6083512764934628,0.7571906030556269,-0.6168153431451913,-0.5163393719517881,0.04425714447201394,-0.08808421619549288,0.19861756265163422,0.6837433576583862,-0.8387247920036316,0.9481281042098999,0.33582067489624023,-0.8419013023376465,-0.2898981273174286,0.7581986784934998,-0.7705272436141968,0.8871551156044006,0.9999998211860657,0.9996854066848755
1.32,-0.48174503445625305,-0.35776007175445557,0.39332595467567444,0.43955159187316895,-0.16826465725898743,-0.1309582144021988,0.6842598915100098,0.6480787992477417,0.33000001311302185,-0.6548371315002441,0.24999210238456726,-0.16857075691223145,-0.0453690717698188,0.03180979236414197,0.01901229376394679,0.2294914781942599,-0.1334723825237357,0.01012465431147195,0.5723611652936658,0.7707669801816551,-0.686900076508937,-0.487980895874727,0.10394660159417192,-0.12393741694642438,-0.2619164288043976,0.8791031837463379,-0.8755201697349548,0.7961576581001282,-0.969674289226532,-0.6742830276489258,-0.33652931451797485,0.7866519093513489,-0.8034900426864624,0.8685197830200195,1.0,0.999968409538269
1.34,-0.40473541617393494,-0.19108007848262787,0.2274249941110611,0.47606250643730164,-0.13761413097381592,-0.33385366201400757,0.6675678491592407,0.2097548544406891,0.33000001311302185,-0.6430925130844116,0.24999640882015228,-0.11876426637172699,-0.08837179969418943,0.03258171666155895,0.08420012568640697,0.23714024294681377,-0.1682381087724205,-0.19799234342135502,0.5441485229651015,0.6725718233857315,-0.7131546668891314,-0.5157752404815629,0.11831314913371134,-0.1367660900299673,-0.6677073240280151,0.9521250128746033,-0.542160153388977,-0.08049027621746063,-0.9461849927902222,-0.47505706548690796,-0.27522826194763184,0.4548499882221222,-0.6494708061218262,0.8351356387138367,1.0,0.9999856352806091
1.36,-0.19213949143886566,0.03028692863881588,0.240491583943367,0.46298861503601074,-0.1044413149356842,-0.3961712121963501,0.7448916435241699,-0.19053992629051208,0.33000001311302185,0.14153920114040375,0.24998785555362701,0.1602548360824585,-0.10159912641642795,0.055544978073056424,0.10290446243129053,0.22921406429850466,-0.1538200885753806,-0.36477024343710746,0.5553243966147481,0.5000341500339887,-0.7053805462760206,-0.4913365471220343,0.12759084929123907,-0.07956505659749116,-0.7923424243927002,0.9259772300720215,-0.09942614287137985,-0.8810798525810242,0.6230784058570862,0.641019344329834,-0.2088826298713684,0.480983167886734,-0.22427898645401,0.9897833466529846,1.0,0.9999514222145081
1.3800000000000001,0.3141181766986847,0.38556382060050964,0.13688918948173523,0.1873917579650879,-0.13377182185649872,-0.24777114391326904,0.7499932050704956,-0.0018239617347717285,0.3299911916255951,0.3299453854560852,0.2453477531671524,0.24497097730636597,-0.05517620132341308,0.07946807616869879,0.08094308881079469,0.22165195205666025,-0.14547740655759736,-0.3428196933542869,0.6177134584155352,0.3453188474049584,-0.6722990062547839,-0.44471329636847484,0.14361067770838173,0.006628385169530259,-0.4955422878265381,0.3747835159301758,0.6111276149749756,-0.5036479234695435,0.9998907446861267,0.9798839092254639,-0.26754364371299744,0.27377837896347046,0.7882363796234131,0.9999864101409912,0.9999823570251465,0.9813910126686096
1.4000000000000001,0.4088759422302246,0.4805085361003876,-0.018084345385432243,-0.051721397787332535,0.004710719920694828,-0.1734713613986969,0.7499827146530151,0.3505941927433014,-0.5254131555557251,0.3299999237060547,0.14373008906841278,-0.12205743789672852,-0.0029518144534026887,0.10754008561697258,0.04310999574135303,0.18490660037764237,-0.08101773065743795,-0.2550866245062409,0.6877430102343349,0.26756104949058185,-0.6383349143037081,-0.42470513504401197,0.15556132663750283,-0.004005959254668785,-0.3469427227973938,-0.10344279557466507,0.8010170459747314,0.20118838548660278,0.9999998211860657,-0.48822975158691406,0.009421439841389656,-0.03616869077086449,0.9777519106864929,0.9999654293060303,-0.7108262777328491,0.5749203562736511
1.42,0.4009126126766205,0.5272539854049683,-0.27667221426963806,-0.2557630240917206,0.1788720190525055,-0.11775539815425873,0.7479866743087769,0.5212504267692566,-0.6135112047195435,0.33000001311302185,-0.10860534757375717,-0.24889348447322845,0.028662312759944058,0.13903568697028246,-0.020926610602175752,0.09373631880824701,0.04254746539654988,-0.18617861505473565,0.7353733515983166,0.2695227860930448,-0.6199663699068174,-0.4503207938418375,0.09806482282649379,-0.08044960900240747,-0.23551079630851746,-0.5115260481834412,0.8945080041885376,0.5425008535385132,1.0,-0.9955739378929138,0.357744038105011,-0.5533444285392761,0.9618252515792847,0.9959732890129089,-0.8870224356651306,-0.4344213902950287
1.44,0.3736880123615265,0.54069584608078,-0.35592812299728394,-0.2240767925977707,0.29354771971702576,-0.05096103250980377,0.6513701677322388,0.5838918685913086,-0.6285998821258545,0.33000001311302185,-0.23330268263816833,-0.24985763430595398,0.05209381282589095,0.17786697443722183,-0.10054084464001446,-0.01911056529028118,0.17367019309108125,-0.11700122524835942,0.7452480324301685,0.3035772816048679,-0.6086482902907832,-0.4889219661459708,-0.005197175455124074,-0.1407163137832009,-0.10192206501960754,-0.4481535851955414,0.9213917255401611,0.6677837371826172,1.0,-0.9994305372238159,0.5870954394340515,-0.7118562459945679,0.9073760509490967,0.8027402758598328,-0.9171997904777527,-0.9332107305526733
1.46,0.3254919946193695,0.5294490456581116,-0.366187185049057,-0.28874167799949646,0.3165014386177063,0.023590087890625,0.21117037534713745,0.6414265036582947,-0.5009797811508179,0.33000001311302185,-0.2460927516222,-0.24984197318553925,0.05429188725611634,0.20912525239538782,-0.1855383600080347,-0.12903711167694595,0.27463393784253626,-0.044404388963307805,0.6762695775378506,0.3537082420874869,-0.6418668934846571,-0.5056711050199008,-0.11183925867517272,-0.1699075197762717,0.04718017578125,-0.5774833559989929,0.8988980650901794,0.7828530073165894,1.0,-0.999367892742157,0.6330028772354126,-0.732374370098114,0.8109840154647827,-0.0776592567563057,-0.6619595289230347,-0.9843710064888
1.48,0.134641632437706,0.4798160791397095,-0.3486359715461731,-0.27026060223579407,0.2823356091976166,0.10560338944196701,-0.09460923075675964,0.7462753653526306,0.3259352743625641,0.33000001311302185,-0.2487146556377411,-0.24963176250457764,0.013724322520045086,0.22851319121186459,-0.23796238301759742,-0.19309862931815647,0.3169439722893469,0.03763027830613879,0.5485234143796747,0.4307067521322478,-0.6440445165902128,-0.46125237617145265,-0.16206690444773608,-0.1821377631245896,0.21120677888393402,-0.5405212044715881,0.7996321320533752,0.9925507307052612,1.0,-0.9985270500183105,0.5646712183952332,-0.6972719430923462,0.4292832612991333,-0.6892184615135193,0.9918705224990845,-0.9948586225509644
1.5,-0.36587148904800415,-0.05911503732204437,-0.1298733800649643,0.34686362743377686,0.012600802816450596,0.08742675930261612,0.3010996878147125,0.7498899102210999,0.33000001311302185,0.3299921751022339,0.2291552722454071,-0.23245911300182343,-0.032135396149694156,0.21236869707442288,-0.2042793153105814,-0.15429750541033982,0.21053653748428033,0.09034710650078312,0.4457281261762757,0.5319808209706989,-0.6594533474749802,-0.3132575134342,-0.09205113607841169,-0.18692648734776732,0.17485351860523224,0.6937272548675537,-0.27823007106781006,0.9997798204421997,0.9999843239784241,-0.9298364520072937,0.02520160563290119,-0.2597467601299286,-0.5717429518699646,0.10219938308000565,1.0,0.9166210889816284
1.52,-0.5452467203140259,-0.4078114926815033,0.23743295669555664,0.47986647486686707,-0.14804525673389435,-0.008185950107872486,0.5281786918640137,0.7446135878562927,0.33000001311302185,-0.2168639600276947,0.25,-0.2245744913816452,-0.054143847637420105,0.1574116166138011,-0.08807229695084524,-0.03963415322024719,0.03172485575054507,0.07583349099011889,0.3920929534755862,0.6368339352146556,-0.7038104757281833,-0.20418427041461323,0.01527614868469474,-0.19011197417920261,-0.016371900215744972,0.9597329497337341,-0.9756230115890503,0.9892271757125854,-0.09372790902853012,-0.8982979655265808,-0.2960905134677887,0.4748659133911133,-0.9304934740066528,0.5563573837280273,1.0,1.0
1.54,-0.5673531293869019,-0.4069264531135559,0.37854301929473877,0.49634063243865967,-0.19082927703857422,-0.26414018869400024,0.6147462129592896,0.44544196128845215,0.33000001311302185,-0.6649510264396667,0.25,-0.22175368666648865,-0.08481348595102112,0.11063950945748059,0.06327435803045828,0.08465355388575453,-0.11994706227208249,-0.06688935349752076,0.3832859132443256,0.6537337440084713,-0.7448957463799756,-0.2505728396893565,0.09506346589065529,-0.19270591489465314,-0.5282803773880005,0.9926812648773193,-0.9738529324531555,0.3908838927745819,-0.9899020791053772,-0.8870147466659546,-0.38165855407714844,0.7570860385894775,-0.97470623254776,0.7294924259185791,1.0,1.0
1.56,-0.5668357014656067,-0.035291172564029694,0.21005879342556,0.4992016851902008,-0.2197989821434021,-0.4209594428539276,0.6298774480819702,-0.19684571027755737,0.33000001311302185,-0.6411231160163879,0.25,-0.22087985277175903,-0.15880109996107336,0.13806577311301346,0.1845421294166997,0.19357922659335983,-0.2083085718594837,-0.2647661773353376,0.40492503376489536,0.47974901043137974,-0.734130581956652,-0.35228767580679143,0.13377386431182345,-0.20393528957896428,-0.8419188857078552,0.9984033703804016,-0.2305823415517807,-0.8936914205551147,-0.9422461986541748,-0.8835194110870361,-0.4395979642868042,0.42011758685112,-0.9736714363098145,0.7597548365592957,1.0,1.0
1.58,-0.5239312648773193,0.5025305151939392,0.2679722011089325,0.49734950065612793,-0.2554207146167755,-0.449985146522522,0.7468326091766357,-0.24487116932868958,0.33000001311302185,0.325649619102478,0.2499999701976776,-0.12359332293272018,-0.28173449090916614,0.23202306556678426,0.20537104635849143,0.24673677969615807,-0.24626663377177668,-0.4020509160900284,0.4822042510743555,0.30651333915342843,-0.5971891997004933,-0.31313670649190345,0.158837760253578,-0.21655224325416433,-0.899970293045044,0.9946990013122559,0.8450610637664795,-0.9897423386573792,0.9912992119789124,-0.49437329173088074,-0.510841429233551,0.535944402217865,-0.8878625631332397,0.9936652183532715,1.0,0.9999998807907104
1.6,0.06312043964862823,0.5708078145980835,-0.04794084653258324,-0.043516360223293304,-0.25258150696754456,-0.34774357080459595,0.7499486207962036,-0.21489527821540833,0.33000001311302185,0.33000001311302185,0.24999746680259705,-0.22886133193969727,-0.2581269519737984,0.2745732758766403,0.14065996794266422,0.23180563866722945,-0.2629616237292564,-0.40676508157030167,0.5867598886225652,0.16439000079039073,-0.2938363861484603,-0.27395206745827755,0.1890734827375437,-0.2495968503715106,-0.6954871416091919,-0.08703272044658661,0.9816156029701233,-0.9297905564308167,1.0,-0.9154453277587891,-0.5051630139350891,-0.09588169306516647,0.2862408757209778,0.9998972415924072,1.0,0.9999898672103882
1.62,0.4150125980377197,0.5768900513648987,-0.3717649579048157,-0.4900433421134949,0.046814460307359695,-0.24273674190044403,0.7496874928474426,0.02607502043247223,0.23919643461704254,0.33000001311302185,0.10016641020774841,-0.249858096241951,-0.16111204783661348,0.2614756883161954,0.020562664883977923,0.12713895014656112,-0.13692317259240788,-0.33942307169827124,0.6669823430897275,0.05858915865793179,-0.04577193254060331,-0.254070138866549,0.17155511986984964,-0.270213292688206,-0.48547348380088806,-0.9800866842269897,0.9937801361083984,-0.44784995913505554,1.0,-0.999432384967804,0.09362892061471939,-0.7435299158096313,0.9900252223014832,0.9993749856948853,0.8183928728103638,0.40066564083099365
