time,cmd_L_hip_pitch,cmd_R_hip_pitch,cmd_L_hip_roll,cmd_R_hip_roll,cmd_L_hip_yaw,cmd_R_hip_yaw,cmd_L_knee,cmd_R_knee,cmd_L_foot_pitch,cmd_R_foot_pitch,cmd_L_foot_roll,cmd_R_foot_roll,pos_L_hip_pitch,pos_R_hip_pitch,pos_L_hip_roll,pos_R_hip_roll,pos_L_hip_yaw,pos_R_hip_yaw,pos_L_knee,pos_R_knee,pos_L_foot_pitch,pos_R_foot_pitch,pos_L_foot_roll,pos_R_foot_roll,act_R_hip_yaw,act_R_hip_roll,act_R_hip_pitch,act_R_knee,act_R_foot_pitch,act_R_foot_roll,act_L_hip_yaw,act_L_hip_roll,act_L_hip_pitch,act_L_knee,act_L_foot_pitch,act_L_foot_roll
0.0,-0.0006696507334709167,-0.007067635655403137,0.02381051518023014,0.028483401983976364,0.03126820921897888,-0.034088384360075,0.36602941155433655,0.3600870668888092,-0.515024721622467,-0.40934842824935913,-0.20706021785736084,0.2228129804134369,-0.04557227865342065,0.045495073960288256,0.007870130654708107,0.006154774571596845,0.021402645155384318,-0.022401391949407233,0.31937412052955755,0.31679645388756866,-0.3657702193507263,-0.33384903811940975,-0.06365548672491375,0.06898860885954718,-0.06817676872015,0.05696680396795273,-0.1741352677345276,0.22017411887645721,-0.47869688272476196,0.8912519216537476,0.06253641843795776,0.04762103036046028,0.15866069495677948,0.2320588380098343,-0.690049409866333,-0.8282408714294434
0.02,0.006793156266212463,-0.046845942735672,0.08191981911659241,0.07152840495109558,0.03889501467347145,-0.05227786675095558,0.3806239366531372,0.4424559473991394,-0.06617789715528488,-0.23606586456298828,-0.2350626140832901,0.1676739752292633,-0.02145707680045475,0.0071959082838167114,0.027567579373246002,0.024655722500848777,0.034237458638974205,-0.043232829686201624,0.3650835031882574,0.40808052741909406,-0.36906986498440475,-0.340698611936509,-0.13713216437965853,0.1331934536464567,-0.10455573350191116,0.14305680990219116,-0.2536918818950653,0.3849118947982788,-0.13213174045085907,0.6706959009170532,0.0777900293469429,0.16383963823318481,0.17358630895614624,0.261247843503952,0.20764420926570892,-0.9402504563331604
0.04,0.008631512522697449,-0.09006106853485107,0.18556758761405945,0.13696710765361786,0.035124070942401886,-0.06905394047498703,0.43636348843574524,0.5324611663818359,0.1810651570558548,-0.41732174158096313,-0.2438279092311859,0.11984920501708984,-0.002797701266834285,-0.03089700765639563,0.057833895718733444,0.058000032298584685,0.03431003606877862,-0.060431376295656015,0.3785563497209834,0.49004552055975087,-0.4256289949571459,-0.39001854896835536,-0.12952279237566525,0.13765597348147518,-0.13810788094997406,0.2739342153072357,-0.34012213349342346,0.5649223923683167,-0.49464350938796997,0.4793968200683594,0.07024814188480377,0.3711351752281189,0.1772630214691162,0.3727269768714905,0.7021303176879883,-0.9753116369247437
0.06,0.032600708305835724,-0.13428831100463867,0.2535337805747986,0.1249767616391182,0.022241387516260147,-0.05270683765411377,0.4626602232456207,0.5522005558013916,0.256395161151886,-0.525990903377533,-0.24747975170612335,0.08416645228862762,0.024594055644220056,-0.06308388187499009,0.0862858344086423,0.0900278754696025,0.030873706583588248,-0.057340871033720354,0.4104764811177962,0.5524944341846612,-0.4562886352320651,-0.4404964208599385,-0.06239703007407785,0.11877954086690824,-0.10541367530822754,0.2499535232782364,-0.42857661843299866,0.6044011116027832,-0.7119817733764648,0.3366658091545105,0.044482775032520294,0.5070675611495972,0.22520141303539276,0.42532044649124146,0.8527902960777283,-0.9899190068244934
0.08,0.0238112211227417,-0.13575688004493713,0.26293501257896423,0.1178601086139679,0.017793424427509308,-0.045082565397024155,0.4648343324661255,0.49089741706848145,0.15505193173885345,-0.466255784034729,-0.2494950294494629,0.09030971676111221,0.04393601178889525,-0.07477201111672682,0.10738948441067944,0.11651946858885726,0.028780375619978406,-0.05031489408098888,0.43434818530892205,0.5374497746247543,-0.4694180744562151,-0.4645366337045267,-0.015751197182472216,0.10186172883305858,-0.09016513079404831,0.2357202172279358,-0.4315137565135956,0.4817948639392853,-0.5925115346908569,0.36123886704444885,0.035586848855018616,0.5258700251579285,0.2076224386692047,0.4296686351299286,0.6501038670539856,-0.9979801177978516
0.1,0.011015355587005615,-0.08051590621471405,0.24116504192352295,0.1328343003988266,0.029518691822886467,-0.05887081101536751,0.4882872700691223,0.39044874906539917,0.14575980603694916,-0.38559243083000183,-0.24957990646362305,0.10626789927482605,0.04683570184435022,-0.06197912867639536,0.1195927984686218,0.1330946455514973,0.030058953753791313,-0.05625023120307981,0.44827495747883067,0.4493917699497699,-0.47732861508278474,-0.44020221422386946,-0.0068136797211693885,0.09892693691833306,-0.11774162203073502,0.2656686007976532,-0.3210318088531494,0.2808975279331207,-0.431184858083725,0.4250715970993042,0.059037383645772934,0.4823300838470459,0.18203070759773254,0.47657454013824463,0.631519615650177,-0.9983196258544922
0.12,0.01903839409351349,0.007726714015007019,0.19160783290863037,0.11983536183834076,0.046704236418008804,-0.06957311928272247,0.5488727688789368,0.29417866468429565,0.25648295879364014,-0.32259616255760193,-0.24907581508159637,0.14019612967967987,0.041884902306702936,-0.028120635807500197,0.11631887332168325,0.13402205674857692,0.041468637712902885,-0.06742463112944587,0.4820108875884744,0.33538938889766995,-0.4783748121702885,-0.38996909238207955,-0.01563918726501112,0.11219051309055555,-0.13914623856544495,0.23967072367668152,-0.14454656839370728,0.08835732936859131,-0.30519232153892517,0.5607845187187195,0.09340847283601761,0.38321566581726074,0.1980767846107483,0.5977455377578735,0.8529659509658813,-0.9963032603263855
0.14,0.03588448464870453,0.06500702351331711,0.07458420842885971,0.06359004229307175,0.06548730283975601,-0.06974665820598602,0.6160728931427002,0.23783089220523834,0.24950270354747772,-0.30232539772987366,-0.24365200102329254,0.20186762511730194,0.04068929476423539,0.011343406893098507,0.0882367371623151,0.11049707698943707,0.05816541178630678,-0.06786760377979213,0.5478879035696023,0.2636181423041793,-0.46430782147370486,-0.32264651079263085,-0.04189144829750482,0.13196226679129316,-0.13949331641197205,0.1271800845861435,-0.029985954985022545,-0.024338219314813614,-0.26465079188346863,0.8074705004692078,0.13097460567951202,0.14916841685771942,0.23176896572113037,0.7321457266807556,0.8390054106712341,-0.9746080040931702
0.16,0.035870909690856934,0.08798126131296158,-0.08047712594270706,0.044261425733566284,0.06189842149615288,-0.06727714091539383,0.6324177980422974,0.28123053908348083,-0.5605954527854919,-0.4754420518875122,-0.05579444020986557,0.24314923584461212,0.036242251532292866,0.04260938791729834,0.05400187108699574,0.08414911210215661,0.05477690130147074,-0.07273151427679851,0.614986358213069,0.2793667129099059,-0.4842324663195578,-0.3094068045077279,-0.058372814709507774,0.09908525472663154,-0.13455428183078766,0.08852285146713257,0.015962524339556694,0.062461089342832565,-0.6108840703964233,0.9725969433784485,0.12379684299230576,-0.16095425188541412,0.23174181580543518,0.76483553647995,-0.7811908721923828,-0.22317776083946228
0.18,0.02784450352191925,0.10976319015026093,-0.08373202383518219,-0.014027964323759079,0.019478946924209595,-0.058485787361860275,0.6247501373291016,0.28140050172805786,-0.4844956398010254,-0.3966788351535797,0.09221366792917252,0.2414659708738327,0.02528554911761617,0.06613290326926041,0.012196486382058353,0.06207371413305239,0.026929428750549392,-0.07668091463647227,0.6357535646908818,0.3032331735282133,-0.4966970459878832,-0.32353211618599226,-0.013256082692790409,0.08378229084683325,-0.11697157472372055,-0.028055928647518158,0.05952637642621994,0.06280098110437393,-0.45335766673088074,0.9658638834953308,0.03895789384841919,-0.16746404767036438,0.21568900346755981,0.7495003342628479,-0.6289912462234497,0.36885467171669006
0.2,0.01901055872440338,0.12777391076087952,-0.07859791815280914,-0.06550392508506775,-0.007988004013895988,-0.05309668928384781,0.6380146145820618,0.2811186909675598,-0.4718519449234009,-0.31708472967147827,0.039352983236312866,0.24057239294052124,0.016976128406223465,0.08843398225254384,-0.02691046948333328,0.04707359308727377,0.0003469152080936811,-0.07732235269038758,0.6352527294731777,0.31089336601804934,-0.48785531547051575,-0.329311227943136,0.025072763582094457,0.08750056325839681,-0.10619337856769562,-0.1310078501701355,0.09554781019687653,0.06223740801215172,-0.29416942596435547,0.962289571762085,-0.015976008027791977,-0.1571958363056183,0.19802111387252808,0.7760292291641235,-0.6037038564682007,0.15741193294525146
0.22,0.01285310834646225,0.1619526743888855,-0.07116065174341202,-0.09088017046451569,-0.02508743479847908,-0.05286727100610733,0.6443523168563843,0.2848168611526489,-0.4626610279083252,-0.254211962223053,0.016781236976385117,0.24039487540721893,0.009828727700952654,0.11509986472820503,-0.05890489168038913,0.036884907965444635,-0.015771793441071873,-0.07404847913844069,0.6377879966428518,0.30527509998454266,-0.4758051474422259,-0.3281603064406193,0.03000580578411767,0.09212962072728562,-0.10573454201221466,-0.18176034092903137,0.16390535235404968,0.06963369995355606,-0.16842392086982727,0.9615795016288757,-0.05017486959695816,-0.14232130348682404,0.1857062131166458,0.7887046337127686,-0.5853220820426941,0.06712494790554047
0.24,0.014887839555740356,0.18699440360069275,-0.0687788799405098,-0.10510499775409698,-0.03591172397136688,-0.055089935660362244,0.64698725938797,0.28374814987182617,-0.4502018094062805,-0.21258944272994995,0.008264548145234585,0.24069833755493164,0.006128779754198365,0.14089830052510757,-0.08207176429932354,0.030939448000981085,-0.026112001446552093,-0.06852802186019054,0.6427295614499628,0.2949401115334987,-0.46347691302338384,-0.3246677535237697,0.02245747123333295,0.09647461698226734,-0.11017987132072449,-0.21020999550819397,0.21398882567882538,0.06749631464481354,-0.08517886698246002,0.9627933502197266,-0.07182344794273376,-0.1375577598810196,0.18977567553520203,0.7939745187759399,-0.56040358543396,0.03305819258093834
0.26,0.01856882870197296,0.1998436152935028,-0.07329820096492767,-0.11162044107913971,-0.04196064546704292,-0.0590646006166935,0.6481112241744995,0.28188955783843994,-0.43079501390457153,-0.18918879330158234,0.001974401529878378,0.24082913994789124,0.006669490718245052,0.1623372383614119,-0.09760569238469045,0.02733151327045,-0.03332583679353595,-0.0632356734038503,0.6454598165770088,0.28573747589452564,-0.4487128060810365,-0.3224128650815074,0.013569816095695613,0.10089470556639218,-0.118129201233387,-0.22324088215827942,0.2396872490644455,0.06377911567687988,-0.03837757557630539,0.9633165597915649,-0.08392129093408585,-0.14659640192985535,0.19713765382766724,0.7962223887443542,-0.521589994430542,0.007897606119513512
0.28,0.01995646208524704,0.20184776186943054,-0.08134612441062927,-0.1127963587641716,-0.04387196898460388,-0.06349032372236252,0.6468895673751831,0.28212854266166687,-0.4096667766571045,-0.16815721988677979,-0.002131654182448983,0.23946523666381836,0.010525633470377781,0.17835339449999288,-0.10737737452062816,0.024396666767993132,-0.03747117515681904,-0.059924489699545655,0.644184747996642,0.28144779130488623,-0.43087303363023205,-0.3237892212551262,0.0063416225150776506,0.10541486987793033,-0.12698064744472504,-0.2255927175283432,0.24369552731513977,0.06425706297159195,0.003685550531372428,0.9578609466552734,-0.08774393796920776,-0.16269224882125854,0.1999129205942154,0.7937790751457214,-0.4793335199356079,-0.008526616729795933
0.3,0.01887037605047226,0.19770948588848114,-0.09156837314367294,-0.11220140755176544,-0.04169128090143204,-0.06723449379205704,0.6417324542999268,0.28311848640441895,-0.39159417152404785,-0.15626555681228638,-0.002226640237495303,0.2405463308095932,0.01599020612961974,0.18944968509713667,-0.11330503820612492,0.021078185293151044,-0.03818360943660896,-0.05882223875719508,0.638321570454304,0.28272691460963056,-0.4120470121206467,-0.32940669534688977,0.0019310333187860832,0.10924720981003737,-0.13446898758411407,-0.22440281510353088,0.23541897535324097,0.06623698025941849,0.027468878775835037,0.9621853232383728,-0.08338256180286407,-0.1831367462873459,0.19774074852466583,0.7834649682044983,-0.4431883692741394,-0.008906560949981213
0.32,0.018597543239593506,0.19004997611045837,-0.1030498594045639,-0.10851601511240005,-0.03734603896737099,-0.06983958929777145,0.633664608001709,0.2879900336265564,-0.37424415349960327,-0.13705667853355408,-0.0034740003757178783,0.24002566933631897,0.02236796307637669,0.19590595370785446,-0.11728193034875374,0.0167921907456064,-0.03611145490550341,-0.05944203891699801,0.6288135288704599,0.28839848817162944,-0.3938165456027077,-0.33848097085419193,-0.0005849795621136335,0.11299881785040394,-0.1396791785955429,-0.2170320302248001,0.22009995579719543,0.07598009705543518,0.06588663905858994,0.9601026773452759,-0.07469207793474197,-0.2060997188091278,0.19719508290290833,0.7673292756080627,-0.40848833322525024,-0.013896001502871513
0.34,0.020943425595760345,0.18272751569747925,-0.11459480226039886,-0.10467654466629028,-0.03179069980978966,-0.07159636169672012,0.6220477819442749,0.29716601967811584,-0.3571377992630005,-0.10574637353420258,-0.003722966182976961,0.23936499655246735,0.028946918035550953,0.1983622519156883,-0.1204899356980439,0.011608125777509776,-0.03231611741761938,-0.06074481749255785,0.6167442970062517,0.2968278001350435,-0.37632068005162533,-0.3500014846529545,-0.0020664137823489023,0.11631496178304401,-0.14319272339344025,-0.20935308933258057,0.20545503497123718,0.09433203935623169,0.12850725650787354,0.9574599862098694,-0.06358139961957932,-0.22918960452079773,0.201886847615242,0.7440956234931946,-0.3742755949497223,-0.014891864731907845
0.36,0.025678180158138275,0.1759711503982544,-0.12614023685455322,-0.10277055948972702,-0.025320256128907204,-0.07319611310958862,0.6062750816345215,0.31025177240371704,-0.34000352025032043,-0.05565702170133591,-0.0037288654129952192,0.2388736456632614,0.03526244012270011,0.19736810634581922,-0.12381782782552996,0.005671256315356802,-0.02733335947931775,-0.061968756456788884,0.6020198300328788,0.30643844730860365,-0.359163852434827,-0.36292282927770436,-0.002872716123173712,0.1191116547654909,-0.14639222621917725,-0.20554111897945404,0.19194228947162628,0.12050354480743408,0.22868596017360687,0.9554945826530457,-0.05064051225781441,-0.25228047370910645,0.21135635673999786,0.712550163269043,-0.3400070369243622,-0.014915461651980877
0.38,0.03164727985858917,0.16810926795005798,-0.13881465792655945,-0.10254617780447006,-0.017269814386963844,-0.07544853538274765,0.5855022668838501,0.32714134454727173,-0.32445067167282104,0.023952573537826538,-0.0035447815898805857,0.23828551173210144,0.0412020905117767,0.1931175123057816,-0.12800033199187372,-0.0009346022320665842,-0.020876157206741682,-0.06282932070215358,0.5835806914643156,0.3161977503910501,-0.3425072779029105,-0.37647939952669124,-0.0032659110386476157,0.12132733059667511,-0.1508970707654953,-0.20509235560894012,0.17621852457523346,0.15428265929222107,0.38790515065193176,0.9531420469284058,-0.03453962877392769,-0.2776293158531189,0.22329455614089966,0.671004593372345,-0.3089013397693634,-0.014179126359522343
0.4,0.0371590331196785,0.15650805830955505,-0.15253333747386932,-0.10332001000642776,-0.006201933138072491,-0.07912995666265488,0.5599603652954102,0.34857600927352905,-0.3119872808456421,0.13592256605625153,-0.004165498074144125,0.2368888407945633,0.04684720693995359,0.18542382680896413,-0.13353521800871915,-0.008098040507918278,-0.011734319660005245,-0.06334682352971256,0.560573934555691,0.32624783624637554,-0.32731174234895694,-0.39038536179391026,-0.003691067378608246,0.1226831086029847,-0.15825991332530975,-0.20664002001285553,0.1530161052942276,0.1971520036458969,0.6118451356887817,0.9475553631782532,-0.012403866276144981,-0.30506667494773865,0.2343180626630783,0.6199206709861755,-0.2839745581150055,-0.0166619922965765
0.42,0.040181390941143036,0.13829277455806732,-0.16674686968326569,-0.10200357437133789,0.009003376588225365,-0.08456452935934067,0.5294797420501709,0.37527596950531006,-0.3009459376335144,0.2456260472536087,-0.005870637483894825,0.23351605236530304,0.05173571940063982,0.17328145493941002,-0.1407991322130778,-0.01542641651758444,0.0017209012924406727,-0.06672942087166532,0.532286580708146,0.33921813437523374,-0.3140189887134203,-0.4063304322141788,-0.0046129913087922135,0.12415172534302207,-0.16912905871868134,-0.20400714874267578,0.11658555269241333,0.2505519390106201,0.8312520980834961,0.9340642094612122,0.01800675317645073,-0.33349373936653137,0.24036277830600739,0.5589595437049866,-0.26189184188842773,-0.0234825499355793
0.44,0.04497633874416351,0.11503379046916962,-0.18244777619838715,-0.09813164919614792,0.027540629729628563,-0.09144648909568787,0.4959604740142822,0.40909311175346375,-0.28928354382514954,0.30708634853363037,-0.009419634006917477,0.22488687932491302,0.055177020464806915,0.15464783065258353,-0.1483269258817037,-0.020677413939027063,0.018629630289276087,-0.07418869817117235,0.5001215446905368,0.3605716645504346,-0.3019262923283456,-0.4235325491128295,-0.006619309742953487,0.12633549617875361,-0.18289297819137573,-0.19626329839229584,0.07006759196519852,0.3181862235069275,0.954172670841217,0.8995475172996521,0.055081259459257126,-0.3648955523967743,0.24995267391204834,0.49192097783088684,-0.23856709897518158,-0.03767853602766991
0.46,0.05705730617046356,0.08881720900535583,-0.19206956028938293,-0.10115521401166916,0.04719536378979683,-0.0991142988204956,0.45834141969680786,0.44684430956840515,-0.28941774368286133,0.32199758291244507,-0.018789349123835564,0.21974581480026245,0.05816689169664007,0.12856563019503217,-0.15671520824398535,-0.02400526990509597,0.03775390985649869,-0.0844069928481629,0.4655957348269593,0.3920723087864012,-0.2937227497898043,-0.441608785319541,-0.011372436516650233,0.13009883469542177,-0.1982285976409912,-0.20231042802333832,0.017634417861700058,0.3936886191368103,0.9839951395988464,0.8789832592010498,0.09439072757959366,-0.38413912057876587,0.27411460876464844,0.41668280959129333,-0.23883551359176636,-0.07515739649534225
0.48,0.07089701294898987,0.05509016662836075,-0.19435589015483856,-0.10708583891391754,0.0665188804268837,-0.10681154578924179,0.41299694776535034,0.48715198040008545,-0.2923533022403717,0.32623785734176636,-0.04065139964222908,0.21565772593021393,0.06194391407686071,0.09542523668744274,-0.16549845211012984,-0.025560318517390407,0.057679923638327545,-0.09453971027563977,0.4262603482885026,0.4315024604264411,-0.2904463138596563,-0.4580590797593984,-0.022539738623576583,0.13310361532916903,-0.21362309157848358,-0.21417167782783508,-0.04981966316699982,0.4743039309978485,0.992475688457489,0.8626309037208557,0.1330377608537674,-0.3887117803096771,0.30179402232170105,0.32599392533302307,-0.24470660090446472,-0.16260559856891632
0.5,0.08606418967247009,0.010688133537769318,-0.1876901239156723,-0.10802079737186432,0.08344361186027527,-0.11393138021230698,0.3548301160335541,0.5329470038414001,-0.2991553843021393,0.3279998302459717,-0.08626436442136765,0.20209796726703644,0.067591171573223,0.0545131290109877,-0.1726055226941317,-0.024014752656177307,0.07636421531866067,-0.10379559662022012,0.3764669578250105,0.4771784972791,-0.291340353866401,-0.47030122086292653,-0.04692776290295249,0.13449632558004443,-0.22786276042461395,-0.21604159474372864,-0.13862372934818268,0.5658940076828003,0.9959996342658997,0.8083918690681458,0.16688722372055054,-0.3753802478313446,0.3321283757686615,0.20966021716594696,-0.2583107650279999,-0.3450574576854706
0.52,0.10393789410591125,-0.039198778569698334,-0.17517666518688202,-0.09412556886672974,0.09455012530088425,-0.12022264301776886,0.29204490780830383,0.5902731418609619,-0.28055626153945923,0.3286972641944885,-0.13548552989959717,0.15995052456855774,0.07537105628299465,0.006231979464890057,-0.17470746974280063,-0.01725929974208634,0.09015531815712474,-0.11323500407090022,0.3175542440544574,0.5307360528783979,-0.2879380704233499,-0.4761365086659808,-0.08403925369567394,0.12839091311416864,-0.24044528603553772,-0.18825113773345947,-0.23839755356311798,0.6805462837219238,0.9973945617675781,0.639802098274231,0.1891002506017685,-0.35035333037376404,0.3678757846355438,0.08408981561660767,-0.22111254930496216,-0.5419421195983887
0.54,0.12322357296943665,-0.09009326994419098,-0.13399715721607208,-0.05467367172241211,0.09297588467597961,-0.12630689144134521,0.2589026987552643,0.6595934629440308,-0.2258983999490738,0.3281843066215515,-0.19059108197689056,0.0475674569606781,0.08655696605840674,-0.045613844353434435,-0.16419311293905853,-0.0005659527615253688,0.093715523849358,-0.12386196871709244,0.27153499478923837,0.5953428763831509,-0.26711160207063017,-0.4719723129907205,-0.13023296796596104,0.1020626711924708,-0.25261378288269043,-0.10934734344482422,-0.34018653631210327,0.8191869258880615,0.9963685870170593,0.1902698278427124,0.18595176935195923,-0.26799431443214417,0.4064471423625946,0.017805417999625206,-0.1117967888712883,-0.7623643279075623
0.56,0.14961624145507812,-0.13835833966732025,-0.03267999365925789,0.015285088680684566,0.06916739046573639,-0.12115935981273651,0.2888343334197998,0.7037584781646729,-0.2831522226333618,0.30776339769363403,-0.24079172313213348,-0.08998598158359528,0.10683316598942527,-0.09344515256495611,-0.12744925306134033,0.035971837590546625,0.07875524558245227,-0.12855767432043463,0.27375345068070334,0.6614461811841658,-0.2608558947413874,-0.448665706476618,-0.1769626022439692,0.04915986819339368,-0.24231871962547302,0.030570177361369133,-0.4367166757583618,0.9075168967247009,0.9555268287658691,-0.3599439263343811,0.13833478093147278,-0.06535998731851578,0.45923247933387756,0.0776686891913414,-0.22630447149276733,-0.9631668925285339
0.58,0.15744413435459137,-0.20155541598796844,0.025970429182052612,0.08265873789787292,0.04642216116189957,-0.07511886209249496,0.31102073192596436,0.6811270713806152,-0.437957227230072,-0.5134702920913696,-0.2476821392774582,-0.04455842822790146,0.13676201696548798,-0.13112621561683757,-0.09385562989559408,0.06630408549491057,0.06456043572672968,-0.09617121714989252,0.3123160101915581,0.6958400743270784,-0.24366612794459444,-0.45579697193445373,-0.14086545289188118,-0.0025860498693853987,-0.15023772418498993,0.16531747579574585,-0.5631108283996582,0.8622541427612305,-0.6869405508041382,-0.17823371291160583,0.09284432232379913,0.051940858364105225,0.47488826513290405,0.1220414787530899,-0.535914421081543,-0.9907285571098328
0.6,0.16432267427444458,-0.20677877962589264,0.06940459460020065,0.1326831579208374,0.041794683784246445,-0.0338737778365612,0.3109876811504364,0.6490962505340576,-0.3659655451774597,-0.4646705985069275,-0.24771779775619507,0.009763185866177082,0.1573900965717022,-0.15446981455605974,-0.06148914276085346,0.09451782515416225,0.06493778300768607,-0.0498668846836028,0.3438401404592108,0.6748701698994652,-0.24619799538430803,-0.46562198511633923,-0.0976414894287014,-0.012189370461680074,-0.0677475556731224,0.2653663158416748,-0.5735575556755066,0.7981924414634705,-0.5893412232398987,0.03905274346470833,0.08358936756849289,0.1388091892004013,0.4886453449726105,0.121975377202034,-0.39193108677864075,-0.9908711910247803
0.62,0.15800653398036957,-0.19448013603687286,0.08954960852861404,0.1368975043296814,0.04109854996204376,-0.020690366625785828,0.32013553380966187,0.6349431872367859,-0.29494228959083557,-0.45010411739349365,-0.24792779982089996,0.0267166867852211,0.16271837933970126,-0.1675153092481216,-0.03640607997701419,0.11073900953182607,0.07140658702384468,-0.025652537503612943,0.3578055832501292,0.638665009871684,-0.26204932374785156,-0.461217788890806,-0.06198291826765865,0.0021973687783794576,-0.041380733251571655,0.2737950086593628,-0.548960268497467,0.7698863744735718,-0.5602082014083862,0.1068667471408844,0.08219709992408752,0.1790992170572281,0.47601306438446045,0.14027109742164612,-0.24988457560539246,-0.9917111992835999
0.64,0.13306637108325958,-0.20690207183361053,0.13975968956947327,0.12156687676906586,0.041906651109457016,-0.015999458730220795,0.3264929950237274,0.6228197813034058,-0.27482789754867554,-0.3867115378379822,-0.24687626957893372,0.027396421879529953,0.15767440206127892,-0.17746816440439278,-0.0197313933801487,0.11844595512348001,0.07415597880090075,-0.01816148807099446,0.36063827678069593,0.6174207074687821,-0.2701984878901282,-0.4355507312998679,-0.06316652735372835,0.01571075605899415,-0.03199891746044159,0.2431337535381317,-0.5738041400909424,0.7456396222114563,-0.4334230422973633,0.10958568751811981,0.08381330221891403,0.27951937913894653,0.4261327385902405,0.15298597514629364,-0.20965576171875,-0.9875050783157349
0.66,0.12228843569755554,-0.21003617346286774,0.14743301272392273,0.11838238686323166,0.045888759195804596,-0.015153762884438038,0.32548171281814575,0.6033138632774353,-0.2805764973163605,-0.38310056924819946,-0.2465391904115677,0.04039072245359421,0.1476239101798956,-0.18638560551778202,-0.0016380489627431933,0.1254530525014042,0.07307633601461438,-0.017660579294197697,0.35680591905034503,0.6034173907723064,-0.2744367317956521,-0.40722516419718735,-0.0632833188663793,0.026741276017730898,-0.030307525768876076,0.23676477372646332,-0.5800723433494568,0.7066277265548706,-0.4262011647224426,0.16156288981437683,0.09177751839160919,0.29486602544784546,0.4045768678188324,0.1509634256362915,-0.22115297615528107,-0.9861567616462708
0.68,0.11421859264373779,-0.21774156391620636,0.13973940908908844,0.12225578725337982,0.049828674644231796,-0.015875685960054398,0.3250962793827057,0.5891104936599731,-0.2882632315158844,-0.3504166007041931,-0.24667619168758392,0.04796098172664642,0.1373322267028744,-0.19566379302627687,0.015400421180709856,0.12957646201305378,0.06966149045862784,-0.0178710213637652,0.3504332760255648,0.5901316371990936,-0.2771809393373892,-0.3810428050915409,-0.06287446678958092,0.0365983572629171,-0.031751371920108795,0.24451157450675964,-0.595483124256134,0.6782209277153015,-0.36083322763442993,0.1918439269065857,0.09965734928846359,0.2794788181781769,0.3884371817111969,0.15019255876541138,-0.2365264594554901,-0.9867047667503357
0.7000000000000001,0.1067889928817749,-0.22236062586307526,0.13302911818027496,0.12534289062023163,0.0530540831387043,-0.01842278055846691,0.3245709538459778,0.5752081871032715,-0.29098111391067505,-0.34084856510162354,-0.24718433618545532,0.04941351339221001,0.12704559032061488,-0.2042775614078281,0.02963914330037279,0.12954377138809497,0.06596818447270066,-0.018564250168390965,0.34491927865689065,0.5769486774927794,-0.2807369321570149,-0.35937210877356773,-0.062311998931528195,0.043405888974731334,-0.03684556111693382,0.25068578124046326,-0.6047212481498718,0.6504163146018982,-0.3416971266269684,0.19765405356884003,0.1061081662774086,0.2660582363605499,0.3735779821872711,0.14914190769195557,-0.2419622540473938,-0.9887373447418213
0.72,0.10267433524131775,-0.22161172330379486,0.13390129804611206,0.12556195259094238,0.05602872371673584,-0.02303500287234783,0.3249598741531372,0.5573269128799438,-0.29084545373916626,-0.3214107155799866,-0.24785351753234863,0.049236465245485306,0.1172790740873115,-0.21096251149291292,0.04115026991127419,0.12618918265001153,0.06299430402575815,-0.02105959401694916,0.342725545343364,0.5607081997955019,-0.2868726183805707,-0.34088119303334063,-0.061536461778928346,0.046927930291627055,-0.04607000574469566,0.25112390518188477,-0.603223443031311,0.6146537661552429,-0.30282142758369446,0.19694586098194122,0.11205744743347168,0.2678025960922241,0.3653486669063568,0.1499197632074356,-0.24169088900089264,-0.9914140701293945
0.74,0.09938059747219086,-0.21333755552768707,0.13821949064731598,0.1260608583688736,0.05928994342684746,-0.03023401089012623,0.3290488123893738,0.5341011881828308,-0.27547600865364075,-0.31001466512680054,-0.2485038936138153,0.04939929023385048,0.1076279195294344,-0.2139398237350315,0.050881756009088834,0.12137487222799592,0.061257520325587414,-0.02622203447940939,0.3448881876914771,0.5386891579541558,-0.2962819167065593,-0.324856280969905,-0.06042060758279077,0.04851250039451058,-0.06046802178025246,0.2521217167377472,-0.5866751074790955,0.5682023763656616,-0.280029296875,0.19759716093540192,0.11857988685369492,0.27643898129463196,0.358761191368103,0.15809765458106995,-0.210952028632164,-0.9940155744552612
0.76,0.09669993817806244,-0.19829373061656952,0.14423955976963043,0.12752242386341095,0.06290459632873535,-0.03964154049754143,0.33836469054222107,0.5037017464637756,-0.2489294707775116,-0.293292760848999,-0.24896064400672913,0.04886047914624214,0.09808960053877455,-0.212076880873586,0.0598272943798507,0.11704938147278504,0.06063943304443791,-0.034145373708998984,0.3519202695534834,0.5094715194241188,-0.30931405435474696,-0.30972572966244344,-0.05929741229361462,0.049039038512498044,-0.07928308099508286,0.2550448477268219,-0.5565874576568604,0.5074034929275513,-0.24658550322055817,0.19544191658496857,0.1258091926574707,0.28847911953926086,0.3533998727798462,0.17672939598560333,-0.1578589379787445,-0.9958425760269165
0.78,0.09311975538730621,-0.17725782096385956,0.15027379989624023,0.13240790367126465,0.06697815656661987,-0.05112476274371147,0.3550015091896057,0.46529603004455566,-0.20094601809978485,-0.2752056419849396,-0.24922813475131989,0.047538843005895615,0.08866748589091919,-0.20446355510916978,0.06864257639206138,0.11472023554443694,0.06083244437247439,-0.04450066208309666,0.36414886158913073,0.47253263685417474,-0.32606355110305135,-0.2936297953783406,-0.05889379046482619,0.048951470428219644,-0.10224952548742294,0.2648158073425293,-0.5145156383514404,0.43059203028678894,-0.21041129529476166,0.19015537202358246,0.13395631313323975,0.30054759979248047,0.34623950719833374,0.21000298857688904,-0.06189202517271042,-0.9969125390052795
0.8,0.08828054368495941,-0.15171879529953003,0.1563398838043213,0.14299435913562775,0.07275362312793732,-0.0637500137090683,0.38355132937431335,0.419030100107193,-0.10871291160583496,-0.25282931327819824,-0.24931074678897858,0.04787787050008774,0.07967055804621186,-0.19079955962203948,0.0778170560692497,0.11574137913658779,0.061690360595061056,-0.05639611631086482,0.3823583801166565,0.42817421296055697,-0.34676498483214374,-0.2751909240814226,-0.06005790098330391,0.04884444353166774,-0.1275000274181366,0.2859887182712555,-0.46343758702278137,0.338060200214386,-0.1656585931777954,0.19151148200035095,0.14550724625587463,0.3126797676086426,0.33656108379364014,0.2671026587486267,0.12257418036460876,-0.9972429871559143
0.8200000000000001,0.08451834321022034,-0.12057040631771088,0.1546252816915512,0.15297643840312958,0.08098267018795013,-0.07552145421504974,0.4266923666000366,0.36667609214782715,0.05928605794906616,-0.2296922206878662,-0.2491104006767273,0.05770633742213249,0.07157338979921062,-0.17118630145062436,0.08615281428408139,0.1197374637199123,0.06374249996657066,-0.06848650882978581,0.4075753462063388,0.3775826082235309,-0.37140374504081014,-0.25444402608584904,-0.06623390606953174,0.05179227548217706,-0.1510429084300995,0.30595287680625916,-0.40114080905914307,0.2333521544933319,-0.11938445270061493,0.23082534968852997,0.16196534037590027,0.3092505633831024,0.329036682844162,0.35338470339775085,0.458572119474411,-0.9964416027069092
0.84,0.08073501288890839,-0.08386139571666718,0.1265738606452942,0.1488376408815384,0.09167907387018204,-0.08332633227109909,0.486791729927063,0.3094266355037689,0.24814946949481964,-0.2071092575788498,-0.24766671657562256,0.08980739861726761,0.06717069736776726,-0.14294128983985507,0.08610988973894518,0.1191949543759574,0.07848126630754113,-0.07846129029950107,0.4469308532245518,0.3216131423590338,-0.3903514876318407,-0.2326978850142129,-0.0689718472839952,0.06531283729629585,-0.16665266454219818,0.2976752817630768,-0.32772278785705566,0.11885325610637665,-0.0742185190320015,0.35922959446907043,0.18335814774036407,0.2531477212905884,0.3214700222015381,0.4735834300518036,0.836298942565918,-0.9906668663024902
0.86,0.04514199495315552,-0.05998711287975311,0.06618308275938034,0.11671535670757294,0.11004780232906342,-0.08666224777698517,0.5636842250823975,0.2534695863723755,0.30645108222961426,-0.19305798411369324,-0.24196937680244446,0.14105406403541565,0.06241916856161283,-0.10431426654242114,0.0687868407533704,0.10561523924133198,0.09979769669995005,-0.08361034619093635,0.5011964918200873,0.2693070636554908,-0.3989518232200458,-0.21330509447874627,-0.0841580329252488,0.09503795529283258,-0.17332449555397034,0.23343071341514587,-0.27997422218322754,0.006939176470041275,-0.04611596092581749,0.5642162561416626,0.22009560465812683,0.13236616551876068,0.25028398633003235,0.6273683905601501,0.9529021978378296,-0.9678775072097778
0.88,0.03513438254594803,-0.029833778738975525,0.0005049200262874365,0.05129511281847954,0.12204720079898834,-0.07957251369953156,0.6346594095230103,0.2547377943992615,0.2683461308479309,-0.26200470328330994,-0.21723876893520355,0.21106567978858948,0.058161480428748066,-0.06638379336537412,0.03277165929326542,0.07435771343437306,0.11940313022419569,-0.0806895723952406,0.5698799863581503,0.24941034770007117,-0.3930382788306436,-0.22326152908202196,-0.10901841776903547,0.14283975935723844,-0.1591450273990631,0.10259022563695908,-0.21966755390167236,0.009475615806877613,-0.18400941789150238,0.8442627191543579,0.24409440159797668,0.001009840052574873,0.23026876151561737,0.7693188190460205,0.8766922950744629,-0.8689550757408142
0.9,0.03055674582719803,0.0021839439868927,-0.06731671094894409,-0.007874628528952599,0.10409631580114365,-0.06940800696611404,0.6480380296707153,0.2983165383338928,-0.3840712308883667,-0.4212784767150879,-0.09678015112876892,0.2408059984445572,0.045377758352150875,-0.03824279469510912,0.002411888748072452,0.04745548381325466,0.10922707068647841,-0.07252772725345849,0.6342259348741368,0.2843499680492395,-0.3874831513098167,-0.22254621518209403,-0.11374266977749772,0.13287234891492442,-0.1388160139322281,-0.015749257057905197,-0.1556321084499359,0.09663308411836624,-0.5025569200515747,0.9632239937782288,0.2081926316022873,-0.13463342189788818,0.22111348807811737,0.7960761189460754,-0.4281424880027771,-0.3871206045150757
0.92,0.00995558500289917,0.045456163585186005,-0.0951458141207695,-0.039166275411844254,0.06251562386751175,-0.05757675692439079,0.6148920655250549,0.2911405861377716,-0.49925661087036133,-0.43042057752609253,0.07585848867893219,0.24927161633968353,0.020493082467776123,-0.009961873856886391,-0.025623655933938026,0.02947785396629944,0.07159949799977382,-0.06898313012850989,0.6417588680384377,0.32465980132967565,-0.4171548748265097,-0.2190842362358485,-0.052312543788435806,0.09716743717284955,-0.11515351384878159,-0.07833255082368851,-0.0690876692533493,0.08228114992380142,-0.5208411812782288,0.9970864653587341,0.1250312477350235,-0.190291628241539,0.17991116642951965,0.7297841310501099,-0.6585131883621216,0.30343395471572876
0.9400000000000001,-0.01603170484304428,0.030275020748376846,-0.08579481393098831,-0.07717438787221909,0.04660651832818985,-0.04856838658452034,0.6200577616691589,0.3001355826854706,-0.4693371653556824,-0.40327176451683044,0.0412834957242012,0.2496524602174759,0.00565250869578095,0.010552186168717623,-0.04777372926875529,0.01787457921974197,0.04974160177734478,-0.06976736231511409,0.6211733761195157,0.34838484386157403,-0.4487051492627131,-0.22383950539895855,0.004464103503824627,0.06563112241084416,-0.09713677316904068,-0.15434877574443817,-0.09944995492696762,0.10027118027210236,-0.4665435254573822,0.9986098408699036,0.0932130366563797,-0.17158962786197662,0.12793658673763275,0.7401155233383179,-0.5986742973327637,0.1651339828968048
0.96,-0.02514447271823883,0.04977715387940407,-0.08572103083133698,-0.11545279622077942,0.04016226902604103,-0.04426626116037369,0.6181970834732056,0.32395440340042114,-0.46097898483276367,-0.3167569041252136,0.02036464773118496,0.24973022937774658,-0.006074521558028829,0.029745964537898323,-0.06461010865865678,0.008934017420673828,0.042807582510593745,-0.07542938896756629,0.6072799460447694,0.3655233829960716,-0.4600219355243271,-0.24501907209009954,0.022403502908424792,0.03507274578794784,-0.08853252232074738,-0.23090559244155884,-0.06044568866491318,0.1479087769985199,-0.29351380467414856,0.9989209175109863,0.08032453805208206,-0.17144206166267395,0.10971105098724365,0.7363941073417664,-0.5819579362869263,0.08145859092473984
0.98,-0.012952566146850586,0.0891149565577507,-0.06173300743103027,-0.15495413541793823,0.025649409741163254,-0.04371396824717522,0.6016156077384949,0.33226296305656433,-0.4173453450202942,-0.2756830155849457,0.007063115481287241,0.24969442188739777,-0.015328266876140147,0.049933574058658,-0.07740609049859651,0.00458296796777019,0.03411255702982352,-0.07628922951064292,0.5997380447304147,0.37192707557835436,-0.44808015757804415,-0.25880632614348553,0.02004363572208993,0.02660743200262265,-0.08742793649435043,-0.30990827083587646,0.018229922279715538,0.16452594101428986,-0.21136604249477386,0.9987776875495911,0.05129881948232651,-0.12346601486206055,0.13409486413002014,0.7032312154769897,-0.4946906566619873,0.028252461925148964
1.0,-0.004742830991744995,0.0999702587723732,-0.05511211231350899,-0.18845148384571075,0.019729191437363625,-0.0494355671107769,0.5844174027442932,0.34316277503967285,-0.3805779218673706,-0.23995906114578247,0.0013071318389847875,0.24959911406040192,-0.018227860283349436,0.06531048435148615,-0.08875973123903326,-0.0019431017740732409,0.02779208919246083,-0.0754164154432735,0.5878287125594236,0.37211255213135563,-0.4194868775839422,-0.2691208247081624,0.012509588107060312,0.02709717288035057,-0.0988711342215538,-0.3769029676914215,0.039940524846315384,0.1863255500793457,-0.13991811871528625,0.9983964562416077,0.03945838287472725,-0.11022422462701797,0.15051433444023132,0.6688348054885864,-0.4211558699607849,0.00522852735593915
1.02,0.004904419183731079,0.10013565421104431,-0.06591930985450745,-0.18872110545635223,0.019230753183364868,-0.055561065673828125,0.5642275214195251,0.35722070932388306,-0.34596043825149536,-0.18945057690143585,-0.0012141108745709062,0.2494540959596634,-0.015377834466294763,0.07419646540854152,-0.09899133134363071,-0.013071205231502037,0.0256313536414666,-0.07398627423715774,0.5702764691804734,0.3725325729784747,-0.38525176689327434,-0.27963108429848377,0.006221954386630377,0.02624427417587216,-0.11112213134765625,-0.37744221091270447,0.04027130454778671,0.21444138884544373,-0.03890114650130272,0.9978163838386536,0.038461506366729736,-0.1318386197090149,0.16980883479118347,0.6284550428390503,-0.3519209027290344,-0.004856443498283625
1.04,0.012919068336486816,0.09027798473834991,-0.08187387883663177,-0.1785440295934677,0.02332003228366375,-0.060707371681928635,0.539596438407898,0.3704615831375122,-0.31956160068511963,-0.1461275815963745,-0.00013631765614263713,0.24935926496982574,-0.008352336732937483,0.07674622391612047,-0.1066337169883583,-0.026637408594165937,0.026846430402735936,-0.07229930200669653,0.5475417383212611,0.3765026587345971,-0.35266942621154657,-0.2920229845290896,0.0029087997130088526,0.025327267511880497,-0.12141474336385727,-0.3570880591869354,0.020555971190333366,0.24092316627502441,0.047744832932949066,0.997437059879303,0.0466400645673275,-0.16374775767326355,0.18583813309669495,0.5791928172111511,-0.29912319779396057,-0.0005452706245705485
1.06,0.02098759263753891,0.07312163710594177,-0.09838659316301346,-0.16798783838748932,0.031095333397388458,-0.06528716534376144,0.5102689266204834,0.3855651915073395,-0.2951202392578125,-0.09523384273052216,-0.0005350215942598879,0.2492610663175583,0.0015915625228228307,0.0731857737457072,-0.11077319462926095,-0.03989223136165218,0.031198337038303867,-0.07075579262238918,0.519442807963887,0.38522708701892866,-0.3239285783438769,-0.306772208643191,0.0013727451928760809,0.027009353737957507,-0.1305743306875229,-0.33597567677497864,-0.013756725005805492,0.27113038301467896,0.14953231811523438,0.9970442652702332,0.062190666794776917,-0.19677318632602692,0.20197518169879913,0.5205379128456116,-0.2502404451370239,-0.0021400863770395517
1.08,0.028625383973121643,0.047960612922906876,-0.11249076575040817,-0.16158071160316467,0.04201054573059082,-0.07055475562810898,0.4740030765533447,0.405295193195343,-0.27486154437065125,-0.020698711276054382,-0.004442316945642233,0.24908043444156647,0.013743453532625528,0.06347808411548927,-0.11257612404597066,-0.05196674492557957,0.03890900450531596,-0.06924897907935958,0.4847894682021615,0.39855298005619605,-0.2990802828105164,-0.32361576063296904,-0.0007376893059635302,0.034093870616736674,-0.14110951125621796,-0.32316142320632935,-0.06407877057790756,0.31059038639068604,0.2986025810241699,0.9963217377662659,0.08402109146118164,-0.22498153150081635,0.2172507643699646,0.44800615310668945,-0.209723100066185,-0.01776926778256893
1.1,0.036111846566200256,0.013849034905433655,-0.12481243163347244,-0.1552347093820572,0.05539718642830849,-0.07670878618955612,0.4294063448905945,0.4330793023109436,-0.2584327459335327,0.09667934477329254,-0.014973235316574574,0.24868685007095337,0.02772535703143259,0.04701497004644551,-0.11354891953683556,-0.06266950827973178,0.049859731263812414,-0.06763141309927857,0.44203459143076945,0.41640290285097614,-0.2781510578214672,-0.34232783225116703,-0.006049632752348463,0.04561005716877401,-0.15341757237911224,-0.3104694187641144,-0.132301926612854,0.3661586046218872,0.5333586931228638,0.9947474002838135,0.11079437285661697,-0.24962486326694489,0.23222368955612183,0.35881268978118896,-0.17686547338962555,-0.059892941266298294
1.12,0.045276135206222534,-0.030102550983428955,-0.13144934177398682,-0.1418924182653427,0.06961826235055923,-0.083873450756073,0.3751417100429535,0.47470325231552124,-0.25358930230140686,0.23915083706378937,-0.04667486250400543,0.24727420508861542,0.04166662598977674,0.02044637174478757,-0.11239336929380862,-0.06948426928168071,0.06330581269261233,-0.0747403137985982,0.389522940508843,0.4443460255087847,-0.2635800965566102,-0.35797337034074067,-0.021046574985066867,0.053188646595389286,-0.167746901512146,-0.2837848365306854,-0.22020509839057922,0.4494064748287201,0.8183016777038574,0.9890968203544617,0.13923652470111847,-0.26289868354797363,0.2505522668361664,0.250283420085907,-0.16717861592769623,-0.18669945001602173
1.1400000000000001,0.08083942532539368,-0.06988281011581421,-0.11725521087646484,-0.10881128907203674,0.07929236441850662,-0.0945575162768364,0.3110350966453552,0.5315227508544922,-0.2753140330314636,0.30471271276474,-0.11826514452695847,0.2411150336265564,0.05749020128467808,-0.0193481038774976,-0.10448711226287065,-0.06651377885663708,0.07417101371586426,-0.08727144808274846,0.3310896944857143,0.48491335983799705,-0.2624997346753819,-0.3659033597631683,-0.05784675219989456,0.061293297666846366,-0.1891150325536728,-0.2176225781440735,-0.29976561665534973,0.5630455017089844,0.949425458908081,0.9644601345062256,0.15858472883701324,-0.2345104217529297,0.32167884707450867,0.12207017093896866,-0.21062807738780975,-0.47306057810783386
1.16,0.12376460433006287,-0.10570865869522095,-0.0755702555179596,-0.0524427555501461,0.07670365273952484,-0.10641160607337952,0.2670813798904419,0.6056663990020752,-0.23630332946777344,0.3128741979598999,-0.19249658286571503,0.2103336602449417,0.07629453893996105,-0.06716707318811106,-0.0838807821956277,-0.04857380862579895,0.07578377256486692,-0.10276256512632564,0.2825355042118696,0.5397234952194492,-0.25608594817638214,-0.36314732811066364,-0.11470646555168758,0.07451871929224646,-0.21282321214675903,-0.1048855111002922,-0.3714173138141632,0.7113328576087952,0.9657484292984009,0.8413346409797668,0.15340730547904968,-0.1511405110359192,0.40752920508384705,0.03416276350617409,-0.1326066553592682,-0.7699863314628601
1.18,0.16852526366710663,-0.14645034074783325,0.004836474545300007,0.04736005514860153,0.05752155929803848,-0.10746213793754578,0.2915337383747101,0.6618641018867493,-0.3237438201904297,0.212765172123909,-0.24134817719459534,0.09762430191040039,0.10489942889611226,-0.11359383947950576,-0.050188596444338734,-0.017578378603619278,0.06681453045080514,-0.11204376808724788,0.2960018795287625,0.6017619549888125,-0.22804922390079294,-0.3413605794771709,-0.1338321572042872,0.07568459455217887,-0.21492427587509155,0.09472011029720306,-0.4529006779193878,0.8237282037734985,0.7655303478240967,0.39049720764160156,0.11504311859607697,0.009672949090600014,0.49705052375793457,0.08306747674942017,-0.3074876070022583,-0.9653927087783813
1.2,0.17879952490329742,-0.19708849489688873,0.02680937387049198,0.10954482853412628,0.048020754009485245,-0.06381222605705261,0.31112658977508545,0.6361717581748962,-0.46797120571136475,-0.5270405411720276,-0.2444554716348648,-0.05860724300146103,0.13429602766797052,-0.1508040403670483,-0.022104826242716508,0.017499956056249315,0.05471084176123361,-0.07570693900614071,0.33936535710202653,0.6392490258645704,-0.21883149855710568,-0.3846484030447911,-0.11144979012236464,0.031346571007954765,-0.12762445211410522,0.21908965706825256,-0.5541769862174988,0.7723435163497925,-0.7140810489654541,-0.23442897200584412,0.09604150801897049,0.05361874774098396,0.5175990462303162,0.1222531870007515,-0.5959424376487732,-0.9778218865394592
1.22,0.19079919159412384,-0.20198087394237518,0.06539959460496902,0.12929323315620422,0.04109117016196251,-0.036063302308321,0.3077162802219391,0.6151547431945801,-0.37576812505722046,-0.39482468366622925,-0.2447512000799179,-0.02753930352628231,0.15447703606023097,-0.176011337484809,-0.0005661162633785015,0.05141491918585058,0.04866637085732483,-0.040458511761665636,0.36242170427783754,0.628316070798767,-0.2074700344962665,-0.41425435185968174,-0.09264225856301703,-0.006118625253132462,-0.072126604616642,0.25858646631240845,-0.5639617443084717,0.7303095459938049,-0.4496493339538574,-0.11015721410512924,0.08218234032392502,0.13079918920993805,0.541598379611969,0.11543256044387817,-0.41153621673583984,-0.9790048003196716
1.24,0.18612118065357208,-0.18232013285160065,0.07340461760759354,0.1348436176776886,0.039598509669303894,-0.030069684609770775,0.32211244106292725,0.5924997329711914,-0.3550778031349182,-0.4081799387931824,-0.24477188289165497,0.005279469769448042,0.1615782257482848,-0.18577920264726747,0.013279086428694655,0.07468025641717004,0.0569517738802072,-0.028325934682850322,0.3738639686459026,0.5953089426959232,-0.22186355705964803,-0.4133612118564227,-0.07315770682292858,-0.010258069061977312,-0.06013936921954155,0.2696872353553772,-0.5246402621269226,0.6849994659423828,-0.47635990381240845,0.021117879077792168,0.07919701933860779,0.14680923521518707,0.5322423577308655,0.1442248523235321,-0.37015557289123535,-0.9790875315666199
1.26,0.15165682137012482,-0.19513867795467377,0.11678635329008102,0.1230296865105629,0.04037785157561302,-0.02489285357296467,0.33333879709243774,0.5878232717514038,-0.28534919023513794,-0.37629470229148865,-0.24680395424365997,0.03533698990941048,0.15807431310882905,-0.18980690093269587,0.020631256643536842,0.0927924907349949,0.06293668065449033,-0.024944369868616496,0.37321122582573724,0.5773565608544738,-0.23161634210138107,-0.4014852220187783,-0.056012560017623954,0.006079648877081216,-0.04978570714592934,0.2460593730211258,-0.5502773523330688,0.6756464838981628,-0.4125894010066986,0.1413479596376419,0.08075570315122604,0.23357270658016205,0.46331363916397095,0.1666775941848755,-0.230698361992836,-0.9872158169746399
1.28,0.13084158301353455,-0.20417280495166779,0.1541416347026825,0.10648414492607117,0.044066544622182846,-0.02442156709730625,0.33830222487449646,0.5757824182510376,-0.26533079147338867,-0.37142157554626465,-0.24778613448143005,0.043597351759672165,0.15063749778897428,-0.1919384661670131,0.023561766502080347,0.10664976932946581,0.06630100647503398,-0.026074026136433844,0.3696376514127826,0.5718436031942804,-0.23864459832765453,-0.38627119473613586,-0.053845226080886426,0.024304487880454688,-0.0488431341946125,0.21296828985214233,-0.5683456063270569,0.65156489610672,-0.4028431475162506,0.17438940703868866,0.08813308924436569,0.308283269405365,0.4216831624507904,0.1766044646501541,-0.19066156446933746,-0.9911445379257202
1.3,0.11711227893829346,-0.2046249657869339,0.17626872658729553,0.10123079270124435,0.047968365252017975,-0.027253173291683197,0.3436872363090515,0.560160219669342,-0.24884691834449768,-0.3326939046382904,-0.2480718195438385,0.049757469445466995,0.1423203332885303,-0.1913787972262149,0.027857484506542744,0.11926812454561161,0.06770611971070029,-0.02999093910248304,0.36699233589959335,0.5631606727070931,-0.24623435316060235,-0.36418840768600047,-0.05531918133471996,0.037173240755271356,-0.054506346583366394,0.2024615854024887,-0.5692499279975891,0.6203204393386841,-0.3253878057003021,0.19902987778186798,0.09593673050403595,0.35253745317459106,0.3942245543003082,0.18737445771694183,-0.15769381821155548,-0.992287278175354
1.32,0.1102055162191391,-0.19583113491535187,0.17666088044643402,0.10725215822458267,0.0517464280128479,-0.03182634711265564,0.3485855162143707,0.543893575668335,-0.23209115862846375,-0.33000442385673523,-0.2484065592288971,0.05160103738307953,0.1337624191230603,-0.18817952885239528,0.0338202075133732,0.1297197719859373,0.06831259187899212,-0.03470623863182509,0.36666635898317534,0.5487325002697976,-0.2552546793237318,-0.34440073671002375,-0.056252448918160586,0.04468874145926145,-0.06365269422531128,0.21450431644916534,-0.551662266254425,0.5877871513366699,-0.3200088441371918,0.20640414953231812,0.1034928560256958,0.35332176089286804,0.3804110288619995,0.19717101752758026,-0.1241823136806488,-0.9936262369155884
1.34,0.10752871632575989,-0.1871265023946762,0.17325347661972046,0.1130571961402893,0.05454588308930397,-0.036846697330474854,0.35326850414276123,0.5259082317352295,-0.2144903838634491,-0.31564486026763916,-0.24856159090995789,0.05095972865819931,0.1262206683530506,-0.18398218321140222,0.03991886902773079,0.13663788338973976,0.0685013072662737,-0.03926877650321541,0.36880744473202137,0.5307578208757295,-0.2658040932138801,-0.32945724912112323,-0.05682222231176122,0.04805594134010193,-0.07369339466094971,0.2261143922805786,-0.5342530012130737,0.551816463470459,-0.29128968715667725,0.20383891463279724,0.10909176617860794,0.3465069532394409,0.3750574290752411,0.20653697848320007,-0.0889807716012001,-0.9942463636398315
1.36,0.10392066836357117,-0.17853014171123505,0.17067891359329224,0.11915145814418793,0.05671662837266922,-0.04230761528015137,0.3598364591598511,0.5055720806121826,-0.19248145818710327,-0.307640016078949,-0.2487153708934784,0.05215667933225632,0.11943319728413263,-0.17885902140763146,0.045532383496208126,0.14001255158144355,0.06840389620087893,-0.04368948321005849,0.372977433746336,0.5105917168160373,-0.27755232022618176,-0.31756961841373654,-0.05703934050137742,0.04966151240351826,-0.08461523056030273,0.23830291628837585,-0.5170602798461914,0.5111441016197205,-0.27528005838394165,0.20862671732902527,0.11343325674533844,0.3413578271865845,0.36784133315086365,0.21967294812202454,-0.04496290534734726,-0.9948614835739136
1.3800000000000001,0.10012593865394592,-0.16890038549900055,0.1695845127105713,0.12537716329097748,0.05902499333024025,-0.04843658208847046,0.3696133494377136,0.48146557807922363,-0.16069337725639343,-0.2957839071750641,-0.24883580207824707,0.05346626043319702,0.11327036959388632,-0.17248594087163477,0.050903668864338385,0.14093845966515578,0.06803317168451152,-0.048455643118047356,0.37916013718374925,0.48768795637523765,-0.2905841235259221,-0.3067280781251559,-0.056787274568202345,0.051002851674807496,-0.09687316417694092,0.25075432658195496,-0.4978007674217224,0.46293115615844727,-0.2515678107738495,0.21386504173278809,0.1180499866604805,0.3391690254211426,0.36025187373161316,0.23922671377658844,0.018613239750266075,-0.9953432083129883
1.4000000000000001,0.09633313119411469,-0.15602658689022064,0.16861121356487274,0.13372814655303955,0.062105920165777206,-0.05573480948805809,0.3836577236652374,0.4525650441646576,-0.11342877149581909,-0.28325146436691284,-0.24890801310539246,0.05457894504070282,0.10743372406497663,-0.1641047872314029,0.05665938321576401,0.1409830245667098,0.06762072049380242,-0.054164361108211816,0.3877210023636923,0.4606522117648697,-0.3050140832518432,-0.29529385425195837,-0.05603789290752476,0.052372722300808944,-0.11146961897611618,0.2674562931060791,-0.4720531702041626,0.4051300883293152,-0.2265029400587082,0.21831578016281128,0.12421184033155441,0.3372224271297455,0.3526662588119507,0.26731544733047485,0.1131424531340599,-0.9956320524215698
1.42,0.09279099106788635,-0.13859014213085175,0.16709156334400177,0.14463526010513306,0.06698224693536758,-0.06427743285894394,0.40451598167419434,0.4164801239967346,-0.04032403230667114,-0.26817235350608826,-0.2488497644662857,0.0572284460067749,0.10177442079322216,-0.1527744679721282,0.06324648165548875,0.14161374804698348,0.06749539685079138,-0.061152736348239596,0.39962749727731933,0.42753038976611596,-0.3212873953490199,-0.2823774268131861,-0.05473480358629156,0.054252204517255924,-0.12855486571788788,0.2892705202102661,-0.4371802806854248,0.33296021819114685,-0.19634471833705902,0.2289137840270996,0.13396449387073517,0.33418312668800354,0.345581978559494,0.30903196334838867,0.2593519389629364,-0.9953990578651428
1.44,0.09141215682029724,-0.11442193388938904,0.15926484763622284,0.15419287979602814,0.07350742071866989,-0.07304500043392181,0.4325462877750397,0.37472471594810486,0.06588830053806305,-0.25089362263679504,-0.2485840916633606,0.06498543173074722,0.09622731221409138,-0.13784373512025241,0.0694827984579019,0.14282074377395154,0.06795725854478842,-0.06902080970477263,0.4159339779492432,0.38777657192779136,-0.33969490545747416,-0.26759539650072295,-0.055913522713887685,0.058281754470229215,-0.14609000086784363,0.3083857595920563,-0.3888438642024994,0.24944941699504852,-0.1617872267961502,0.2599417269229889,0.14701484143733978,0.3185296952724457,0.3428243100643158,0.36509257555007935,0.4717766046524048,-0.9943363666534424
1.46,0.08993469178676605,-0.0843525230884552,0.13907282054424286,0.15505650639533997,0.08179600536823273,-0.08052781224250793,0.47153449058532715,0.3265717923641205,0.19703121483325958,-0.2312418818473816,-0.24746198952198029,0.08486028760671616,0.09154596651716353,-0.11762544204371655,0.07162197692992288,0.14205569055536188,0.0738694159121576,-0.07685437096737416,0.43980073163304895,0.3413082375307895,-0.35874844109482856,-0.2508184463998874,-0.06214615748430942,0.06823006541576113,-0.16105562448501587,0.31011301279067993,-0.3287050426006317,0.15314358472824097,-0.1224837601184845,0.3394411504268646,0.16359201073646545,0.2781456410884857,0.3398693799972534,0.4430689513683319,0.7340624332427979,-0.9898479580879211
1.48,0.07626883685588837,-0.05640164017677307,0.10042969882488251,0.14274434745311737,0.09371287375688553,-0.08547625690698624,0.5243000984191895,0.27482807636260986,0.28160417079925537,-0.21385198831558228,-0.2434617429971695,0.11906599998474121,0.08764839595702245,-0.08998930384701294,0.06379422278648748,0.13400773245032363,0.08593542064582392,-0.08261529633854074,0.47545566007366546,0.2916590008643667,-0.37296836336749,-0.23335282987381312,-0.07232204051108121,0.08822487902218452,-0.17095251381397247,0.28548869490623474,-0.27280327677726746,0.04965614899992943,-0.08770396560430527,0.47626399993896484,0.18742574751377106,0.20085939764976501,0.31253767013549805,0.5486002564430237,0.9032083749771118,-0.973846971988678
1.5,0.05385702848434448,-0.024419493973255157,0.04109351336956024,0.1003386527299881,0.1084667220711708,-0.08453131467103958,0.5884696245193481,0.23164552450180054,0.3020227551460266,-0.227110356092453,-0.23176135122776031,0.17549960315227509,0.08221993937352444,-0.05454200416039276,0.040420226852186075,0.11256730343167727,0.10212287326799686,-0.08383591197861087,0.5255900531864048,0.24767634777170397,-0.3775850945947537,-0.22551516724757262,-0.09071776781169597,0.12325784086966321,-0.16906262934207916,0.2006773054599762,-0.20883898437023163,-0.036708954721689224,-0.11422070860862732,0.7019984126091003,0.2169334441423416,0.08218702673912048,0.2677140533924103,0.6769392490386963,0.9440454840660095,-0.9270454049110413
1.52,0.052302852272987366,-0.004331871867179871,-0.03042495809495449,0.036280713975429535,0.10968287289142609,-0.07732291519641876,0.630968451499939,0.24729469418525696,0.18115179240703583,-0.3422296345233917,-0.19482682645320892,0.23112399876117706,0.07706397181780453,-0.026297882760907613,0.0063463825403941194,0.0791430923128697,0.11145015711430774,-0.0788984707013055,0.5834718862410492,0.24389549090936455,-0.37063743603359434,-0.2345507323572344,-0.11207104639595974,0.14828196967508928,-0.15464583039283752,0.07256142795085907,-0.16866374015808105,-0.005410602781921625,-0.34445926547050476,0.9244959950447083,0.21936574578285217,-0.06084991618990898,0.26460570096969604,0.7619369029998779,0.7023035883903503,-0.7793073058128357
1.54,0.03792765736579895,0.03650910407304764,-0.1004749983549118,0.010139008983969688,0.07627206295728683,-0.06687410175800323,0.6070455312728882,0.27149707078933716,-0.5006957650184631,-0.46714890003204346,0.020713090896606445,0.24824340641498566,0.057428511129787835,-0.0015252795111595368,-0.0200980301551187,0.057528689097958774,0.08405736800678182,-0.0735522843441633,0.6143422671978046,0.2810943684423341,-0.4043143114628287,-0.22865459679971667,-0.07675773809130494,0.11395643313156219,-0.13374820351600647,0.020278017967939377,-0.08698178827762604,0.04299411550164223,-0.5942977666854858,0.9929736256599426,0.15254412591457367,-0.2009499967098236,0.2358553111553192,0.7140910029411316,-0.66139155626297,0.08285236358642578
1.56,0.009876549243927002,0.0337216891348362,-0.08980566263198853,-0.05540208891034126,0.0446535162627697,-0.05781031772494316,0.6016061305999756,0.2683085501194,-0.4337156414985657,-0.4277307987213135,0.06094454228878021,0.24936021864414215,0.03839933688909568,0.017290632650091283,-0.045945288363665515,0.041009106766251746,0.05282496149852913,-0.0708131552889627,0.6079241783202745,0.31111941424207784,-0.43137107494527066,-0.2307698802024681,-0.014124716106396464,0.0863709330080651,-0.11562063544988632,-0.11080417782068253,-0.09255661815404892,0.03661708906292915,-0.5154616236686707,0.9974408745765686,0.0893070325255394,-0.17961132526397705,0.17975309491157532,0.7032122015953064,-0.5274312496185303,0.24377816915512085
1.58,-0.012199126183986664,0.0460379384458065,-0.08591099083423615,-0.09180695563554764,0.03233066573739052,-0.05345406010746956,0.6097921133041382,0.28639018535614014,-0.44625306129455566,-0.3949214816093445,0.023776134476065636,0.2496287077665329,0.021701215854395325,0.03565211920721952,-0.06691995948784737,0.026929671776359097,0.03727156009295621,-0.07187668481791169,0.5990949247605077,0.3302092764747655,-0.439880230235528,-0.22337046993273293,0.017435422703538428,0.06323343919965316,-0.10690812021493912,-0.18361391127109528,-0.0679241195321083,0.07278034090995789,-0.4498429298400879,0.9985148310661316,0.06466133147478104,-0.1718219816684723,0.13560174405574799,0.7195842266082764,-0.5525060892105103,0.09510453790426254
1.6,-0.016699455678462982,0.06862495839595795,-0.07439277321100235,-0.1254611611366272,0.025552650913596153,-0.05035888031125069,0.6009607315063477,0.30093660950660706,-0.42451709508895874,-0.34289872646331787,0.012152706272900105,0.2497069239616394,0.006927518241102311,0.05284826438950871,-0.0792643463554535,0.01756053809682812,0.03086334556387474,-0.0753499522491129,0.5940292971766196,0.34525095383207377,-0.437078900764652,-0.2407491942811047,0.021219213409118788,0.04181201564458802,-0.10071776062250137,-0.2509223222732544,-0.02275007590651512,0.1018732339143753,-0.34579747915267944,0.9988276958465576,0.051105301827192307,-0.1487855464220047,0.12660108506679535,0.7019215226173401,-0.5090341567993164,0.04861082509160042
