time,cmd_L_hip_pitch,cmd_R_hip_pitch,cmd_L_hip_roll,cmd_R_hip_roll,cmd_L_hip_yaw,cmd_R_hip_yaw,cmd_L_knee,cmd_R_knee,cmd_L_foot_pitch,cmd_R_foot_pitch,cmd_L_foot_roll,cmd_R_foot_roll,pos_L_hip_pitch,pos_R_hip_pitch,pos_L_hip_roll,pos_R_hip_roll,pos_L_hip_yaw,pos_R_hip_yaw,pos_L_knee,pos_R_knee,pos_L_foot_pitch,pos_R_foot_pitch,pos_L_foot_roll,pos_R_foot_roll,act_R_hip_yaw,act_R_hip_roll,act_R_hip_pitch,act_R_knee,act_R_foot_pitch,act_R_foot_roll,act_L_hip_yaw,act_L_hip_roll,act_L_hip_pitch,act_L_knee,act_L_foot_pitch,act_L_foot_roll
0.0,-0.04964662343263626,0.09550689905881882,-0.019502174109220505,-0.03738705813884735,-0.027028590440750122,0.03562860190868378,0.32183119654655457,0.3047981560230255,-0.7169310450553894,-0.42577022314071655,0.11881935596466064,-0.013757403939962387,-0.07412785347055455,0.08056956410907685,-0.007126577125234568,-0.006751541602816681,-0.018768958932806824,0.022988578341384236,0.2826863248512489,0.2720063917525411,-0.422633130349856,-0.3371636030436877,0.038049153004949605,-0.005248859827163752,0.07125720381736755,-0.0747741162776947,0.03101380541920662,0.10959630459547043,-0.5115404725074768,-0.05502961575984955,-0.054057180881500244,-0.03900434821844101,0.06070674955844879,0.14366240799427032,-1.0938620567321777,0.4752774238586426
0.02,-0.0391550175845623,0.0790320634841919,0.019830970093607903,-0.124483123421669,-0.02355407178401947,0.03164017200469971,0.4772425889968872,0.35311034321784973,-0.6926418542861938,-0.18773725628852844,0.07858020812273026,0.2211870551109314,-0.056774068482687935,0.08153999013010586,-0.01909481719176302,-0.026715230455851585,-0.021146299649343097,0.027904826963161516,0.35733370806929315,0.30386024020811714,-0.5904930823223465,-0.33162520585204386,0.06864408152742624,0.0633766699746483,0.06328034400939941,-0.248966246843338,-0.0019358731806278229,0.20622067153453827,-0.035474516451358795,0.8847482204437256,-0.04710814356803894,0.039661940187215805,0.08168996125459671,0.4544852077960968,-1.0452836751937866,0.314320832490921
0.04,-0.036174092441797256,0.07136043161153793,-0.03859027475118637,-0.10075896978378296,-0.007652142085134983,0.04808073490858078,0.5187596082687378,0.34032925963401794,-0.6474533677101135,-0.18478813767433167,0.05091513320803642,0.3368600606918335,-0.042567251451734844,0.08220997004819629,-0.023612568273703744,-0.03705484751211546,-0.012178746196313817,0.053333939219259344,0.42844188195601524,0.30794667898657935,-0.6484398378639432,-0.4028456783453112,0.06889163592925095,0.12915664747818503,0.09616146981716156,-0.20151793956756592,-0.01727912947535515,0.1806585043668747,-0.029576275497674942,1.347440242767334,-0.015304284170269966,-0.07718054950237274,0.0876518115401268,0.5375191569328308,-0.954906702041626,0.2036605328321457
0.06,-0.039092790335416794,0.10150141268968582,-0.0017802808433771133,-0.10094127058982849,-0.02942156046628952,0.058300286531448364,0.4180924892425537,0.3636165261268616,-0.6748896241188049,-0.27672114968299866,0.12315385788679123,0.28497079014778137,-0.052385848678131126,0.07943376562365295,-0.007882894943190883,-0.025613862001828146,-0.02458619536788783,0.04934491863704868,0.43684183683376016,0.32994341156798773,-0.6620502072067574,-0.4184127834027864,0.08298947487430203,0.09167188417934624,0.11660057306289673,-0.20188254117965698,0.04300282895565033,0.22723305225372314,-0.21344229578971863,1.1398831605911255,-0.05884312093257904,-0.0035605616867542267,0.08181441575288773,0.3361849784851074,-1.0097792148590088,0.4926154315471649
0.08,-0.048758409917354584,0.10006232559680939,0.03364381939172745,-0.04720401018857956,-0.0405319407582283,0.05084828659892082,0.36930954456329346,0.4190531373023987,-0.5458880066871643,-0.37527239322662354,0.1405927687883377,0.18535661697387695,-0.06356122009863642,0.07533096041290024,0.0006694276848974881,-0.018174723433164636,-0.03363868943129895,0.04322319633678279,0.4187323691584495,0.3606369104353786,-0.6108826746640676,-0.44086209433169893,0.08376447087306554,0.0720120900063397,0.10169657319784164,-0.09440802037715912,0.04012465849518776,0.33810630440711975,-0.4105447828769684,0.7414264678955078,-0.0810638815164566,0.0672876387834549,0.062483176589012146,0.23861908912658691,-0.7517759799957275,0.5623710751533508
0.1,-0.0683429017663002,0.08302195370197296,0.014390742406249046,-0.030409568920731544,-0.031351372599601746,0.041874680668115616,0.37065038084983826,0.4437186121940613,-0.6301417946815491,-0.22015003859996796,0.13866715133190155,0.04484149068593979,-0.07141713924242948,0.07366790792988329,1.885840533595933e-05,-0.020700126115813292,-0.02901500598312494,0.03995816464253896,0.41210914444130303,0.3913409071025366,-0.5521028158246337,-0.46119902108784633,0.06192736158063212,0.042376753914795916,0.08374936133623123,-0.06081913784146309,0.0060439035296440125,0.38743719458580017,-0.10030008107423782,0.17936596274375916,-0.06270274519920349,0.028781484812498093,0.023314189165830612,0.2413007616996765,-0.9202835559844971,0.5546686053276062
0.12,-0.06922110915184021,0.09995108097791672,0.006277222186326981,-0.02473592758178711,-0.026972413063049316,0.040396157652139664,0.38113367557525635,0.48482370376586914,-0.5954225659370422,-0.1814136803150177,0.13115838170051575,0.008821234107017517,-0.08091328642360933,0.07459054020110797,-0.0009322009400678958,-0.02447424825019351,-0.024004351634040997,0.03917363015403637,0.41377678597223294,0.4204940111185784,-0.5200486173611979,-0.4771966744844508,0.04767624421559753,-0.00231942807149158,0.08079231530427933,-0.04947185516357422,0.03990216553211212,0.4696473777294159,-0.022827349603176117,0.03528493642807007,-0.05394482612609863,0.012554444372653961,0.021557781845331192,0.2622673213481903,-0.8508451581001282,0.524633526802063
0.14,-0.07112319022417068,0.1098041981458664,0.004816441796720028,-0.025669122114777565,-0.02475525438785553,0.03640821576118469,0.38535064458847046,0.5255521535873413,-0.5898898839950562,-0.13142263889312744,0.1191490888595581,0.007985278964042664,-0.09023890617696748,0.07664386397373578,-0.0003977421014258156,-0.025015288054411385,-0.021389212791432417,0.03914917624983287,0.4198292347571985,0.4511059073755545,-0.49905889511822055,-0.4997643478466623,0.03581709605796838,-0.021554618747980352,0.07281643152236938,-0.05133824422955513,0.059608396142721176,0.5511043667793274,0.0771547332406044,0.031941115856170654,-0.04951050877571106,0.009632883593440056,0.01775362342596054,0.2707013189792633,-0.8397797346115112,0.4765963554382324
0.16,-0.08600986003875732,0.10667089372873306,-0.007071188651025295,-0.034090686589479446,-0.02178915962576866,0.03339853137731552,0.3926430344581604,0.573127269744873,-0.5583069920539856,-0.041179388761520386,0.10588974505662918,-0.01223674975335598,-0.10190680332635284,0.07653865243174902,-0.002050859803214978,-0.02505317073586708,-0.021019998727511594,0.036939604070953244,0.425714348959451,0.48636968789073093,-0.5051229921845748,-0.5230593330221334,0.021269216627283916,-0.018390768150474145,0.06679706275463104,-0.06818137317895889,0.05334179475903511,0.6462544798851013,0.2576412260532379,-0.04894699901342392,-0.04357831925153732,-0.01414237730205059,-0.012019725516438484,0.2852860689163208,-0.7766139507293701,0.4235589802265167
0.18,-0.09665504842996597,0.11418966948986053,-0.0030612852424383163,-0.022255145013332367,-0.016574133187532425,0.030852215364575386,0.4012155532836914,0.6275661587715149,-0.5384677648544312,0.04110652208328247,0.0691874772310257,-0.022431371733546257,-0.11719743779782699,0.0751181403690797,0.00014034729263627288,-0.021016145016667882,-0.018963955594346642,0.032347268365340014,0.429773392430495,0.5272437802777642,-0.5164788035013111,-0.5396992501669541,0.006265644862477486,-0.019983268995848714,0.06170443072915077,-0.044510290026664734,0.06837934255599976,0.7551323175430298,0.42221304774284363,-0.08972548693418503,-0.03314826637506485,-0.006122570484876633,-0.03331010416150093,0.3024311065673828,-0.736935555934906,0.2767499089241028
0.2,-0.11275223642587662,0.12007921189069748,0.01134219579398632,-0.01020684652030468,-0.010973476804792881,0.02626679092645645,0.39823856949806213,0.6839292645454407,-0.5427114963531494,0.07978533208370209,0.012000702321529388,-0.04345673695206642,-0.13613535784259986,0.07363250056374754,0.007592203695161547,-0.01228415507581867,-0.015458301104579585,0.027774668914081355,0.43363238720418357,0.5740309979204253,-0.5280165878395755,-0.5468286195522917,-0.0018439237485896416,-0.024017004988515563,0.0525335818529129,-0.02041369304060936,0.08015842735767365,0.8678585290908813,0.49957066774368286,-0.17382694780826569,-0.021946953609585762,0.02268439158797264,-0.06550447642803192,0.29647713899612427,-0.7454229593276978,0.048002809286117554
0.22,-0.131236270070076,0.11685127019882202,0.03623727709054947,0.010786127299070358,-0.005775791592895985,0.022397520020604134,0.3968682885169983,0.7446156740188599,-0.5256157517433167,0.07654520869255066,-0.08163614571094513,-0.07021558284759521,-0.15713567015966975,0.06942764936019782,0.020236083908689396,0.0006547244215115162,-0.01082467278528635,0.023079553534989538,0.4355369745983486,0.6271506066334408,-0.5388441483863818,-0.5425435946473144,-0.0026596840964598816,-0.034873222387824594,0.04479504004120827,0.021572254598140717,0.07370254397392273,0.9892314076423645,0.49309042096138,-0.28086233139038086,-0.01155158318579197,0.07247455418109894,-0.10247253626585007,0.2937365472316742,-0.711231529712677,-0.3265445828437805
0.24,-0.15761421620845795,0.0973568856716156,0.08308863639831543,0.030732203274965286,-0.0028838925063610077,0.01757386513054371,0.3993224501609802,0.8099931478500366,-0.453016459941864,0.06379973888397217,-0.22787028551101685,-0.09094156324863434,-0.17850296589372028,0.060826122036092146,0.03547189933908288,0.016975453745789626,-0.005876569641932442,0.01861642313443046,0.436931406384115,0.6872211726595118,-0.5492180552722373,-0.5240706458467386,-0.02285996728344541,-0.05020141907838808,0.03514773026108742,0.06146440654993057,0.03471377119421959,1.1199862957000732,0.467599481344223,-0.36376625299453735,-0.005767785012722015,0.16617727279663086,-0.15522843599319458,0.29864487051963806,-0.5660329461097717,-0.9114811420440674
0.26,-0.1806870400905609,0.05193768069148064,0.14698584377765656,0.04368509724736214,0.0017629321664571762,0.010138838551938534,0.4264659285545349,0.8846302628517151,-0.23854903876781464,-0.02746186964213848,-0.4324679672718048,-0.09385587275028229,-0.19504806399295305,0.042341285935073414,0.04934826040501934,0.03487702032674214,-0.000758263790065664,0.012049857761946638,0.4414627046145775,0.7559764766199057,-0.5600990955456648,-0.4869295232381305,-0.09157591398176329,-0.0665039980794992,0.020277677103877068,0.08737019449472427,-0.05612463504076004,1.2692605257034302,0.2850762605667114,-0.37542349100112915,0.0035258643329143524,0.2939716875553131,-0.2013740837574005,0.3529318869113922,-0.13709807395935059,-1.7298718690872192
0.28,-0.19071437418460846,-0.0110753383487463,0.16111598908901215,0.028412364423274994,0.009966222569346428,0.005995918530970812,0.5076221227645874,0.9380066394805908,0.25012004375457764,-0.4057984948158264,-0.5465437769889832,-0.011853586882352829,-0.19837495361403998,0.015327397768319165,0.051749170373294934,0.042225292505667984,0.0024871539032765328,0.0033532721891959176,0.4560588607934786,0.8311550630757929,-0.5610853619429607,-0.4462459420997009,-0.1945940702767918,-0.05455473020048885,0.011991837061941624,0.05682472884654999,-0.1821506768465042,1.3760132789611816,-0.47159698605537415,-0.047414347529411316,0.019932445138692856,0.3222319781780243,-0.2214287519454956,0.5152443051338196,0.8402400612831116,-2.1861751079559326
0.3,-0.2165519744157791,-0.06421469151973724,0.10440729558467865,0.016653195023536682,0.024558935314416885,0.0040488881058990955,0.6233004331588745,0.8842229843139648,0.7685279250144958,-0.7440199255943298,-0.4093542695045471,0.042705606669187546,-0.187599121824226,-0.0004135236448242374,0.0411413550531131,0.032734481611432824,0.021257074883587964,0.0013785952491575458,0.49543502609892603,0.8662940314579554,-0.5278438526487307,-0.5222903291735649,-0.23963270981041085,-0.016116199609613333,0.008097776211798191,0.033306390047073364,-0.2884293794631958,1.2684459686279297,-1.1480398178100586,0.17082242667675018,0.04911787062883377,0.2088145911693573,-0.2731039524078369,0.7466008067131042,1.8770558834075928,-1.6374170780181885
0.32,-0.23521485924720764,-0.1170007735490799,0.08958879113197327,0.006159000098705292,0.02496211603283882,0.004845748655498028,0.7376617193222046,0.7380393743515015,0.970695436000824,-0.6765899062156677,-0.23193296790122986,-0.020357511937618256,-0.16332283183227467,-0.006022607869871304,0.028072943748374515,0.01614433178026515,0.035368200866937705,0.007070769591451881,0.5576998758730359,0.8315149137640826,-0.4635321713096283,-0.6109652559080889,-0.20057653887685517,-0.0031390104296013435,0.009691497310996056,0.012318000197410583,-0.3940015435218811,0.9760786890983582,-1.0131797790527344,-0.08143004775047302,0.04992423206567764,0.17917758226394653,-0.31042972207069397,0.9753233790397644,2.281390905380249,-0.9277318716049194
0.34,-0.1433521956205368,-0.09922720491886139,0.09381361305713654,0.02405916526913643,0.023425418883562088,0.01619303598999977,0.8196874856948853,0.516162633895874,0.6943396329879761,-0.5192975401878357,-0.08269329369068146,-0.038196027278900146,-0.11985714447871745,-0.010234055039714137,0.021145155742063958,0.005767464986753443,0.03368909840833304,0.01967187049264859,0.6382117766260335,0.713898978413933,-0.3861366842790173,-0.6015133781455169,-0.10916333201472647,-0.014338352780167714,0.03238607197999954,0.04811833053827286,-0.3584544062614441,0.532325267791748,-0.6985950469970703,-0.15278410911560059,0.046850837767124176,0.18762722611427307,-0.1267043948173523,1.1393749713897705,1.7286792993545532,-0.33077317476272583
0.36,-0.0005326438113115728,-0.07710446417331696,0.05958367511630058,0.05462952330708504,0.018812566995620728,0.012393439188599586,0.9040583372116089,0.2847823202610016,-0.05797983705997467,-0.2013336718082428,0.03686996549367905,-0.04288066178560257,-0.05226230026831809,-0.021262694143008635,0.027671654334376208,0.010693965270404076,0.024111594845521393,0.021788488051979055,0.7400144877917852,0.5376722198425113,-0.32000272621971104,-0.46031961386463166,-0.02541089131285158,-0.027379609969743243,0.024786878377199173,0.10925904661417007,-0.3142089247703552,0.06956466287374496,-0.0626673474907875,-0.17152264714241028,0.037625133991241455,0.11916735023260117,0.15893471240997314,1.3081166744232178,0.22404032945632935,0.1474798619747162
0.38,0.14745017886161804,-0.005460409447550774,-0.02224412001669407,0.07054509222507477,0.015615791082382202,0.005196656100451946,0.9092752933502197,0.25385427474975586,-0.7165002226829529,-0.16499797999858856,0.016872191801667213,0.02506263181567192,0.010520575130717198,-0.03823687801210159,0.026706579685295974,0.016963039008254778,0.010932792723400694,0.01330541331882211,0.8256290687878876,0.3986936430221473,-0.41873996878263187,-0.30882637103733507,0.011886105221635666,-0.01418488533133174,0.010393312200903893,0.14109018445014954,-0.17092081904411316,0.007708565331995487,0.010004028677940369,0.10025052726268768,0.031231582164764404,-0.04448824003338814,0.4549003541469574,1.3185505867004395,-1.0930004119873047,0.06748876720666885
0.4,0.16395948827266693,-0.03369978815317154,-0.0876055657863617,-0.07903684675693512,0.004335788544267416,0.016322100535035133,0.8859937191009521,0.22453631460666656,-0.9055843949317932,-0.2240666002035141,0.027391009032726288,0.26162204146385193,0.05900094025725212,-0.05473993001210748,-0.010105728570237948,-0.006529930890801414,0.0001114571085259803,0.011855077239507962,0.8619466324610294,0.3120624825301612,-0.625349047511673,-0.24038039591162125,0.021563215488722726,0.08017950468495827,0.03264420107007027,-0.15807369351387024,-0.2273995727300644,-0.05092736333608627,-0.10813318938016891,1.0464881658554077,0.008671577088534832,-0.1752111315727234,0.4879189729690552,1.2719874382019043,-1.4711687564849854,0.10956403613090515
0.42,0.11698946356773376,-0.11558859050273895,-0.09190157055854797,-0.11443658173084259,0.0019740602001547813,0.030442899093031883,0.9154465198516846,0.1628962755203247,-0.8177024126052856,-0.37035757303237915,-0.0008421773090958595,0.4311525523662567,0.10145243238752699,-0.0607235639314052,-0.03575497697537951,-0.022882121753663335,-0.0031139276494387283,0.012256749736142854,0.8794390095048679,0.3017128874383867,-0.7582153156869768,-0.21553534023615656,0.016368453654551703,0.12431139819992676,0.060885798186063766,-0.22887316346168518,-0.3911771774291992,-0.17420744895935059,-0.400715172290802,1.7246102094650269,0.003948120400309563,-0.18380314111709595,0.39397892355918884,1.3308930397033691,-1.2954047918319702,-0.003368709236383438
0.44,0.13294731080532074,-0.13952498137950897,-0.008835536427795887,-0.14169852435588837,-0.01279351208359003,0.02179383672773838,0.9632546305656433,0.22474874556064606,-0.7544872760772705,-0.20711369812488556,0.007199047598987818,0.40700510144233704,0.14586846797859723,-0.06316050783984617,-0.03975614076938395,-0.018800589778722954,-0.0023146366437829446,0.007984802631194504,0.9002676025726363,0.29146388596556333,-0.7869717080867434,-0.22240460932582187,0.010609120808586168,0.1416853655022157,0.04358767345547676,-0.28339704871177673,-0.43904995918273926,-0.05050250142812729,-0.07422738522291183,1.6280204057693481,-0.02558702416718006,-0.017671072855591774,0.4258946180343628,1.4265092611312866,-1.16897451877594,0.02879619039595127
0.46,0.2242918759584427,-0.033552639186382294,-0.009918947704136372,-0.128999724984169,-0.014695999212563038,0.013841088861227036,0.9635950922966003,0.257361501455307,-0.7129146456718445,-0.07128888368606567,0.023246556520462036,0.35105401277542114,0.17701710293955053,-0.05436667430969737,-0.040624771174488386,-0.01303548067295891,-0.006858274707516885,0.008884214969122456,0.9252020134048567,0.27542774743254284,-0.7633048665956971,-0.22588938774743075,0.013760815788706993,0.15769059077567069,0.02768217772245407,-0.257999449968338,-0.2271052747964859,0.014723025262355804,0.19742223620414734,1.4042160511016846,-0.029391998425126076,-0.019837895408272743,0.6085837483406067,1.4271901845932007,-1.085829257965088,0.09298622608184814
0.48,0.24365763366222382,-0.00508820079267025,-0.02092914469540119,-0.11799019575119019,-0.024486493319272995,0.0015491954982280731,0.9245391488075256,0.2594543695449829,-0.7074899673461914,-0.007686106488108635,0.03839210793375969,0.3197282552719116,0.19989378714411402,-0.03954504055985726,-0.04270357797182832,-0.011225280124096085,-0.016418053160123357,0.006012808907088962,0.9284769857906261,0.2596497241047692,-0.7334729305625032,-0.2311313306644307,0.023594320431507936,0.1588661288189887,0.0030983909964561462,-0.23598039150238037,-0.1701764017343521,0.018908722326159477,0.3246277868747711,1.2789130210876465,-0.04897298663854599,-0.04185828939080238,0.647315263748169,1.3490782976150513,-1.0749799013137817,0.15356843173503876
0.5,0.23045296967029572,-0.006313694640994072,-0.019131913781166077,-0.11540555953979492,-0.03672606870532036,-0.006872710771858692,0.8793333172798157,0.2604764699935913,-0.6720882058143616,0.0002770143619272858,0.041370660066604614,0.307951956987381,0.21440299140046506,-0.02437759002991068,-0.04367137534804496,-0.010843217789122015,-0.027588972617054813,0.0026891790382100335,0.9078286042626698,0.2514613179074299,-0.7049695756597085,-0.24117084667019287,0.032952886324659314,0.15218457888696033,-0.013745421543717384,-0.23081111907958984,-0.17262738943099976,0.020952947437763214,0.34055402874946594,1.231807827949524,-0.07345213741064072,-0.03826382756233215,0.6209059357643127,1.2586666345596313,-1.004176378250122,0.16548264026641846
0.52,0.22028572857379913,0.0010909008560702205,-0.015413403511047363,-0.11120341718196869,-0.04775097221136093,-0.010164021514356136,0.8163334727287292,0.2643825113773346,-0.6227076053619385,-0.004980592057108879,0.050995007157325745,0.29261642694473267,0.2206711690620651,-0.009958151227280002,-0.04162442725247199,-0.010103076247470198,-0.03935402166438549,0.0009473979042701809,0.8675294388559122,0.2503154824543258,-0.6694010003403638,-0.25526993788905117,0.04133127871555485,0.14101798376491406,-0.020328043028712273,-0.22240683436393738,-0.15781819820404053,0.028765002265572548,0.33003881573677063,1.1704657077789307,-0.09550194442272186,-0.030826807022094727,0.6005714535713196,1.1326669454574585,-0.9054152369499207,0.20398002862930298
0.54,0.21067725121974945,0.015251526609063148,-0.012641890905797482,-0.09884320199489594,-0.05593858286738396,-0.010879096575081348,0.7414873838424683,0.2766190767288208,-0.5777092576026917,-0.018856225535273552,0.06480926275253296,0.26803937554359436,0.219686815184329,0.00393161658137273,-0.03596147992383768,-0.008313164109968393,-0.05019468460123058,0.000673478202401334,0.8117662888783079,0.2547101898790285,-0.6277640861713301,-0.2726710729870937,0.05135417817633977,0.12547048076250825,-0.021758193150162697,-0.19768640398979187,-0.12949694693088531,0.0532381534576416,0.3022875487804413,1.0721575021743774,-0.11187716573476791,-0.025283781811594963,0.5813544988632202,0.9829747676849365,-0.8154184818267822,0.25923705101013184
0.56,0.19735126197338104,0.02983188070356846,-0.007880426943302155,-0.07715705037117004,-0.06346435844898224,-0.010569077916443348,0.6594579815864563,0.2991880774497986,-0.5343374609947205,-0.039852142333984375,0.08201035112142563,0.23533132672309875,0.2124827170342947,0.01713888429918596,-0.026573044064098383,-0.004409146394390725,-0.05999179592906664,0.0010125296724145525,0.7446498579278575,0.2658104165960663,-0.5841569734761137,-0.2941281465333045,0.06429170955819014,0.10602251154932665,-0.021138155832886696,-0.1543141007423401,-0.1003362387418747,0.09837612509727478,0.26029571890830994,0.941325306892395,-0.12692871689796448,-0.01576085388660431,0.5547025203704834,0.8189159631729126,-0.7286748886108398,0.3280414044857025
0.58,0.18010835349559784,0.044963203370571136,0.0036937547847628593,-0.04500424489378929,-0.07103399187326431,-0.011739679612219334,0.5742673277854919,0.33176082372665405,-0.504571795463562,-0.05605363845825195,0.10315927863121033,0.1923765391111374,0.1999667930829846,0.030075152716849792,-0.012705845622001829,0.0035199448036033927,-0.06919777278868665,0.0005036853669783253,0.6701111285655725,0.2848621102215897,-0.5445653759382131,-0.32048206954800407,0.0807308352624233,0.08345601936632237,-0.023479359224438667,-0.09000848978757858,-0.07007358968257904,0.16352161765098572,0.22789272665977478,0.7695061564445496,-0.14206798374652863,0.007387509569525719,0.520216703414917,0.6485346555709839,-0.6691436171531677,0.4126371145248413
0.6,0.15860582888126373,0.06129790470004082,0.027603942900896072,-0.003182660788297653,-0.07899818569421768,-0.0156857892870903,0.4968550205230713,0.37349236011505127,-0.49578985571861267,-0.07154415547847748,0.12550102174282074,0.14145317673683167,0.1828663126990006,0.043580694158222605,0.007415217338010887,0.018084657324044028,-0.0775899930884192,-0.004631998903868425,0.5940700866941127,0.3129057961164641,-0.5167662500311366,-0.35248985420269185,0.10016255129398784,0.05767386022853234,-0.0313715785741806,-0.006365321576595306,-0.03740418702363968,0.24698472023010254,0.19691169261932373,0.5658127069473267,-0.15799637138843536,0.055207885801792145,0.4772116541862488,0.4937100410461426,-0.651579737663269,0.502004086971283
0.62,0.14013676345348358,0.08729555457830429,0.06876304745674133,0.04275961592793465,-0.08742228895425797,-0.02299303002655506,0.4411451816558838,0.4190536439418793,-0.5143884420394897,-0.10233256965875626,0.14506621658802032,0.09149500727653503,0.16007110333897473,0.05911297837725108,0.024103233858540345,0.0301549121964097,-0.06436706657197697,-0.01516347842568749,0.5716677913923612,0.34726897309158616,-0.41115727713171524,-0.38492051220240053,0.07191507350939795,0.030494181128872824,-0.04598606005311012,0.0855192318558693,0.014591116458177567,0.33810728788375854,0.13533486425876617,0.36598002910614014,-0.17484457790851593,0.13752609491348267,0.4402735233306885,0.3822903633117676,-0.6887768507003784,0.5802648663520813
0.64,0.1335352212190628,0.10304104536771774,0.015072422102093697,0.024092864245176315,-0.06892146915197372,-0.01581314392387867,0.48401370644569397,0.4629049301147461,-0.5987216830253601,0.05098213255405426,0.16309407353401184,0.011398417875170708,0.13567582942107073,0.06614922638230496,0.01992250293685505,0.028149321137585587,-0.06301752744460813,-0.016146509989503777,0.5636946008444431,0.3801807132409699,-0.4093574666948511,-0.41644254043381546,0.027970742411588045,0.023592884526017998,-0.03162628784775734,0.04818572849035263,0.04608209431171417,0.4258098900318146,0.4419642686843872,0.04559367150068283,-0.13784293830394745,0.030144844204187393,0.4270704388618469,0.46802741289138794,-0.8574433326721191,0.6523762941360474
0.66,0.10033464431762695,0.1158628836274147,-0.005809132009744644,-0.006017396226525307,-0.06336003541946411,-0.007146663963794708,0.5493967533111572,0.5323346853256226,-0.48519179224967957,0.16692830622196198,0.15570317208766937,-0.0034352324437350035,0.10843692470790892,0.07421768517484167,0.015609560594254702,0.023558693776194004,-0.0637700329266197,-0.009910624672326444,0.5658560387401821,0.4214042524232199,-0.4267376415176584,-0.4425359715024934,0.03689243503203767,0.02077713793108762,-0.014293327927589417,-0.012034792453050613,0.0717257708311081,0.5646693706512451,0.6738566160202026,-0.013740929774940014,-0.12672007083892822,-0.011618264019489288,0.3606692850589752,0.5987934470176697,-0.6303836107254028,0.6228126883506775
0.68,0.06528449058532715,0.1277802288532257,-0.003166578244417906,0.005828097462654114,-0.05875459685921669,-0.0060978843830525875,0.5441112518310547,0.5701766014099121,-0.4958835542201996,0.18147794902324677,0.11144021153450012,-0.0022098843473941088,0.07790223755990826,0.08519160537763164,0.017264200746310902,0.023527901879171743,-0.06118612809186984,-0.004792872912993778,0.5695204445266578,0.4665192642004107,-0.4452824624917209,-0.46072401026902615,0.04814517088614872,0.018413701922603148,-0.012195768766105175,0.011656194925308228,0.0955604687333107,0.640353262424469,0.7029559016227722,-0.008839537389576435,-0.11750919371843338,-0.006333156488835812,0.2905689775943756,0.5882225632667542,-0.6517671346664429,0.4457608461380005
0.7000000000000001,0.03151865303516388,0.12993086874485016,0.005513450130820274,0.008951164782047272,-0.05351952835917473,-0.00550692155957222,0.5292526483535767,0.6211510896682739,-0.5045965313911438,0.16796906292438507,0.07021992653608322,-0.02138718217611313,0.0455445361066375,0.09241958066263214,0.02201891794654849,0.027403625719692112,-0.058062705123546575,-0.003380634202017681,0.5654673690475603,0.5151364371500645,-0.46002541653545453,-0.4715318099060307,0.04143050594171222,0.010073198558578147,-0.01101384311914444,0.017902329564094543,0.09986172616481781,0.7423021793365479,0.6759381294250488,-0.08554872870445251,-0.10703905671834946,0.011026900261640549,0.22303730249404907,0.5585052371025085,-0.6691930890083313,0.2808797061443329
0.72,-0.003743128851056099,0.13542760908603668,0.02438332885503769,0.013218645006418228,-0.046010822057724,-0.004774084780365229,0.5177209973335266,0.6820141673088074,-0.49048835039138794,0.17631684243679047,0.01273457333445549,-0.043030545115470886,0.010266804722872567,0.09678854052225658,0.0296247799129367,0.03460319584371992,-0.053501879951835044,-0.003375189717706966,0.5562948651501484,0.5694814955834552,-0.472380213067828,-0.47561045946069685,0.018381152367147057,-0.003586416532271658,-0.009548169560730457,0.026437290012836456,0.11085522919893265,0.8640283346176147,0.6926336884498596,-0.17212218046188354,-0.092021644115448,0.04876665771007538,0.15251374244689941,0.5354419946670532,-0.6409767270088196,0.05093829333782196
0.74,-0.041759904474020004,0.13038276135921478,0.048987213522195816,0.029714349657297134,-0.03938354551792145,-0.004716707393527031,0.5070016384124756,0.7418712377548218,-0.44737792015075684,0.16861341893672943,-0.08273421972990036,-0.06610693782567978,-0.02578283830158562,0.0979493305332239,0.0389556607446637,0.041974365253758875,-0.04668296623108149,-0.0036537665934554663,0.5475840293186695,0.6291394757089973,-0.48463333689832944,-0.46978098038893135,0.012267864836567763,-0.0214077448700196,-0.009433414787054062,0.05942869931459427,0.10076551139354706,0.9837424159049988,0.6772268414497375,-0.2644277513027191,-0.0787670910358429,0.09797442704439163,0.0764801874756813,0.514003336429596,-0.5547558665275574,-0.33093687891960144
0.76,-0.07716859132051468,0.11623498797416687,0.08863650262355804,0.04361475631594658,-0.03546036407351494,-0.0063244556076824665,0.5107471346855164,0.8047491312026978,-0.3345886170864105,0.13326580822467804,-0.22582723200321198,-0.08548356592655182,-0.05988338469579799,0.09424300062463487,0.049009634489753665,0.05167761915972532,-0.038987993658511674,-0.005622991891497006,0.5411088434906317,0.692655967113826,-0.4971749984621013,-0.4489616055003009,-0.02078183449927061,-0.03965788159934663,-0.012648911215364933,0.08722951263189316,0.07246997952461243,1.1094982624053955,0.6065316200256348,-0.3419342637062073,-0.07092072814702988,0.1772730052471161,0.005662817507982254,0.5214942693710327,-0.32917726039886475,-0.9033089280128479
0.78,-0.10531292855739594,0.07747334241867065,0.13974738121032715,0.04902724549174309,-0.031254347413778305,-0.00946874637156725,0.5449572205543518,0.8680817484855652,-0.03898590803146362,-0.06304699182510376,-0.4104367792606354,-0.07035308331251144,-0.08592534924721798,0.08121937263085409,0.05576776273177374,0.06133847982688436,-0.03181675522327606,-0.009561097509219445,0.541299604775352,0.7606515646465045,-0.5109999758618179,-0.41316448977216913,-0.09897651600840052,-0.05501147227216968,-0.0189374927431345,0.09805449098348618,-0.005053319036960602,1.2361634969711304,0.21390601992607117,-0.2814123332500458,-0.06250869482755661,0.2794947624206543,-0.05062586069107056,0.5899144411087036,0.26202818751335144,-1.6417471170425415
0.8,-0.1196160614490509,0.027135508134961128,0.1524541974067688,0.03275169059634209,-0.025579337030649185,-0.002852162579074502,0.6176008582115173,0.8914167284965515,0.47400495409965515,-0.5074183344841003,-0.4683758616447449,0.0078086270950734615,-0.09588275983499493,0.06317167608375929,0.0501321902522945,0.05898653774650655,-0.02323805065179618,-0.009739984484552518,0.5557139467724143,0.8200996560958986,-0.5006195047663831,-0.42516279097091303,-0.17189840808699286,-0.0397200261669905,-0.005704325158149004,0.06550338119268417,-0.10572898387908936,1.282833456993103,-0.6748366355895996,0.031234508380293846,-0.05115867406129837,0.3049083948135376,-0.0792321264743805,0.7352017164230347,1.2880098819732666,-1.8735034465789795
0.8200000000000001,-0.16467073559761047,-0.03294447809457779,0.126280277967453,0.0108102448284626,-0.01829952746629715,-0.0018315976485610008,0.7313485145568848,0.7880416512489319,0.9491958022117615,-0.7323259711265564,-0.3382614552974701,0.0008451384492218494,-0.09133000370753734,0.05545058655369229,0.03698360326358139,0.04503974615330887,-0.010368381271954191,-0.005591598585536645,0.5952473395432037,0.8241851169977503,-0.4554384952437362,-0.5296821717417846,-0.18385358678870375,-0.01800553014632244,-0.0036631952971220016,0.0216204896569252,-0.2258889526128769,1.0760833024978638,-1.1246519088745117,0.0033805537968873978,-0.0365990549325943,0.252560555934906,-0.16934147477149963,0.9626970291137695,2.238391637802124,-1.3530458211898804
0.84,-0.1301102489233017,-0.04050030559301376,0.11626699566841125,0.02318849042057991,-0.015191867016255856,0.0009678787318989635,0.8160841464996338,0.6199738383293152,0.9647043347358704,-0.6390812397003174,-0.1492874175310135,-0.028706399723887444,-0.07006445010724766,0.0522613631536514,0.027913136811697832,0.03146101082698791,-0.0032129973574824286,0.0020635278224122333,0.6569761835227997,0.754400760059988,-0.3891904806478816,-0.6054814165318663,-0.12543838270001365,-0.015369681649096214,0.001935757463797927,0.04637698084115982,-0.24100060760974884,0.7399476766586304,-0.9381624460220337,-0.11482559889554977,-0.03038373403251171,0.2325339913368225,-0.10022048652172089,1.1321682929992676,2.269408702850342,-0.597149670124054
0.86,-0.015133695676922798,-0.018711751326918602,0.1137998104095459,0.06037484481930733,-0.013089961372315884,0.00523694884032011,0.8812451958656311,0.37791889905929565,0.5830281376838684,-0.39881783723831177,-0.01797490194439888,-0.04036327078938484,-0.0239807897812249,0.04572760414634379,0.02838686677693039,0.029428033092694903,-0.005084075287569378,0.010107071479103773,0.7352929019822319,0.6061549129122306,-0.31844171694427614,-0.5537666820838235,-0.041086499402857815,-0.02413893998670872,0.01047389768064022,0.12074968963861465,-0.19742350280284882,0.2558377683162689,-0.45763567090034485,-0.16145308315753937,-0.026179922744631767,0.2275996208190918,0.12973260879516602,1.2624903917312622,1.506056308746338,-0.07189960777759552
0.88,0.1194072812795639,0.010244281962513924,0.03280545026063919,0.09135492146015167,-0.002460719086229801,0.002025417285040021,0.9595596194267273,0.1917809545993805,-0.2507341802120209,-0.09481057524681091,0.05964351072907448,-0.03321349248290062,0.03892188690128138,0.03267185340040926,0.03729336165023892,0.038775602523822145,-0.005606521995848589,0.0093026018543973,0.8309901961231883,0.4279838038131693,-0.2735592029501736,-0.3782130871276076,0.016045255308316006,-0.029669941569846918,0.004050834570080042,0.18270984292030334,-0.13951143622398376,-0.11643807590007782,0.15037885308265686,-0.13285396993160248,-0.004921438172459602,0.06561090052127838,0.3988145589828491,1.4191192388534546,-0.16146835684776306,0.2385740429162979
0.9,0.23203201591968536,0.048677001148462296,-0.04024341702461243,0.03616207465529442,-0.007129271514713764,-0.0003433175734244287,0.9223079085350037,0.20603926479816437,-0.7657085657119751,-0.10597427934408188,0.01695958524942398,0.059450823813676834,0.0930186647048008,0.010053164809056023,0.023491665142449984,0.03308985727080502,-0.01326545864234123,0.0020971920510792883,0.8875429199593902,0.31144698144436633,-0.4104849237164592,-0.2269858354031553,0.029994369238011923,-0.0025927473888668878,-0.0006866351468488574,0.07232414931058884,-0.06264599412679672,-0.08792146295309067,0.12805144488811493,0.23780329525470734,-0.014258543029427528,-0.08048683404922485,0.624064028263092,1.3446158170700073,-1.1914170980453491,0.06783834099769592
0.92,0.18727119266986847,-0.04699958860874176,-0.07672260701656342,-0.10712854564189911,-0.01165324728935957,0.004977215081453323,0.9135234951972961,0.1768941581249237,-0.8645676374435425,-0.21044136583805084,0.026592377573251724,0.3371821939945221,0.13312291044194968,-0.015692062547410107,-0.020886149683094747,-0.003272177210730377,-0.012156923302102962,0.0015933437127759614,0.9014535627243625,0.24773472065028726,-0.6227773594293251,-0.1826664634615418,0.028582859925412332,0.11703296167575133,0.009954430162906647,-0.21425709128379822,-0.25399917364120483,-0.1462116688489914,-0.080882728099823,1.3487287759780884,-0.02330649457871914,-0.15344521403312683,0.5345423817634583,1.3270469903945923,-1.3891352415084839,0.1063695102930069
0.9400000000000001,0.1549156755208969,-0.09239597618579865,-0.06455729156732559,-0.14542865753173828,-0.016651231795549393,0.02341046743094921,0.9326769709587097,0.13102230429649353,-0.768123984336853,-0.3270778954029083,0.0023136287927627563,0.4630592465400696,0.15961828928886185,-0.0301016775418564,-0.04899175454715432,-0.02756702352489677,-0.011865974182998167,0.011414554552598443,0.9093400235873205,0.24222443207855054,-0.737115218756639,-0.14411877510941454,0.020414179345411707,0.18710932176107353,0.04682093486189842,-0.29085731506347656,-0.3447919487953186,-0.23795537650585175,-0.31415578722953796,1.8522369861602783,-0.033302463591098785,-0.12911458313465118,0.46983134746551514,1.3653539419174194,-1.196247935295105,0.009254515171051025
0.96,0.17554868757724762,-0.1290304809808731,-0.004447979852557182,-0.16226693987846375,-0.031053632497787476,0.013224124908447266,0.9170524477958679,0.1678585410118103,-0.705403745174408,-0.18549884855747223,0.026804964989423752,0.4279780089855194,0.1957045062287802,-0.04064076761555984,-0.045252553654589606,-0.023162344963344926,-0.019641113953377132,0.007223688413758408,0.9020415689933058,0.24053969573901077,-0.7496634159222105,-0.15974212753685377,0.018951681935072035,0.17613320327547832,0.02644824981689453,-0.3245338797569275,-0.41806095838546753,-0.1642829179763794,-0.030997686088085175,1.7119120359420776,-0.06210726499557495,-0.008895959705114365,0.5110973715782166,1.3341048955917358,-1.0708074569702148,0.10721985995769501
0.98,0.24273638427257538,-0.04349852353334427,-0.006357811391353607,-0.13436536490917206,-0.029971789568662643,0.0011472575133666396,0.9373661875724792,0.23120011389255524,-0.6743898391723633,-0.0399446040391922,0.021685030311346054,0.36818984150886536,0.21976719772342476,-0.040058264159581816,-0.03812400545320589,-0.017343409771431107,-0.025319688248617658,0.007359822603241241,0.9086973366274519,0.23258861292530325,-0.7217248508088349,-0.1701456532731966,0.020940104590006208,0.17527501877065554,0.0022945150267332792,-0.2687307298183441,-0.24699704349040985,-0.03759976476430893,0.2601107954978943,1.4727593660354614,-0.05994357913732529,-0.012715622782707214,0.6454727649688721,1.3747323751449585,-1.0087796449661255,0.08674012124538422
1.0,0.26112860441207886,-0.010725786909461021,-0.009193317033350468,-0.1140056848526001,-0.0405171774327755,-0.007595752365887165,0.8895779252052307,0.24455080926418304,-0.6699416041374207,0.02590617723762989,0.05045691132545471,0.32943472266197205,0.23356894239020684,-0.032136617147869494,-0.032625688238569865,-0.014246225431218788,-0.03465020472781678,0.0033045492970057576,0.9027745091680627,0.22821730130028647,-0.6931330319477855,-0.1836300992406647,0.030665257150168154,0.1687353287675398,-0.01519150473177433,-0.2280113697052002,-0.18145157396793365,-0.01089837122708559,0.39181235432624817,1.3177388906478882,-0.081034354865551,-0.018386634066700935,0.6822572350502014,1.2791558504104614,-0.999883234500885,0.20182764530181885
1.02,0.24339301884174347,-0.00984177552163601,-0.004938833881169558,-0.10316190123558044,-0.052361298352479935,-0.015288446098566055,0.8288828134536743,0.25828656554222107,-0.6262373924255371,0.029934557154774666,0.05566653981804848,0.3004189431667328,0.23802685772874457,-0.022889235666785527,-0.02723192218106623,-0.012432692946962845,-0.0458559074822346,-0.002146176579769924,0.872195736760746,0.23098323743292865,-0.6635122081709361,-0.20166312883645318,0.04288747786838151,0.15714824503357228,-0.03057689219713211,-0.2063238024711609,-0.17968355119228363,0.01657312735915184,0.3998691141605377,1.2016757726669312,-0.10472259670495987,-0.009877667762339115,0.6467860341072083,1.1577656269073486,-0.9124748110771179,0.2226661592721939
1.04,0.22454623878002167,-0.0014295188011601567,-0.002395256422460079,-0.08663080632686615,-0.06168166175484657,-0.01629979908466339,0.7455511093139648,0.2746654748916626,-0.5745662450790405,0.007661284878849983,0.06923434138298035,0.26464396715164185,0.23280489174722627,-0.013556811217051915,-0.02006400576642877,-0.010306611761039055,-0.056875756818157534,-0.006029220065861326,0.818481929952019,0.24108216603537172,-0.6249101319990154,-0.22386227239659137,0.05472324575849769,0.13995388625621952,-0.03259959816932678,-0.1732616126537323,-0.16285903751850128,0.0493309423327446,0.35532256960868835,1.0585758686065674,-0.12336332350969315,-0.004790512844920158,0.6090924739837646,0.9911022782325745,-0.80913245677948,0.2769373655319214
1.06,0.20606301724910736,0.015381867066025734,0.0016968995332717896,-0.05909594148397446,-0.068354532122612,-0.01490822248160839,0.6491647958755493,0.3000355362892151,-0.5281229019165039,-0.030910713598132133,0.0883491039276123,0.2214689403772354,0.2192460332018114,-0.0036940551984663587,-0.009530772356687188,-0.00578904801987745,-0.06645159356633772,-0.008392017439114484,0.7464958152051056,0.25740138403832435,-0.5805234679768216,-0.24960909361527095,0.06890879799198783,0.11696860714590827,-0.02981644496321678,-0.11819188296794891,-0.12923626601696014,0.10007108747959137,0.2781785726547241,0.8858757615089417,-0.136709064245224,0.003393799066543579,0.572126030921936,0.7983296513557434,-0.7162458300590515,0.3533964157104492
1.08,0.18561531603336334,0.034329891204833984,0.01786421611905098,-0.019477618858218193,-0.07474900037050247,-0.015722669661045074,0.5521631240844727,0.3359251022338867,-0.5030248165130615,-0.06966760754585266,0.11086961627006531,0.1728709638118744,0.19991999431862903,0.007157646392629434,0.006734610254715079,0.004510873170531966,-0.07450203806883066,-0.011277546744484728,0.6639268668674738,0.280729518600327,-0.5409078401655862,-0.2794727644432307,0.08666677495766247,0.09019604951217079,-0.03144533932209015,-0.038955237716436386,-0.09134021401405334,0.17185020446777344,0.20066478848457336,0.6914838552474976,-0.14949800074100494,0.03572843223810196,0.531230628490448,0.6043263077735901,-0.6660496592521667,0.44347846508026123
1.1,0.1630777269601822,0.05466397479176521,0.05415448918938637,0.028561260551214218,-0.08323206752538681,-0.020416777580976486,0.4728356599807739,0.38044312596321106,-0.5054880976676941,-0.11088481545448303,0.13444693386554718,0.12148880958557129,0.17778117408777358,0.020331032611858344,0.03156234025614343,0.024115962726380304,-0.08182463393373036,-0.01727528986021789,0.5839588167704022,0.3121993431068338,-0.5147411901816517,-0.3142417900311891,0.1058021077268453,0.061371295025281145,-0.04083355516195297,0.057122521102428436,-0.05067204684019089,0.2608862519264221,0.11823037266731262,0.48595523834228516,-0.16646413505077362,0.10830897837877274,0.4861554503440857,0.44567131996154785,-0.6709762215614319,0.5377877354621887
1.12,0.15263457596302032,0.08602825552225113,0.0712064802646637,0.040469396859407425,-0.0746481642127037,-0.016037695109844208,0.44239914417266846,0.4094744026660919,-0.6330270171165466,-0.12306124716997147,0.17063431441783905,0.09378544986248016,0.15357451208476772,0.0368091209193555,0.042032847200473754,0.0293268620343262,-0.0626268122760697,-0.020190038756126592,0.5730733866544396,0.34403236007488863,-0.41950689324944945,-0.3500103861379078,0.05613901366830727,0.03512319928676639,-0.032075390219688416,0.08093879371881485,0.012056516483426094,0.31894880533218384,0.09387750178575516,0.37514179944992065,-0.1492963284254074,0.1424129605293274,0.46526914834976196,0.3847983181476593,-0.9260540008544922,0.6825372576713562
1.1400000000000001,0.13677816092967987,0.08056638389825821,0.020776554942131042,0.014327209442853928,-0.06433432549238205,-0.00987430103123188,0.4958353042602539,0.46174150705337524,-0.5370495319366455,0.006045656278729439,0.18230587244033813,0.01804734580218792,0.13205445143535208,0.04229489122623742,0.0370736181829499,0.022038839124730803,-0.05857408891248149,-0.016283848331471503,0.5652354472778527,0.37734155816539483,-0.40182912273156157,-0.38166935100116894,0.033436966690540894,-1.892487300279215e-05,-0.01974860206246376,0.028654418885707855,0.001132771372795105,0.4234830141067505,0.35209131240844727,0.07218938320875168,-0.1286686509847641,0.041553109884262085,0.43355631828308105,0.4916706085205078,-0.7340990900993347,0.7292234897613525
1.16,0.09305670857429504,0.09071920067071915,0.008271439000964165,-0.009719720110297203,-0.058825280517339706,-0.0031364772003144026,0.543919563293457,0.5156778693199158,-0.4608374536037445,0.1229197233915329,0.15802787244319916,0.02835276536643505,0.10598391783192235,0.05262552179570038,0.030203801938196814,0.014124029581151077,-0.058096791629171175,-0.0038834992959332804,0.5666503803080466,0.41619122817122656,-0.4193211790696073,-0.41395202877627274,0.03708821079568211,0.007283172252628519,-0.006272954400628805,-0.019439440220594406,0.02143840864300728,0.5313557386398315,0.5858394503593445,0.1134110614657402,-0.11765056103467941,0.01654287800192833,0.3461134135723114,0.5878391265869141,-0.5816749334335327,0.6321114897727966
1.18,0.0569983571767807,0.0909174233675003,0.00016631092876195908,-0.00551244243979454,-0.053092096000909805,-0.0006904476904310286,0.5382204055786133,0.5535894632339478,-0.4720239043235779,0.1463688462972641,0.11974519491195679,0.021600525826215744,0.07731564401025087,0.061689422002293645,0.027254424367101848,0.009645897576304194,-0.05622962589312544,0.0008593362151697291,0.5663136710646951,0.4594283191168614,-0.4355911471503396,-0.43880187956923195,0.04548859163628773,0.00195323791892568,-0.0013808953808620572,-0.01102488487958908,0.02183484099805355,0.6071789264678955,0.6327376961708069,0.08640210330486298,-0.10618419200181961,0.00033262185752391815,0.2739967107772827,0.5764408111572266,-0.6040478348731995,0.47898077964782715
1.2,0.03282161056995392,0.10269903391599655,0.0032224003225564957,-0.0037677809596061707,-0.04749096557497978,0.0020363121293485165,0.5280301570892334,0.603041410446167,-0.47933176159858704,0.1542091816663742,0.08321955800056458,0.0025937650352716446,0.047070245391614994,0.06836000741525278,0.028073972138291218,0.010073166179400067,-0.05298342843347108,0.00313215637877794,0.5611003654394492,0.5045430728849662,-0.44961449978359525,-0.4559246581044614,0.04128216019215297,0.0008551279138773845,0.004072624258697033,-0.007535561919212341,0.04539807140827179,0.7060828804969788,0.6484183669090271,0.010375060141086578,-0.09498193114995956,0.006444800645112991,0.22564321756362915,0.5560603737831116,-0.6186635494232178,0.3328782320022583
1.22,0.0036356132477521896,0.11330079287290573,0.016890719532966614,0.0020549707114696503,-0.04116689786314964,0.002642266917973757,0.5144351720809937,0.6599106788635254,-0.4762928783893585,0.1603131741285324,0.03778607025742531,-0.019397849217057228,0.01416608548864241,0.07337957575040892,0.03251784825391663,0.014829483199196589,-0.048671771874711535,0.0034346756348928196,0.5524215766951892,0.5538360206516071,-0.4618044930357703,-0.4658837573688016,0.02135504639129031,-0.0049266707817139325,0.005284533835947514,0.0041099414229393005,0.06660158932209015,0.8198213577270508,0.6606263518333435,-0.07759139686822891,-0.08233379572629929,0.03378143906593323,0.167271226644516,0.5288704037666321,-0.6125857830047607,0.15114428102970123
1.24,-0.03030679188668728,0.11803676187992096,0.03772334009408951,0.013066742569208145,-0.03346290439367294,0.0015908387722447515,0.4995375871658325,0.7175369262695312,-0.46357622742652893,0.14402784407138824,-0.031912997364997864,-0.04544391855597496,-0.020813979146101818,0.07686912660333543,0.03915299124321569,0.020219782982559113,-0.042390507977837014,0.0026528638521975683,0.5439323804362994,0.6081479702232704,-0.4742512884471127,-0.4674275119461041,0.018932810833512795,-0.016172281162748194,0.003181677544489503,0.02613348513841629,0.0760735273361206,0.9350738525390625,0.6280556917190552,-0.18177567422389984,-0.06692580878734589,0.07544668018817902,0.09938641637563705,0.49907517433166504,-0.5871524810791016,-0.12765198945999146
1.26,-0.0627603828907013,0.1101670116186142,0.0679636299610138,0.03336808457970619,-0.029439914971590042,1.0324642062187195e-05,0.4939900040626526,0.776860237121582,-0.40112602710723877,0.12239773571491241,-0.14748942852020264,-0.06996804475784302,-0.05461418858419549,0.07588014419629226,0.048538551420294604,0.028735842686571547,-0.0351978315159494,0.0005440589667276084,0.5356393894567896,0.6663155862012564,-0.486141992999862,-0.4564694997377239,0.004240321445733945,-0.03251219209018891,2.064928412437439e-05,0.06673616915941238,0.06033402681350708,1.053720474243164,0.5847954750061035,-0.27987217903137207,-0.058879829943180084,0.1359272599220276,0.034479230642318726,0.4879800081253052,-0.46225205063819885,-0.5899577140808105
1.28,-0.09708621352910995,0.08305518329143524,0.11463680863380432,0.04456889256834984,-0.02730385959148407,-0.0030512784142047167,0.5081927180290222,0.838560938835144,-0.23493216931819916,0.042472392320632935,-0.31389403343200684,-0.08060873299837112,-0.08397891607431356,0.06843111771740291,0.05745822754958411,0.039191318124527,-0.02806671111916208,-0.002345650510291444,0.5320661039969751,0.728977660111351,-0.4990409137909024,-0.4296883904532481,-0.046557271145874934,-0.0482142991085779,-0.006102556828409433,0.08913778513669968,0.006110372021794319,1.177121877670288,0.42494478821754456,-0.3224349319934845,-0.05460771918296814,0.22927361726760864,-0.0341724269092083,0.5163854360580444,-0.12986434996128082,-1.2555761337280273
1.3,-0.11341700702905655,0.03188692778348923,0.1551564782857895,0.04276924207806587,-0.022230472415685654,-0.0037275946233421564,0.5612160563468933,0.8964537978172302,0.18002073466777802,-0.2835737466812134,-0.47633787989616394,-0.03683352470397949,-0.10054870948126891,0.049772111576921546,0.05933753978704863,0.04605379776533267,-0.02361666213685838,-0.004731740581123296,0.5365095570557217,0.7964811169892195,-0.5091621752391849,-0.39241766505726244,-0.1370027662928737,-0.05032444949926937,-0.007455189246684313,0.08553848415613174,-0.09622614085674286,1.2929075956344604,-0.22714748978614807,-0.14733409881591797,-0.04446094483137131,0.310312956571579,-0.06683401763439178,0.6224321126937866,0.7000414729118347,-1.9053515195846558
1.32,-0.13723336160182953,-0.015955640003085136,0.13650649785995483,0.023215696215629578,-0.011229406110942364,0.002773564774543047,0.6592288613319397,0.8705675601959229,0.707522988319397,-0.6970444321632385,-0.4229419231414795,0.03209637850522995,-0.10187161734323791,0.035930675520396,0.05025520639742982,0.0413930524461411,-0.009616078443251156,-0.0025557613888729748,0.5632760994963827,0.8373107206645969,-0.4886743359700855,-0.4691492917472753,-0.19063107190319276,-0.023507847439025252,0.005547129549086094,0.046431392431259155,-0.19191128015518188,1.2411351203918457,-1.054088830947876,0.1283855140209198,-0.022458812221884727,0.27301299571990967,-0.11446671932935715,0.8184577226638794,1.755046010017395,-1.691767692565918
1.34,-0.17496490478515625,-0.07148696482181549,0.11808234453201294,0.005103234201669693,-0.008692438714206219,0.002814056584611535,0.7684617638587952,0.7371610403060913,1.023887038230896,-0.6934579014778137,-0.255461722612381,-0.017041023820638657,-0.09030127832986437,0.0321652143549004,0.03748352369294489,0.0281015172655166,0.0032119478931028587,0.0025045667825890788,0.6131087212908737,0.8141542285122854,-0.4339843213998964,-0.5802867338971938,-0.16865487167810744,-0.009458271436742337,0.00562811316922307,0.010206468403339386,-0.3029739260673523,0.9743220210075378,-1.0469157695770264,-0.06816409528255463,-0.017384877428412437,0.23616468906402588,-0.1899298131465912,1.0369235277175903,2.3877739906311035,-1.021846890449524
1.36,-0.09679848700761795,-0.048793211579322815,0.12244686484336853,0.029379766434431076,-0.0051654549315571785,0.011479673907160759,0.8398674726486206,0.5255703330039978,0.8389400839805603,-0.5592653155326843,-0.09694536030292511,-0.035215314477682114,-0.06017550996576902,0.030998809333306687,0.031163028923953645,0.020079833537953215,0.005767118099696545,0.012921959696523759,0.6821053544039215,0.7079098310523413,-0.36461283218348156,-0.6031808895209556,-0.09063272451431945,-0.016356542871970785,0.022959347814321518,0.05875953286886215,-0.25758641958236694,0.5511406660079956,-0.7785306572914124,-0.14086125791072845,-0.010330909863114357,0.24489372968673706,-0.03359697759151459,1.1797349452972412,2.0178802013397217,-0.38778144121170044
1.3800000000000001,0.03564774990081787,-0.031001558527350426,0.09021817147731781,0.06210906431078911,-0.007057248614728451,0.006280172616243362,0.9075578451156616,0.2699015736579895,0.213562473654747,-0.23301076889038086,0.027557741850614548,-0.04308633878827095,-0.002292576291530261,0.022895621142716607,0.034804050535265585,0.02441074449403031,-0.00035594176400577176,0.014301535034662841,0.7671585792419657,0.5302748772894434,-0.3001694342066591,-0.4815869683240935,-0.01205831988563505,-0.027690927755872338,0.012560345232486725,0.12421812862157822,-0.22200311720371246,0.039803147315979004,-0.12602153420448303,-0.1723453551530838,-0.014114497229456902,0.18043634295463562,0.23129549622535706,1.3151156902313232,0.7671249508857727,0.11023096740245819
1.4000000000000001,0.17480112612247467,0.023249762132763863,-0.008773153647780418,0.08645139634609222,-0.0021534236147999763,-0.00289038079790771,0.935900092124939,0.19911128282546997,-0.6189690232276917,-0.0961507260799408,0.031464602798223495,0.002539206761866808,0.05801871478301312,0.00698146095578834,0.03433529543661783,0.03113014990231199,-0.007570769331574133,0.005444513360013102,0.8486243624658198,0.3745905101684722,-0.3742733912518224,-0.3061297480725806,0.02333873734473172,-0.021295268670645615,-0.00578076159581542,0.17290279269218445,-0.11350047588348389,-0.10177742689847946,0.1476985514163971,0.010156827047467232,-0.004306847229599953,-0.017546307295560837,0.5096022486686707,1.371800184249878,-0.897938072681427,0.12585841119289398
1.42,0.2130422443151474,0.007135646417737007,-0.07400870323181152,-0.060930244624614716,-0.008340164087712765,0.005506105720996857,0.9053242206573486,0.1936499923467636,-0.8735987544059753,-0.1877298355102539,0.027893727645277977,0.2152663916349411,0.10495235459439164,-0.013500970209760585,-0.000649840345129936,0.009128119852256826,-0.013301057794974877,0.0020470417664769504,0.884185652822871,0.2817167175625778,-0.5728414756384791,-0.21392736746142252,0.02999198250775324,0.05741908708195664,0.011012211441993713,-0.12186048924922943,-0.1457287073135376,-0.11270001530647278,-0.03545968234539032,0.8610655665397644,-0.01668032817542553,-0.14801740646362305,0.5860844850540161,1.3106484413146973,-1.4071974754333496,0.11157491058111191
1.44,0.15832145512104034,-0.08991210162639618,-0.07411769032478333,-0.1163652092218399,-0.008923768065869808,0.01696629635989666,0.9312672019004822,0.1408434510231018,-0.8061961531639099,-0.3467515707015991,0.008203275501728058,0.4256086051464081,0.14093403130241547,-0.03314629535148448,-0.040829959639279594,-0.02220621453609652,-0.007445476664259055,0.014932044587984566,0.9015304064297257,0.24576864871838408,-0.7204073659799487,-0.17862415874308904,0.023947034216285346,0.17041461290114013,0.03393259271979332,-0.2327304184436798,-0.33982419967651367,-0.2183130830526352,-0.35350313782691956,1.7024344205856323,-0.017847536131739616,-0.14823538064956665,0.476642906665802,1.3625344038009644,-1.2723922729492188,0.03281310200691223
1.46,0.1423644721508026,-0.1492346078157425,-0.06910859048366547,-0.16615110635757446,0.001438206061720848,0.018621288239955902,0.9464848637580872,0.14854994416236877,-0.7310300469398499,-0.2988522946834564,-0.017727971076965332,0.47932589054107666,0.17769267439255834,-0.04360631585987274,-0.04945834158682236,-0.026303559093416095,-0.0032437396939193714,0.011688411640118654,0.9075366137927116,0.25311535918356226,-0.759437565222069,-0.15496774498288043,0.007614860098929771,0.17232614104930602,0.037242576479911804,-0.3323022127151489,-0.4584692120552063,-0.20290011167526245,-0.25770461559295654,1.9173035621643066,0.002876412123441696,-0.13821718096733093,0.44472894072532654,1.3929697275161743,-1.1220600605010986,-0.07091188430786133
1.48,0.2078869491815567,-0.10601817071437836,0.0031954674050211906,-0.1404380053281784,-0.022211596369743347,0.009366875514388084,0.9845806360244751,0.2113446444272995,-0.7234210968017578,-0.13623297214508057,0.011708365753293037,0.3905407190322876,0.2114142216206171,-0.05010566702748732,-0.04886513878128778,-0.021417245385555495,-0.006068957595449548,0.010983865066005214,0.9283371356334795,0.24605182194242908,-0.7506377126198966,-0.16500921061825635,0.0034450757603278854,0.18293600410557587,0.01873375102877617,-0.2808760106563568,-0.372036337852478,-0.0773107185959816,0.06753405928611755,1.5621628761291504,-0.044423192739486694,0.006390934810042381,0.5757738947868347,1.4691612720489502,-1.1068421602249146,0.04683346301317215
1.5,0.26570039987564087,-0.030842280015349388,-0.01035959180444479,-0.11736850440502167,-0.03051551803946495,-0.00016662455163896084,0.9662927389144897,0.23791642487049103,-0.7032826542854309,0.013802634552121162,0.03516290336847305,0.33464664220809937,0.23238612498020858,-0.045365373246639536,-0.04497432319996831,-0.015486457668448519,-0.02006728807364483,0.008345525571173523,0.9450627699413594,0.23621851818214398,-0.7300160464267569,-0.17465315764564088,0.014571252121493699,0.1858228492876243,-0.0003332491032779217,-0.23473700881004333,-0.2216845601797104,-0.024167142808437347,0.3676052689552307,1.3385865688323975,-0.0610310360789299,-0.02071918360888958,0.6914008259773254,1.4325854778289795,-1.0665652751922607,0.1406516134738922
1.52,0.2622077763080597,-0.011524466797709465,-0.015201696194708347,-0.11150939762592316,-0.0410342663526535,-0.011279085651040077,0.9156332612037659,0.24814432859420776,-0.6937088966369629,0.06961643695831299,0.04811723157763481,0.31579193472862244,0.24203407417904685,-0.03482495141080637,-0.04093361734743058,-0.012659274506761298,-0.03384458540881268,0.0026114000751172417,0.9355400614242774,0.22950686214222735,-0.7103328373512,-0.18734836819191797,0.0298605571638031,0.17498534925088344,-0.022558171302080154,-0.2230187952518463,-0.18304893374443054,-0.0037113563157618046,0.47923287749290466,1.2631677389144897,-0.082068532705307,-0.030403392389416695,0.6844155788421631,1.3312665224075317,-1.0474177598953247,0.19246892631053925
1.54,0.2401677519083023,-0.009270450100302696,-0.010313466191291809,-0.10671353340148926,-0.052255552262067795,-0.017017599195241928,0.8491264581680298,0.25829291343688965,-0.644724428653717,0.057234302163124084,0.05335696414113045,0.3013308048248291,0.24179782430803137,-0.02384529597159877,-0.03554130879683688,-0.011063555705369309,-0.045375677771240554,-0.0030898342261124205,0.8994011447986308,0.23093643001474592,-0.6835108126145628,-0.20483188255637752,0.04213575588425608,0.1587436932204591,-0.034035198390483856,-0.21342706680297852,-0.178540900349617,0.016585832461714745,0.45446860790252686,1.2053232192993164,-0.10451110452413559,-0.020626932382583618,0.6403355002403259,1.1982529163360596,-0.9494488835334778,0.2134278565645218
1.56,0.22110669314861298,0.0003537851443979889,-0.007645023055374622,-0.09352663904428482,-0.060475628823041916,-0.01658756472170353,0.762546718120575,0.27221405506134033,-0.5882880091667175,0.023163409903645515,0.06624952703714371,0.27140703797340393,0.2330091183655445,-0.013704888818491774,-0.028014716643359777,-0.009218558974728853,-0.05553003230035525,-0.006902292917186428,0.8408398960727085,0.23949590651757846,-0.643180371240678,-0.2261688147619557,0.053064953301703466,0.13895591725242776,-0.03317512944340706,-0.18705327808856964,-0.15929242968559265,0.04442811757326126,0.3863268196582794,1.0856281518936157,-0.12095125764608383,-0.015290046110749245,0.6022133827209473,1.02509343624115,-0.836575984954834,0.26499810814857483
1.58,0.20235483348369598,0.01653827168047428,-0.004744196310639381,-0.0687876045703888,-0.06608062982559204,-0.013904779218137264,0.6668446063995361,0.29592365026474,-0.5399989485740662,-0.017766771838068962,0.08393912762403488,0.2310972809791565,0.21715776988056712,-0.003825609059146712,-0.01755507664672355,-0.0054609637825486085,-0.06409144630041037,-0.008882529140050468,0.7661539917808187,0.25424292325678366,-0.5958672056981179,-0.2508551166818973,0.06608499099556858,0.11498258943562971,-0.02780955843627453,-0.1375752091407776,-0.12692345678806305,0.09184732288122177,0.30446645617485046,0.924389123916626,-0.13216125965118408,-0.009488392621278763,0.5647096633911133,0.8336891531944275,-0.7399978637695312,0.3357565104961395
