time,cmd_L_hip_pitch,cmd_R_hip_pitch,cmd_L_hip_roll,cmd_R_hip_roll,cmd_L_hip_yaw,cmd_R_hip_yaw,cmd_L_knee,cmd_R_knee,cmd_L_foot_pitch,cmd_R_foot_pitch,cmd_L_foot_roll,cmd_R_foot_roll,pos_L_hip_pitch,pos_R_hip_pitch,pos_L_hip_roll,pos_R_hip_roll,pos_L_hip_yaw,pos_R_hip_yaw,pos_L_knee,pos_R_knee,pos_L_foot_pitch,pos_R_foot_pitch,pos_L_foot_roll,pos_R_foot_roll,act_R_hip_yaw,act_R_hip_roll,act_R_hip_pitch,act_R_knee,act_R_foot_pitch,act_R_foot_roll,act_L_hip_yaw,act_L_hip_roll,act_L_hip_pitch,act_L_knee,act_L_foot_pitch,act_L_foot_roll
0.0,-0.0949036031961441,0.10124246776103973,0.006834229454398155,-0.03421464189887047,-0.007939786650240421,0.012601858004927635,0.25706416368484497,0.2638271749019623,-0.6561011672019958,-0.4202727675437927,0.14546838402748108,0.0873209536075592,-0.08815258393058367,0.08800796521775871,-0.002178907316595586,-0.004050843838495912,-0.005004541656602296,0.007815119913265596,0.2577564788272167,0.25878620062927155,-0.40349014698338725,-0.3343667003704501,0.04686808527157373,0.026175905868720255,0.02520371600985527,-0.06842928379774094,0.04248494282364845,0.027654346078634262,-0.5005455613136292,0.3492838144302368,-0.015879573300480843,0.01366845890879631,-0.029807208105921745,0.014128314331173897,-0.9722023606300354,0.5818735361099243
0.02,-0.06671671569347382,0.06251710653305054,-0.014453824609518051,-0.11049580574035645,-0.002178802154958248,0.028209280222654343,0.3875720500946045,0.31881701946258545,-0.5543084144592285,-0.2296726554632187,0.08884342014789581,0.17349721491336823,-0.07555405625496482,0.08099153611423135,-0.016015408415177238,-0.025302651896108183,-0.002552636299492404,0.02007398687257465,0.30324349650897986,0.28107278947351727,-0.5255834738853181,-0.34192009468278656,0.08142517611421649,0.08467541942585656,0.056418560445308685,-0.2209916114807129,-0.034965790808200836,0.1376340389251709,-0.1193452998995781,0.6939888596534729,-0.004357604309916496,-0.028907649219036102,0.02656657062470913,0.275144100189209,-0.7686168551445007,0.35537368059158325
0.04,-0.08029703050851822,0.13448697328567505,-0.04734267294406891,-0.07555291801691055,0.010515928268432617,0.02490866370499134,0.36520642042160034,0.3249402642250061,-0.5786836743354797,-0.18920542299747467,0.07050132006406784,0.2127671241760254,-0.08508023656117665,0.09383539362554326,-0.022457910439984147,-0.03779860442593483,0.005680705561762008,0.031079888418710813,0.33726194535703,0.28437153718582303,-0.5637498520372808,-0.3827059366695388,0.08387993110688578,0.09376301385762184,0.04981732740998268,-0.1511058360338211,0.10897395759820938,0.1498805284500122,-0.03841085731983185,0.8510684967041016,0.021031856536865234,-0.09468534588813782,-0.000594060868024826,0.2304128259420395,-0.8173673748970032,0.28200528025627136
0.06,-0.07620546966791153,0.08804726600646973,-0.014777841046452522,-0.03663647547364235,-0.009569845162332058,0.024788223206996918,0.29376721382141113,0.37676119804382324,-0.522503137588501,-0.32555198669433594,0.09802713990211487,0.17129412293434143,-0.09119451377540483,0.08311855467430111,-0.012674326769133824,-0.029408527008295417,-0.005058691333327237,0.027374806526119524,0.3296443923725615,0.31469858987724403,-0.5421973826673957,-0.40316167578114215,0.06497916304129767,0.0422209175504618,0.049576446413993835,-0.0732729509472847,0.01609453186392784,0.2535223662853241,-0.3111039996147156,0.6851764917373657,-0.019139690324664116,-0.029555682092905045,0.0075890664011240005,0.08753445744514465,-0.7050063014030457,0.3921085596084595
0.08,-0.09304311871528625,0.04586992412805557,-0.022152747958898544,-0.020525187253952026,-0.004749676212668419,0.019998714327812195,0.3236575126647949,0.42842161655426025,-0.5986294150352478,-0.26978904008865356,0.15028539299964905,0.06382492184638977,-0.091021347757225,0.06840746695942758,-0.015592088790031293,-0.03100134442079188,-0.007787932796477552,0.027121703848569236,0.33260096382619697,0.35930664036300963,-0.5051612972268172,-0.43161648631481353,0.033419730489360484,0.017152094712657225,0.03999742865562439,-0.04105037450790405,-0.06826014816761017,0.3568432033061981,-0.19957807660102844,0.2552996873855591,-0.009499352425336838,-0.04430549591779709,-0.026086237281560898,0.14731499552726746,-0.8572588562965393,0.6011415719985962
0.1,-0.08644338697195053,0.05379726365208626,-0.037449877709150314,-0.02804059535264969,0.0007892875000834465,0.022793764248490334,0.33763471245765686,0.45940443873405457,-0.5912535786628723,-0.17149744927883148,0.15682178735733032,0.009532729163765907,-0.09296946500493933,0.05861537036017001,-0.0196188836805902,-0.036032741343508624,-0.0030896836058839448,0.025725227404790486,0.3452742856639224,0.3992353408101584,-0.4915107347500742,-0.45536794141858744,0.03221675820515437,-0.01643488330418482,0.04558752849698067,-0.05608119070529938,-0.0524054691195488,0.41880887746810913,-0.0029948875308036804,0.03813091665506363,0.001578575000166893,-0.07489975541830063,-0.012886774726212025,0.17526942491531372,-0.8425071239471436,0.6272871494293213
0.12,-0.07294916361570358,0.07140476256608963,-0.05036485940217972,-0.025037631392478943,0.0026313653215765953,0.01997251808643341,0.3521650731563568,0.4963713586330414,-0.5658192038536072,-0.09051640331745148,0.13603094220161438,0.013287719339132309,-0.09524328705299726,0.05348734421932234,-0.02173517042120747,-0.03724712222481595,-0.00038457003164534903,0.026524816109798843,0.3615029115718394,0.4305452044569796,-0.4841967142885738,-0.4795964267036597,0.03972314105190509,-0.01962647398832638,0.03994503617286682,-0.050075262784957886,-0.017190469428896904,0.49274271726608276,0.15896719694137573,0.053150877356529236,0.005262730643153191,-0.10072971880435944,0.014101674780249596,0.20433016121387482,-0.7916383743286133,0.5441237688064575
0.14,-0.07734107971191406,0.07491567730903625,-0.0452452078461647,-0.027689803391695023,-0.00011084694415330887,0.013312808237969875,0.358267605304718,0.5450747013092041,-0.5643406510353088,-0.01836058311164379,0.1362096071243286,0.006468222942203283,-0.10059340764210654,0.049754167226952965,-0.021791864117250037,-0.03470983976351997,-0.0005588704463367705,0.019879366202829075,0.37606904480425984,0.46318328837797196,-0.47875778787945095,-0.49990355733743275,0.045670599409151254,-0.01762170425582036,0.02662561647593975,-0.055379606783390045,-0.010168647393584251,0.5901493430137634,0.3032788336277008,0.025872891768813133,-0.00022169388830661774,-0.0904904156923294,0.005317835137248039,0.21653519570827484,-0.7886812686920166,0.5448384284973145
0.16,-0.06932259351015091,0.07898391783237457,-0.04812931269407272,-0.022851891815662384,-0.0020909449085593224,0.007614512927830219,0.3736744523048401,0.6044752597808838,-0.560579240322113,0.08512263000011444,0.12542152404785156,-0.017827676609158516,-0.10683841963644834,0.042730879811764266,-0.020519503473592902,-0.02959892544667331,-0.0011706455188012447,0.01026943619011852,0.39153660724836126,0.501694237696126,-0.4808691111600546,-0.5166395447413261,0.04740665512353468,-0.017472456959737672,0.015229025855660439,-0.04570378363132477,-0.002032162621617317,0.7089505195617676,0.5102452635765076,-0.07131070643663406,-0.004181889817118645,-0.09625862538814545,0.021354811266064644,0.24734891951084137,-0.7811585068702698,0.5016860961914062
0.18,-0.06023981794714928,0.07680083811283112,-0.04003029316663742,-0.012707691639661789,-0.007872364483773708,0.004503118805587292,0.38582539558410645,0.6722619533538818,-0.5515257120132446,0.18544794619083405,0.11051101982593536,-0.03829960152506828,-0.11225001360262393,0.032059843378872445,-0.01492541467642667,-0.02143087069928639,4.606313457017721e-05,0.0028771844438702948,0.40844843801599734,0.5481647186804544,-0.4982427150145207,-0.5258594793618279,0.040491279812200305,-0.019764918727630434,0.009006237611174583,-0.025415383279323578,-0.006398329511284828,0.8445239663124084,0.7108958959579468,-0.15319840610027313,-0.015744728967547417,-0.08006058633327484,0.03952036052942276,0.2716508209705353,-0.7630513906478882,0.44204407930374146
0.2,-0.07306917756795883,0.04653232917189598,-0.018213123083114624,-0.00034026801586151123,-0.015662740916013718,0.005910822656005621,0.40609776973724365,0.7546975016593933,-0.5551485419273376,0.21887369453907013,0.08089756965637207,-0.060405150055885315,-0.1180637558568612,0.015438946936098057,-0.0045516489204594284,-0.00863593309264261,-0.004657770342692362,0.0022873395112819927,0.42485826454933034,0.6101308204296491,-0.5141881430051075,-0.5252400135917202,0.028684368295170497,-0.025732532562812035,0.011821645312011242,-0.0006805360317230225,-0.06693533807992935,1.0093950033187866,0.777747392654419,-0.24162060022354126,-0.031325481832027435,-0.03642624616622925,0.013861650601029396,0.3121955394744873,-0.7702970504760742,0.3235902786254883
0.22,-0.08895692974328995,-0.008020510897040367,0.022423675283789635,0.010561130940914154,-0.022563207894563675,0.01263831090182066,0.4264926612377167,0.8433051705360413,-0.5449727773666382,0.18262861669063568,0.012116378173232079,-0.07740970700979233,-0.12205818320826135,-0.010975885772366016,0.011550272612679505,0.009234392306268022,-0.008852021492114542,0.00696743594824452,0.43949330038336737,0.689659183627091,-0.5278725281178175,-0.5131386451780182,0.0012198813237980946,-0.04107588002171469,0.02527662180364132,0.021122261881828308,-0.17604102194309235,1.1866103410720825,0.70525723695755,-0.3096388280391693,-0.04512641578912735,0.04484735056757927,-0.01791386306285858,0.35298532247543335,-0.7499455213546753,0.048465512692928314
0.24,-0.10926062613725662,-0.09006941318511963,0.07449258863925934,0.025637198239564896,-0.022816583514213562,0.020332593470811844,0.4299417734146118,0.937699556350708,-0.5273551344871521,0.05581986904144287,-0.09842947870492935,-0.0764419436454773,-0.1230608528253001,-0.05057529813914829,0.028367739084419363,0.027928792231659838,-0.010388519270469774,0.015863071601634453,0.4497095988343472,0.7848503174889905,-0.538650413791467,-0.4890117283358945,-0.026171748405905557,-0.05647579215051612,0.04066518694162369,0.05127439647912979,-0.34013882279396057,1.375399112701416,0.45163974165916443,-0.3057677745819092,-0.045633167028427124,0.14898517727851868,-0.05852125212550163,0.359883576631546,-0.7147102355957031,-0.3937179148197174
0.26,-0.12718823552131653,-0.1666654646396637,0.1330239474773407,0.040604956448078156,-0.011981925927102566,0.02491084858775139,0.4387105405330658,1.0421253442764282,-0.4847773611545563,-0.22641390562057495,-0.2622915804386139,-0.07641106098890305,-0.1247376839065042,-0.09948137610217152,0.03993104613555064,0.04158732658325606,-0.0057430925108442835,0.02285559498448985,0.4563239190227004,0.8896974071613695,-0.5483132428739593,-0.45201351424917446,-0.03896410832068427,-0.06881749197990226,0.04982169717550278,0.08120991289615631,-0.4933309257030487,1.5842506885528564,-0.11282781511545181,-0.3056442439556122,-0.02396385185420513,0.2660478949546814,-0.09437647461891174,0.3774210810661316,-0.6295547485351562,-1.0491663217544556
0.28,-0.12316957861185074,-0.23114146292209625,0.16841742396354675,0.030486658215522766,-0.0033445674926042557,0.030657153576612473,0.45951592922210693,1.1342740058898926,-0.32462021708488464,-0.5581883788108826,-0.37731680274009705,-0.058694493025541306,-0.12215287595067394,-0.15272774852095639,0.04375372415034076,0.04837857652923836,-0.00013045437845098638,0.0251264962206913,0.4635192793023058,0.9941067582902575,-0.5592280781843282,-0.4682677588962678,-0.07903180888711694,-0.06978572188782277,0.061314307153224945,0.06097331643104553,-0.6222829222679138,1.7685481309890747,-0.7763767242431641,-0.23477797210216522,-0.006689134985208511,0.3368348479270935,-0.08633916079998016,0.4190318286418915,-0.309240460395813,-1.5092672109603882
0.3,-0.11195366084575653,-0.2865806519985199,0.15604683756828308,0.014116678386926651,0.01616477593779564,0.04264664277434349,0.5238784551620483,1.1731643676757812,-0.018925247713923454,-0.65679532289505,-0.37904754281044006,-0.03340155631303787,-0.11232250339370244,-0.20422758749730355,0.04348538492860518,0.04958414167502878,0.008568942741821796,0.030241410548860655,0.4772816496079792,1.0745534587633003,-0.5716225712180809,-0.5405346036135997,-0.1321648536850676,-0.05737784353066111,0.08529328554868698,0.028233356773853302,-0.7331613302230835,1.846328616142273,-0.973590612411499,-0.1336062252521515,0.03232955187559128,0.31209367513656616,-0.06390731781721115,0.5477569103240967,0.3021495044231415,-1.5161901712417603
0.32,-0.08660773187875748,-0.3326684832572937,0.11275359988212585,0.017353959381580353,0.037736013531684875,0.05652869492769241,0.5997059345245361,1.1870958805084229,0.3058883845806122,-0.7323605418205261,-0.33264192938804626,-0.028113164007663727,-0.09217258354412307,-0.2503879390932739,0.0356473642412331,0.039794325466529036,0.030487667857651744,0.044767201210456964,0.5084457815021677,1.1269370168560249,-0.5658900082361495,-0.6265352362007958,-0.14962452979362706,-0.043490022994357024,0.11305738985538483,0.034707918763160706,-0.8253369927406311,1.8741917610168457,-1.1247210502624512,-0.11245265603065491,0.07547202706336975,0.2255071997642517,-0.013215458020567894,0.6994118690490723,0.9517767429351807,-1.330567717552185
0.34,-0.08276005834341049,-0.40168896317481995,0.08798318356275558,0.01120176911354065,0.05515924096107483,0.07209619879722595,0.6837142109870911,1.1234350204467773,0.507622480392456,-0.8231162428855896,-0.27509576082229614,-0.018439551815390587,-0.06267598043089823,-0.2900209590629087,0.021672023747443214,0.022671991802861828,0.052454405793063485,0.06742564068753273,0.5551534421904962,1.1360826164244389,-0.5380223801407282,-0.7135630765796787,-0.13132063770282554,-0.031509239981527805,0.1441923975944519,0.0224035382270813,-0.9633779525756836,1.7468700408935547,-1.3062324523925781,-0.07375820726156235,0.11031848192214966,0.17596636712551117,-0.00552012212574482,0.8674284219741821,1.3552449941635132,-1.1003830432891846
0.36,-0.042204082012176514,-0.433895081281662,0.08176283538341522,-0.010097933933138847,0.06513356417417526,0.08508274704217911,0.7734223008155823,1.0012273788452148,0.6232244372367859,-0.820915937423706,-0.19066502153873444,-0.01935505121946335,-0.02406938801387651,-0.3223995225982211,0.0078196566965345,0.0038457579100483483,0.06574928213507769,0.08557532002308094,0.6189369266019994,1.0898575135298247,-0.4989945994401972,-0.7734449517601585,-0.10221926190167757,-0.02383664954124803,0.17016549408435822,-0.020195867866277695,-1.0277901887893677,1.5024547576904297,-1.301831841468811,-0.0774202048778534,0.13026712834835052,0.16352567076683044,0.07559183239936829,1.0468446016311646,1.5864489078521729,-0.7626600861549377
0.38,0.0289818923920393,-0.435254842042923,0.07736712694168091,-0.03135358542203903,0.06038786098361015,0.08767551928758621,0.8454993963241577,0.8304669260978699,0.6178407073020935,-0.7167927026748657,-0.06355404108762741,-0.03621205314993858,0.023222999654413157,-0.3464895144658614,-0.003023782996677475,-0.015844407323587738,0.06781398111399506,0.09222459302877328,0.6953363666104404,0.9873888076431911,-0.4467933011794094,-0.7693945060233618,-0.058395086650425435,-0.025532258358763913,0.17535103857517242,-0.06270717084407806,-1.0305097103118896,1.1609338521957397,-1.0935853719711304,-0.14484821259975433,0.1207757219672203,0.15473425388336182,0.2179637849330902,1.1909987926483154,1.575681447982788,-0.25421616435050964
0.4,0.11956678330898285,-0.3981609344482422,0.03442883491516113,-0.03699707239866257,0.059152599424123764,0.0814455896615982,0.9275321364402771,0.6658216714859009,0.22776539623737335,-0.5113027095794678,0.03924433887004852,-0.06272213906049728,0.07521401404087295,-0.3588749265214354,-0.009498161216455395,-0.0331525264171652,0.06469288096685868,0.0890150020282226,0.7850713587043647,0.8505882409004416,-0.38724729846935807,-0.6789817557827481,-0.0027269844162645576,-0.0385216530962006,0.1628911793231964,-0.07399414479732513,-0.9563218951225281,0.831643283367157,-0.6826054453849792,-0.25088855624198914,0.11830519884824753,0.06885766983032227,0.399133563041687,1.3550642728805542,0.7955307960510254,0.1569773554801941
0.42,0.22948114573955536,-0.33575522899627686,-0.07470571249723434,-0.02945488691329956,0.05742042511701584,0.08894005417823792,1.0038195848464966,0.6388036608695984,-0.6025434136390686,-0.4590567350387573,0.0577203743159771,-0.002594033954665065,0.1238710854560592,-0.36759221825238575,-0.022277252359390515,-0.048001565728135305,0.05504207323733997,0.09285398667058777,0.8848621970301253,0.7454019092608369,-0.4302312880101367,-0.5720104785308842,0.033252796648441746,-0.032111593164630636,0.17788010835647583,-0.05890977382659912,-0.8315104842185974,0.7776073217391968,-0.5781134963035583,-0.01037613581866026,0.11484085023403168,-0.1494114249944687,0.618962287902832,1.5076391696929932,-0.8650867938995361,0.2308814972639084
0.44,0.23548932373523712,-0.3479520380496979,-0.08999331295490265,-0.08205466717481613,0.05453839898109436,0.10036007314920425,1.03481924533844,0.6151728630065918,-0.7752081751823425,-0.6336044669151306,0.05544058233499527,0.2653360068798065,0.16006788042764694,-0.3717917265371041,-0.04509690371682916,-0.06682470442586458,0.05050664780550264,0.1000445692914827,0.9583367679818131,0.6803579087418756,-0.5669764138696761,-0.5579073765900072,0.0481562099110542,0.06748121080577273,0.2007201462984085,-0.16410933434963226,-0.8559041023254395,0.7303456664085388,-0.9272089004516602,1.061344027519226,0.10907679796218872,-0.1799866259098053,0.6309786438941956,1.5696384906768799,-1.210416316986084,0.22176232933998108
0.46,0.19721753895282745,-0.36535823345184326,-0.11894138157367706,-0.11079587787389755,0.055982235819101334,0.10785496234893799,1.0291900634765625,0.5592765808105469,-0.706236720085144,-0.5670076012611389,0.04927000403404236,0.2814382314682007,0.1845019618256428,-0.3590947100507244,-0.05873015699771685,-0.0726804450208526,0.044872804986629454,0.10428258335246458,0.9920783256327304,0.6895399065352296,-0.6610695683877005,-0.44222995627765,0.05100603897396996,0.09387904231275376,0.21570992469787598,-0.2215917557477951,-0.8907164931297302,0.618553102016449,-0.7940152287483215,1.1257529258728027,0.11196447163820267,-0.23788276314735413,0.5544350743293762,1.558380126953125,-1.072473406791687,0.19708001613616943
0.48,0.17258651554584503,-0.3786618113517761,-0.09780314564704895,-0.1280825138092041,0.056598857045173645,0.1292760819196701,1.0599536895751953,0.6064344644546509,-0.6982557773590088,-0.534359335899353,0.02185378223657608,0.3189871311187744,0.2017982222470846,-0.34517990529363574,-0.06715090877873192,-0.07105254996793325,0.0512409870313273,0.10632595168890564,1.0110976155803397,0.6988433094190978,-0.6937199460134049,-0.38078788602557556,0.041584233985383995,0.10100167813384824,0.2585521638393402,-0.2561650276184082,-0.917323648929596,0.7128689289093018,-0.7287186980247498,1.2759485244750977,0.11319771409034729,-0.1956062912940979,0.5051730275154114,1.6199074983596802,-1.0565115213394165,0.08741512894630432
0.5,0.18429629504680634,-0.3431008756160736,-0.06823606044054031,-0.18324925005435944,0.034950707107782364,0.15420587360858917,1.009418249130249,0.5974019765853882,-0.6625593304634094,-0.47393345832824707,0.04727064445614815,0.3061103820800781,0.20777198090311413,-0.32962762975436394,-0.074050598382418,-0.06691266210490318,0.046984437410149446,0.10382167464106419,1.0064462680015847,0.7052969312541929,-0.6893474311833004,-0.4007754352907373,0.03943660785593482,0.0798318526954963,0.30841174721717834,-0.36649850010871887,-0.8462017774581909,0.6948039531707764,-0.6078669428825378,1.2244415283203125,0.06990141421556473,-0.13647212088108063,0.528592586517334,1.5188363790512085,-0.9851186275482178,0.1890825778245926
0.52,0.20943032205104828,-0.27020490169525146,-0.05419211834669113,-0.1870902180671692,0.025326618924736977,0.14656731486320496,0.9681292772293091,0.6543431282043457,-0.625811755657196,-0.4408952593803406,0.051528505980968475,0.3425414264202118,0.20460598610671166,-0.30884033880168604,-0.0805975040796013,-0.06110059589958846,0.03582228794991307,0.10476826233598975,0.987992837538331,0.7058717846723724,-0.6642346888024568,-0.41710763046605615,0.04443174278202119,0.07280497378564979,0.2931346297264099,-0.3741804361343384,-0.7004098296165466,0.8086861968040466,-0.5417905449867249,1.3701657056808472,0.05065323784947395,-0.10838423669338226,0.5788606405258179,1.4362585544586182,-0.9116235375404358,0.2061140239238739
0.54,0.19387184083461761,-0.24660007655620575,-0.0308503620326519,-0.18694506585597992,0.010263175703585148,0.12811093032360077,0.8842470645904541,0.6923227310180664,-0.5920875072479248,-0.377321720123291,0.040882620960474014,0.32033154368400574,0.19540122813438657,-0.28680822759936875,-0.08345807017096697,-0.05664124000824233,0.023906974422795126,0.10090704902267608,0.9465868034648848,0.712717655855565,-0.6309060144375493,-0.43769491522764903,0.04564830514194297,0.0852678718948931,0.25622186064720154,-0.37389013171195984,-0.6532001495361328,0.8846454620361328,-0.41464343667030334,1.281326174736023,0.020526351407170296,-0.0617007240653038,0.5477436780929565,1.2684941291809082,-0.8441749811172485,0.16353048384189606
0.56,0.143256276845932,-0.24316133558750153,-0.03196985274553299,-0.15408220887184143,-6.783287972211838e-05,0.10754784196615219,0.7633797526359558,0.7460820078849792,-0.5792646408081055,-0.245848149061203,0.03450222685933113,0.24174685776233673,0.17580751731214753,-0.2656806506026745,-0.08228290002031526,-0.054322879147846226,0.013062928572866065,0.09650419324434373,0.8710200179901645,0.729283518467244,-0.6025021927818438,-0.4643803812018814,0.04236129150629717,0.09744389250913235,0.21509568393230438,-0.30816441774368286,-0.6463226675987244,0.9921640157699585,-0.15169629454612732,0.9669874310493469,-0.00013566575944423676,-0.06393970549106598,0.4465125501155853,1.0267595052719116,-0.8185292482376099,0.13800890743732452
0.58,0.10759089887142181,-0.2294730693101883,-0.04982061684131622,-0.09630056470632553,-0.002894330769777298,0.07847277820110321,0.6334133744239807,0.8395309448242188,-0.6186683773994446,-0.031013650819659233,0.022684095427393913,0.10217602550983429,0.1449706046203307,-0.2527385200073045,-0.07343796455271856,-0.05085711394051205,0.0035835314682330097,0.07847049075134539,0.770584208271998,0.7683933389267795,-0.5980908659736518,-0.48027073197513703,0.03499651122973203,0.06521300692669008,0.15694555640220642,-0.19260112941265106,-0.6189461350440979,1.1790618896484375,0.2779726982116699,0.40870410203933716,-0.005788661539554596,-0.09964123368263245,0.37518179416656494,0.7668267488479614,-0.8973367214202881,0.09073638170957565
0.6,0.14579501748085022,-0.20441950857639313,-0.028576605021953583,-0.02378808706998825,-0.0033524204045534134,0.045132461935281754,0.5712782144546509,0.9547423720359802,-0.6559224128723145,0.1368177980184555,-0.033153560012578964,-0.024276208132505417,0.1235935008312501,-0.2543265750210389,-0.04698883033552392,-0.034056477790583635,-0.004510061326243873,0.048808117215461196,0.685513373664907,0.8301310062411469,-0.6173905458195522,-0.4805144122126405,0.01056248120906814,-0.011359743096380935,0.09026492387056351,-0.0475761741399765,-0.5688390135765076,1.4094847440719604,0.6136355996131897,-0.09710483253002167,-0.006704840809106827,-0.057153210043907166,0.45159003138542175,0.642556369304657,-0.9718448519706726,-0.13261424005031586
0.62,0.1879754215478897,-0.22570134699344635,0.060587093234062195,0.03217824548482895,-0.018338613212108612,0.027569223195314407,0.5725114345550537,1.0454347133636475,-0.6895384788513184,0.11686669290065765,-0.12203992903232574,-0.048852141946554184,0.12023038619392944,-0.2701356022069391,-0.01556312764440936,-0.009440789925428749,0.007607688969420473,0.031703533343095384,0.7020737215635894,0.9016160846241197,-0.5519618145937947,-0.4770747260781777,-0.029505481202429185,-0.04930542621910192,0.055138446390628815,0.0643564909696579,-0.611402690410614,1.590869426727295,0.573733389377594,-0.19540856778621674,-0.036677226424217224,0.12117418646812439,0.5359508395195007,0.6450228691101074,-1.0390769243240356,-0.488159716129303
0.64,0.12507349252700806,-0.2866097688674927,0.09621414542198181,0.018032293766736984,-0.02217121794819832,0.05928877741098404,0.611389696598053,1.1270536184310913,-0.5397195816040039,0.05778777599334717,-0.2503718137741089,-0.07079357653856277,0.10433645319362764,-0.29463941587900166,-0.0002757013871261907,0.00983481003042133,0.01128925530259313,0.04563846092715088,0.707900452204709,0.9805199133604601,-0.5722198904823927,-0.4480263836091437,-0.03122916296229017,-0.05616904693115453,0.11857755482196808,0.03606458753347397,-0.733219563961029,1.7541072368621826,0.455575555562973,-0.2831743061542511,-0.04434243589639664,0.19242829084396362,0.4101469814777374,0.722779393196106,-0.7394391894340515,-1.0014872550964355
0.66,0.07344669103622437,-0.3856501579284668,0.14627261459827423,0.037927672266960144,-0.005443998612463474,0.07625100016593933,0.6671454906463623,1.2364280223846436,-0.3807760775089264,-0.42556002736091614,-0.3740886449813843,-0.07227049022912979,0.09306837160842593,-0.33054982704686897,0.01058403856587342,0.028423963697337358,0.01478682191569095,0.0653669007364461,0.7087220967058674,1.0822690854183592,-0.5887535457785525,-0.4275908171546332,-0.059720109396885886,-0.06414744712817619,0.15250200033187866,0.07585534453392029,-0.9313003420829773,1.9728561639785767,-0.511120080947876,-0.28908196091651917,-0.010887997224926949,0.29254522919654846,0.30689337849617004,0.8342909812927246,-0.4215521514415741,-1.496354579925537
0.68,0.025720907375216484,-0.44633057713508606,0.1578942984342575,-0.009343622252345085,0.024022633209824562,0.09684167057275772,0.7264049053192139,1.2703282833099365,-0.055553093552589417,-0.6930181980133057,-0.36193180084228516,-0.007820894941687584,0.08164581383898492,-0.3627382479893513,0.01694222731218148,0.03796485188676585,0.028540572929601125,0.07945213127239366,0.7114732265623246,1.169579669882802,-0.6042109632507141,-0.5035086540736036,-0.10647410922635071,-0.049135097654422144,0.19368334114551544,-0.01868724450469017,-1.0526611804962158,2.040656566619873,-1.0460363626480103,-0.031283579766750336,0.048045266419649124,0.315788596868515,0.21144181489944458,0.9528098702430725,0.22889381647109985,-1.4477272033691406
0.7000000000000001,0.043587297201156616,-0.47349706292152405,0.11516009271144867,-0.009214106947183609,0.05171262472867966,0.11481671780347824,0.7826045751571655,1.2730745077133179,0.22846625745296478,-0.7515965700149536,-0.2903698980808258,-0.020007891580462456,0.08238177285779356,-0.3931469740067725,0.01712998254977948,0.03171440413821278,0.054959895252060784,0.09621064467602837,0.728359919636876,1.2219886980707224,-0.597686501860033,-0.6180443367128773,-0.11901514536508327,-0.032555580816968015,0.22963343560695648,-0.018428213894367218,-1.1069941520690918,2.0461490154266357,-1.1631931066513062,-0.08003156632184982,0.10342524945735931,0.23032018542289734,0.24717459082603455,1.065209150314331,0.7969325184822083,-1.1614795923233032
0.72,0.026009036228060722,-0.5224815011024475,0.09498625993728638,-0.0075731538236141205,0.06650348752737045,0.12270595133304596,0.8459046483039856,1.2010669708251953,0.4266902506351471,-0.8066207766532898,-0.24830560386180878,-0.020134110003709793,0.09075213843670304,-0.4165854932618855,0.010945704165051258,0.015335941536632007,0.0749990578674998,0.11688897425829123,0.759143444906259,1.2258423880468423,-0.5700119504205529,-0.7109753197922801,-0.10266953433005309,-0.024808630964033608,0.24541190266609192,-0.015146307647228241,-1.204962968826294,1.902133822441101,-1.2732415199279785,-0.08053644001483917,0.1330069750547409,0.18997251987457275,0.21201807260513306,1.1918092966079712,1.1933804750442505,-0.9932224154472351
0.74,0.06084464490413666,-0.5284249186515808,0.10099852830171585,-0.03608635067939758,0.07379478961229324,0.12889641523361206,0.9224172830581665,1.0635950565338135,0.5649034380912781,-0.7827469110488892,-0.1677100509405136,-0.02893669158220291,0.10977738196709588,-0.43316150230030664,0.0052029748658084605,-0.004782859493971081,0.08457424501556174,0.1276890065768011,0.8084234690832206,1.1691327533704547,-0.5303436783051132,-0.758626172143043,-0.08144182201891181,-0.02413036993078767,0.2577928304672241,-0.07217270135879517,-1.2168498039245605,1.627190113067627,-1.2254937887191772,-0.11574676632881165,0.1475895792245865,0.2019970566034317,0.28168928623199463,1.344834566116333,1.4698069095611572,-0.6708402037620544
0.76,0.13295331597328186,-0.5093497633934021,0.09235619753599167,-0.04561956599354744,0.0667174682021141,0.11664307117462158,0.9851928949356079,0.8834503293037415,0.5945536494255066,-0.6820120811462402,-0.03315361961722374,-0.053840551525354385,0.1424295084741037,-0.44304042737091937,0.002557325967068625,-0.02688414304478351,0.0829762048450186,0.1239815319964599,0.8733771375507943,1.054695813119774,-0.4739419736446701,-0.7430420586673889,-0.04001013660758473,-0.03369380500199504,0.23328614234924316,-0.09123913198709488,-1.1786994934082031,1.266900658607483,-1.0240241289138794,-0.21536220610141754,0.1334349364042282,0.18471239507198334,0.42590662837028503,1.4703857898712158,1.5291073322296143,-0.13261447846889496
0.78,0.22173689305782318,-0.45564451813697815,0.03447210043668747,-0.0330580472946167,0.06501372158527374,0.09503874182701111,1.0754830837249756,0.723646879196167,0.21158467233181,-0.4574323892593384,0.0578409768640995,-0.07588881999254227,0.18341719453821234,-0.44233977009371045,0.003121941897628804,-0.04508534187720324,0.07408802704149008,0.10961781461212446,0.9547832660050803,0.9117533476828785,-0.4067307290119794,-0.6414555001786199,0.010729703051466952,-0.050675971680141436,0.19007748365402222,-0.0661160945892334,-1.0712890625,0.9472938179969788,-0.5748648047447205,-0.30355527997016907,0.13002744317054749,0.06894420087337494,0.6034737825393677,1.6509660482406616,0.7631693482398987,0.231363907456398
0.8,0.32257312536239624,-0.39442262053489685,-0.06812451779842377,-0.04062764346599579,0.056647539138793945,0.09383324533700943,1.141794204711914,0.6869903206825256,-0.5964587330818176,-0.39964497089385986,0.06240164861083031,-0.0032264709006994963,0.22465684513903345,-0.44086558138570703,-0.008004738018761429,-0.061587701394323784,0.05544417581810513,0.10209603350886609,1.0417128758181908,0.8013004794161587,-0.4381820480753183,-0.5238634978899159,0.04167255690888787,-0.04129440009447482,0.18766649067401886,-0.08125528693199158,-0.9488452672958374,0.8739806413650513,-0.4592899680137634,-0.012905883602797985,0.11329507827758789,-0.13624903559684753,0.8051462769508362,1.7835882902145386,-0.8529174327850342,0.24960659444332123
0.8200000000000001,0.3191935122013092,-0.4078861474990845,-0.08111448585987091,-0.10916893184185028,0.04746806621551514,0.1055416390299797,1.1711516380310059,0.6672874093055725,-0.7582958936691284,-0.5514771938323975,0.05206284299492836,0.2865593433380127,0.2550606555786076,-0.43779310006503397,-0.03335142475968248,-0.08378645482285463,0.04446088367204564,0.10451895696347671,1.104769982869531,0.7344993804274184,-0.5635792881691,-0.49634480013388255,0.05153173424506049,0.06946563343701342,0.2110832780599594,-0.21833786368370056,-0.9757723212242126,0.834574818611145,-0.7629543542861938,1.1462373733520508,0.09493613243103027,-0.16222897171974182,0.7983870506286621,1.8423033952713013,-1.1765917539596558,0.20825137197971344
0.84,0.2786296308040619,-0.41497373580932617,-0.09919600933790207,-0.13121244311332703,0.04120036959648132,0.1092790737748146,1.1560570001602173,0.6039140820503235,-0.7105858325958252,-0.5036269426345825,0.0602186918258667,0.3119804263114929,0.26871534746172476,-0.4240580610516089,-0.05250462222322805,-0.09647897441533253,0.03679129637716075,0.106336525136867,1.1324619414673964,0.7246121962228436,-0.6565208169202723,-0.4110223047967595,0.055246322886107244,0.1323627364787463,0.2185581475496292,-0.26242488622665405,-0.989947497844696,0.707828164100647,-0.6672539114952087,1.2479217052459717,0.08240073919296265,-0.19839201867580414,0.7172592878341675,1.8121140003204346,-1.0811716318130493,0.2408747673034668
0.86,0.275421679019928,-0.42251721024513245,-0.09274710714817047,-0.16338765621185303,0.04424411430954933,0.1267133355140686,1.1735289096832275,0.6177945137023926,-0.7022925615310669,-0.5506287813186646,0.02547217160463333,0.33426743745803833,0.2846564251160475,-0.4091685293244478,-0.06019273319340587,-0.09620293160511084,0.034864846578320306,0.10490742681930351,1.1427074608724712,0.7294575828015186,-0.6926148948383785,-0.321212758815547,0.046487404984437375,0.13143010822193837,0.2534266710281372,-0.32677531242370605,-1.0050344467163086,0.7355890870094299,-0.7612575888633728,1.3370697498321533,0.08848822861909866,-0.18549421429634094,0.7108433842658997,1.8470577001571655,-1.0645850896835327,0.10188868641853333
0.88,0.26911500096321106,-0.39327284693717957,-0.06946738064289093,-0.18830010294914246,0.028334788978099823,0.14216117560863495,1.1627838611602783,0.6278160810470581,-0.6938189268112183,-0.5051523447036743,0.052989568561315536,0.34817126393318176,0.29013783357908607,-0.3899915626252813,-0.0628791166185588,-0.09042972769447492,0.032574616459035075,0.0992939340320152,1.1435564128742297,0.7401408093113078,-0.6997349487884211,-0.33757105785934033,0.04405032070875002,0.10538359336027209,0.2843223512172699,-0.3766002058982849,-0.9465457201004028,0.755632221698761,-0.6703046560287476,1.392685055732727,0.056669577956199646,-0.13893476128578186,0.6982300281524658,1.825567603111267,-1.0476378202438354,0.21195827424526215
0.9,0.29865577816963196,-0.345833957195282,-0.01804438978433609,-0.2077322006225586,0.0008600428700447083,0.13815686106681824,1.115854263305664,0.6592816710472107,-0.6477736830711365,-0.4743255078792572,0.060518961399793625,0.38036876916885376,0.29368821151845137,-0.3705615326825263,-0.06338450439173303,-0.08026340178626773,0.018885395017925154,0.0925447649002438,1.1297211247215764,0.7402126237650319,-0.6833210262506915,-0.3568262405873301,0.05070187045085642,0.09944837680867154,0.2763137221336365,-0.4154644012451172,-0.8516679406166077,0.8185633420944214,-0.6086510419845581,1.521475076675415,0.0017200857400894165,-0.03608877956867218,0.7573115825653076,1.7317085266113281,-0.9555473923683167,0.2420758455991745
0.92,0.29482537508010864,-0.3039453625679016,0.01570112630724907,-0.20914901793003082,-0.01729743555188179,0.12166806310415268,1.0423059463500977,0.7051620483398438,-0.6062259078025818,-0.38709431886672974,0.04754601791501045,0.3691022992134094,0.28875890578597996,-0.3479526746642861,-0.05900912656099566,-0.07038555777257549,0.0025399578718468636,0.08320970603652747,1.0935719695615334,0.7428572781465539,-0.6505438024928738,-0.3775008784737749,0.05287898189497949,0.11517536628977965,0.24333612620830536,-0.41829803586006165,-0.7678907513618469,0.9103240966796875,-0.4341886341571808,1.4764091968536377,-0.03459487110376358,0.03140225261449814,0.749650776386261,1.5846120119094849,-0.8724517822265625,0.1901840716600418
0.9400000000000001,0.2626534402370453,-0.2834407389163971,0.024727536365389824,-0.18424712121486664,-0.028640318661928177,0.10079432278871536,0.915524959564209,0.7455202341079712,-0.5922950506210327,-0.2997909188270569,0.043667785823345184,0.2957606911659241,0.2731954009888156,-0.32491098591889067,-0.050497432690137616,-0.06482373383747997,-0.010724272927719554,0.07472508556091181,1.0217530388421647,0.7523486375314924,-0.6192389576266649,-0.4025952729710997,0.05040647032342978,0.12860340455611036,0.20158864557743073,-0.3684942424297333,-0.7268815040588379,0.9910404682159424,-0.2595818340778351,1.1830427646636963,-0.057280637323856354,0.04945507273077965,0.6853069067001343,1.331049919128418,-0.8445900678634644,0.17467114329338074
0.96,0.2270243614912033,-0.26959726214408875,0.011211030185222626,-0.11932291090488434,-0.03205180913209915,0.07455208897590637,0.7647201418876648,0.814906656742096,-0.5995289087295532,-0.16592420637607574,0.04577728360891342,0.18257826566696167,0.24837267539846458,-0.30665336109595315,-0.036853647425633206,-0.06106564325694914,-0.021564052738836555,0.0661836565035916,0.9157559912434468,0.7738313872742345,-0.6026307123029748,-0.43019244138847473,0.04830962256876589,0.12077320545497873,0.14910417795181274,-0.23864582180976868,-0.6991945505142212,1.129813313484192,0.0081515833735466,0.7303130626678467,-0.0641036182641983,0.02242206037044525,0.6140487194061279,1.0294402837753296,-0.8590578436851501,0.1831091344356537
0.98,0.22329403460025787,-0.24897007644176483,0.01289769634604454,-0.04248543456196785,-0.0362422950565815,0.040648285299539566,0.6573653221130371,0.9166398048400879,-0.6859709620475769,0.00835593231022358,0.017822204157710075,0.05118304863572121,0.2230165358602631,-0.2978752482887999,-0.01047441445386702,-0.050816448486140156,-0.030069626919679883,0.04388016648963681,0.8142791403447169,0.8182673106467168,-0.6140122638204291,-0.4428958128160509,0.033857495173419155,0.06756006551862331,0.08129657059907913,-0.0849708691239357,-0.657940149307251,1.3332796096801758,0.35671186447143555,0.20473219454288483,-0.072484590113163,0.02579539269208908,0.6065880656242371,0.814730703830719,-1.0319418907165527,0.0712888166308403
1.0,0.2361026555299759,-0.26339995861053467,0.0626261904835701,-0.00481083057820797,-0.05213366821408272,0.041535452008247375,0.6130630373954773,1.0262691974639893,-0.7571286559104919,0.050002485513687134,-0.05543658882379532,-0.0009436551481485367,0.20300918909260915,-0.306123080262444,0.0069948851601426805,-0.04409999271197533,-0.0089743139505754,0.037177126920476276,0.8091447916595322,0.8841234556890561,-0.5581077758098517,-0.43874633796781337,-0.021439810649966348,-0.0022826558424904235,0.08307090401649475,-0.00962166115641594,-0.686799943447113,1.552538514137268,0.44000497460365295,-0.0037746205925941467,-0.10426733642816544,0.1252523809671402,0.6322053074836731,0.7261260747909546,-1.1742572784423828,-0.22174635529518127
1.02,0.1753956824541092,-0.30281779170036316,0.07146670669317245,0.008637901395559311,-0.0339883416891098,0.05872727185487747,0.7040877342224121,1.1108684539794922,-0.5528168082237244,0.13249053061008453,-0.15507979691028595,-0.08188039064407349,0.17397652129248317,-0.32206675711517185,0.01580513235124422,-0.03476774212078244,-0.004348870829394072,0.05239885607475971,0.8041789220188338,0.9612293554586834,-0.5750094303843967,-0.4112471754577498,-0.021791910593519804,-0.057947250203230175,0.11745454370975494,0.017275802791118622,-0.76563560962677,1.721737027168274,0.6049810647964478,-0.32752156257629395,-0.0679766833782196,0.1429334133863449,0.5107913613319397,0.9081754684448242,-0.7656336426734924,-0.6203191876411438
1.04,0.14237277209758759,-0.38657018542289734,0.12069353461265564,0.037460170686244965,-0.019664715975522995,0.07529918849468231,0.7352844476699829,1.2127368450164795,-0.4353143572807312,-0.2819109559059143,-0.29161787033081055,-0.0675879418849945,0.15516254758612957,-0.35323255377633134,0.029415603471674996,-0.014000205924770866,-0.0006119232884339914,0.0725358980932001,0.8005141203448707,1.0587991360201798,-0.5919538239247478,-0.3704229614617179,-0.03635061896215071,-0.07646164337102766,0.15059837698936462,0.07492034137248993,-0.9331403970718384,1.925473690032959,-0.22382190823554993,-0.270351767539978,-0.03932943195104599,0.24138706922531128,0.4447455406188965,0.9705689549446106,-0.5306287407875061,-1.1664714813232422
1.06,0.09337446093559265,-0.45608505606651306,0.1572524756193161,-0.003289114683866501,0.006916246842592955,0.0946827232837677,0.7838495373725891,1.2792291641235352,-0.14141422510147095,-0.6753256916999817,-0.34683358669281006,-0.005482381675392389,0.13894839890148636,-0.386570893123276,0.03737421363314617,0.00302717760352448,0.008980334379664195,0.08732625931490555,0.7980971879815267,1.1558186678958213,-0.6099262702040017,-0.44455695153032887,-0.07613241594923818,-0.05504277858743831,0.1893654465675354,-0.006578229367733002,-1.0721701383590698,2.0584583282470703,-1.0106513500213623,-0.021929526701569557,0.01383249368518591,0.3145049512386322,0.3467489182949066,1.0676990747451782,0.05717156082391739,-1.3873343467712402
1.08,0.11167719960212708,-0.4805528223514557,0.13330894708633423,-0.025437282398343086,0.03327881544828415,0.11934971809387207,0.835811197757721,1.2824422121047974,0.14704667031764984,-0.7506256699562073,-0.2817816734313965,-0.013645408675074577,0.13604345119220254,-0.41773330536238173,0.03943887849302888,0.006493232401346523,0.035184639796351266,0.10121946538790004,0.8088486474488278,1.2179931359535763,-0.607620159726202,-0.5831015984842437,-0.09625080274956288,-0.03228202512398356,0.23869943618774414,-0.05087456479668617,-1.121105670928955,2.0648844242095947,-1.1612513065338135,-0.05458163470029831,0.0665576308965683,0.26661789417266846,0.38335439562797546,1.171622395515442,0.6340933442115784,-1.127126693725586
1.1,0.07743057608604431,-0.5366266369819641,0.11865369975566864,-0.019579315558075905,0.048079658299684525,0.1278308928012848,0.9004815816879272,1.2225418090820312,0.3700611889362335,-0.800229549407959,-0.25244176387786865,-0.015299564227461815,0.14059228851517422,-0.4397508110389541,0.03405608419253654,-0.0011147085671290749,0.058956124204798635,0.11980269688620354,0.8332187322287565,1.2321465717808702,-0.5826330279404466,-0.693920898924677,-0.09009067568787586,-0.021494964060796234,0.2556617856025696,-0.03915863111615181,-1.2332532405853271,1.945083737373352,-1.260459065437317,-0.06119825690984726,0.09615931659936905,0.23730739951133728,0.31486114859580994,1.3009631633758545,1.0801223516464233,-1.0097670555114746
1.12,0.09757652878761292,-0.5474545955657959,0.12723194062709808,-0.048193059861660004,0.05833100527524948,0.13595212996006012,0.9785848259925842,1.0825531482696533,0.5177022218704224,-0.7745399475097656,-0.17803284525871277,-0.02244654670357704,0.15558980515179738,-0.4531368994216158,0.027783847166925734,-0.014086802497265639,0.07275316082050981,0.13086148327095778,0.8767662739968289,1.1828380661749975,-0.5423554305369855,-0.7486992759421472,-0.0753844057715821,-0.019389813410917892,0.27190425992012024,-0.09638611972332001,-1.2549091577529907,1.6651064157485962,-1.2090798616409302,-0.08978618681430817,0.11666201055049896,0.25446388125419617,0.35515305399894714,1.4571696519851685,1.3754044771194458,-0.7121313810348511
1.1400000000000001,0.1657058149576187,-0.5251259803771973,0.11689580976963043,-0.06006398797035217,0.05366680771112442,0.12235507369041443,1.0421184301376343,0.8874455094337463,0.5473175644874573,-0.6686623096466064,-0.038449112325906754,-0.04932496324181557,0.18558484029618935,-0.4583535511765989,0.023762297650434142,-0.03202911944787712,0.07358725937965205,0.1266108516634265,0.9377047559294815,1.0671649328382062,-0.4827801332204612,-0.7333296250749196,-0.036388108703183805,-0.02877387950379273,0.24471014738082886,-0.12012797594070435,-1.2102519273757935,1.2748910188674927,-0.9973245859146118,-0.19729985296726227,0.10733361542224884,0.23379161953926086,0.49141162633895874,1.5842368602752686,1.4346351623535156,-0.15379644930362701
1.16,0.25928303599357605,-0.4594474136829376,0.037482962012290955,-0.03936128318309784,0.05529646947979927,0.09640852361917496,1.1364479064941406,0.7225601077079773,0.13743247091770172,-0.4165010452270508,0.06067795306444168,-0.0711870864033699,0.22469779287290112,-0.4523111375704875,0.021434060799706122,-0.04892673197526501,0.0644315275630577,0.11058476963182007,1.0167614548956772,0.9193701760896414,-0.4116984222918879,-0.6217054284755286,0.013704342071707547,-0.045997020341147304,0.19281704723834991,-0.07872256636619568,-1.078894853591919,0.9451202154159546,-0.4930020868778229,-0.2847483456134796,0.11059293895959854,0.07496592402458191,0.6785660982131958,1.7728959321975708,0.6148649454116821,0.24271181225776672
1.18,0.3550640940666199,-0.39782148599624634,-0.07081381976604462,-0.0492389053106308,0.044564928859472275,0.09222650527954102,1.185542345046997,0.6936348676681519,-0.6534727811813354,-0.4095626771450043,0.054412633180618286,0.024589193984866142,0.2629812555564489,-0.44712162981562453,0.0028211004034355714,-0.06777900876764624,0.043955418983391135,0.10126872964787244,1.0967998047409253,0.808010548453674,-0.45788523446019463,-0.5085894047140276,0.04151940172830524,-0.02936367199241975,0.18445301055908203,-0.0984778106212616,-0.9556429982185364,0.8872697949409485,-0.47912535071372986,0.09835677593946457,0.08912985771894455,-0.14162763953208923,0.8701282143592834,1.8710848093032837,-0.9669455885887146,0.21765053272247314
1.2,0.3436725437641144,-0.4190506339073181,-0.0799802616238594,-0.1164868026971817,0.03620800003409386,0.10087186843156815,1.2134875059127808,0.6547397375106812,-0.751787543296814,-0.5571659207344055,0.05295462906360626,0.3116365075111389,0.29141991918953547,-0.4419469213758192,-0.028228267763537773,-0.09107628829047747,0.03357295226297113,0.10131953252197194,1.1530092718593397,0.7351838688136477,-0.5835461760000515,-0.4917123844586033,0.05013664562953192,0.08894434836655203,0.2017437368631363,-0.2329736053943634,-0.9981012940406799,0.8094794154167175,-0.77433180809021,1.2465460300445557,0.07241600006818771,-0.1599605232477188,0.8473451137542725,1.9269750118255615,-1.1635750532150269,0.21181851625442505
1.22,0.3076920211315155,-0.4106939435005188,-0.09958972036838531,-0.1372137814760208,0.030487429350614548,0.10423962026834488,1.192915439605713,0.5880358219146729,-0.7071418762207031,-0.5115597248077393,0.06401464343070984,0.31159400939941406,0.30396592574377784,-0.4222780748526824,-0.04512930028898936,-0.09797333644667788,0.0217471952225431,0.10267903453433733,1.1747462115637979,0.7326099655864806,-0.6652960688732785,-0.3729620316243805,0.05542319965554056,0.1221894906568531,0.20847924053668976,-0.2744275629520416,-0.9813879132270813,0.6760717034339905,-0.6831194758415222,1.2463760375976562,0.060974858701229095,-0.19917944073677063,0.7753840684890747,1.8858309984207153,-1.0742837190628052,0.25605857372283936
1.24,0.29288437962532043,-0.422101229429245,-0.0730704516172409,-0.1649090051651001,0.029192626476287842,0.11520018428564072,1.219515085220337,0.6244202256202698,-0.7042034864425659,-0.5384149551391602,0.026820842176675797,0.34993067383766174,0.31648435394253815,-0.40429451356494395,-0.051556620096516265,-0.0964274175531598,0.02191934317152489,0.09643594138040464,1.1840675743492124,0.7344983685590951,-0.6960732807548571,-0.30259024747923363,0.047794671994145214,0.126709586820425,0.23040036857128143,-0.3298180103302002,-1.0042024850845337,0.7488404512405396,-0.7368298768997192,1.399722695350647,0.058385252952575684,-0.1461409032344818,0.7457687854766846,1.9390300512313843,-1.0684069395065308,0.10728336870670319
1.26,0.3137068450450897,-0.3927628695964813,-0.024821802973747253,-0.19775767624378204,-0.00499739870429039,0.12667393684387207,1.1947643756866455,0.6189453601837158,-0.6807302832603455,-0.4797881841659546,0.06967945396900177,0.3518869876861572,0.3262242074688573,-0.387055025478395,-0.0503100862922058,-0.08675862158676809,0.011385497765406311,0.08494969847120899,1.1831004296271213,0.7364006787156884,-0.6971628337434551,-0.32496981798628966,0.05084788175523163,0.1084624353043909,0.25334787368774414,-0.3955153524875641,-0.9455257654190063,0.7378907203674316,-0.6195763945579529,1.407547950744629,-0.00999479740858078,-0.04964360594749451,0.7874137163162231,1.8895288705825806,-1.0214605331420898,0.2787178158760071
1.28,0.33438581228256226,-0.32870861887931824,0.010743595659732819,-0.20201492309570312,-0.025384798645973206,0.1147824078798294,1.1674447059631348,0.6755460500717163,-0.645446240901947,-0.40475431084632874,0.05585649237036705,0.38004061579704285,0.3274116061833797,-0.36519115690441795,-0.04634764060493437,-0.07433182574470651,-0.0065719336135235,0.07428037686622128,1.172847397366166,0.7341792528817005,-0.6784642765517764,-0.3435097337822147,0.056193808221033245,0.11163447744982023,0.2295648157596588,-0.40402984619140625,-0.8174172639846802,0.8510921001434326,-0.4695086181163788,1.5201624631881714,-0.05076959729194641,0.021487191319465637,0.8287716507911682,1.8348894119262695,-0.9508925080299377,0.2234259694814682
1.3,0.33069315552711487,-0.29197022318840027,0.038287825882434845,-0.20136579871177673,-0.043304264545440674,0.09731144458055496,1.0870327949523926,0.7012442350387573,-0.6261522769927979,-0.3461276888847351,0.04353505000472069,0.342544823884964,0.32108081468795824,-0.34165667684258627,-0.038877185534533225,-0.065108160843166,-0.02346735450088092,0.06257474405429393,1.1389820388918264,0.7361354909143094,-0.6532244838693224,-0.36465275540622394,0.05362630428392214,0.12353437112212577,0.19462288916110992,-0.40273159742355347,-0.7439404726028442,0.9024884700775146,-0.35225537419319153,1.370179295539856,-0.08660852909088135,0.07657565176486969,0.8213863372802734,1.6740657091140747,-0.9123045802116394,0.17414020001888275
1.32,0.2971165180206299,-0.2699638903141022,0.040994398295879364,-0.1714756190776825,-0.05463987961411476,0.07717247307300568,0.964931309223175,0.7336163520812988,-0.6109390258789062,-0.2587457597255707,0.04179133102297783,0.27760040760040283,0.3046900488638613,-0.31733766698852517,-0.02792819777426773,-0.06052255416618738,-0.03740524093339991,0.05247913944140459,1.0687977382023506,0.7427342266039857,-0.6306677125994791,-0.3890079361535112,0.048906389648297056,0.12646845758297662,0.15434494614601135,-0.342951238155365,-0.699927806854248,0.9672327041625977,-0.17749154567718506,1.1104016304016113,-0.10927975922822952,0.08198879659175873,0.7542330622673035,1.42986261844635,-0.8818780779838562,0.16716532409191132
1.34,0.264952689409256,-0.25181642174720764,0.02951386757194996,-0.11244644224643707,-0.058893587440252304,0.054574400186538696,0.8135778903961182,0.7913575768470764,-0.6125462651252747,-0.15586762130260468,0.04663491249084473,0.18464504182338715,0.280176523865965,-0.29703040130916264,-0.013040743752308116,-0.057179112400077184,-0.049482005104893236,0.04566143790136811,0.9641480029930386,0.7585095955579874,-0.6169622748725496,-0.4178937714545192,0.04709956364678391,0.11582622570810439,0.10914880037307739,-0.22489288449287415,-0.663632869720459,1.0827151536941528,0.028264762833714485,0.7385801672935486,-0.11778717488050461,0.05902773514389992,0.6899054050445557,1.1271557807922363,-0.8850924968719482,0.1865396499633789
1.36,0.25245749950408936,-0.23477663099765778,0.03413761407136917,-0.041241180151700974,-0.06386350840330124,0.025640614330768585,0.6969852447509766,0.8835505843162537,-0.691864013671875,-0.01111830584704876,0.03285227715969086,0.07568492740392685,0.2539450878760139,-0.2858316048585497,0.012848042151069033,-0.04745461105792461,-0.06179403329326286,0.027451990733589032,0.851415795135682,0.7959787031273492,-0.6356545004350175,-0.43632589572121816,0.04241643060981757,0.07147201197734526,0.05128122866153717,-0.08248236030340195,-0.6295532584190369,1.2671011686325073,0.31776338815689087,0.3027397096157074,-0.12772701680660248,0.06827522814273834,0.6649150252342224,0.8939705491065979,-1.043727993965149,0.13140910863876343
1.3800000000000001,0.28074154257774353,-0.23348663747310638,0.09735316783189774,0.025584504008293152,-0.07436805963516235,-0.0005228963564150035,0.6640399694442749,0.969866931438446,-0.753208339214325,-0.009827150031924248,-0.024311400949954987,0.005360141862183809,0.24001519968946528,-0.2864578188517901,0.038296264052782816,-0.03767708539537804,-0.043099051530567783,0.00738114395373777,0.8535930480852074,0.8492855920509512,-0.5586256597317459,-0.4353496058995325,0.0009010100209508866,0.01139697187989013,-0.001045792712830007,0.051169008016586304,-0.6269732713699341,1.439733862876892,0.3203456997871399,0.021440567448735237,-0.1487361192703247,0.19470633566379547,0.7214831113815308,0.8280799984931946,-1.1664166450500488,-0.09724560379981995
1.4000000000000001,0.22566042840480804,-0.2533872425556183,0.07346553355455399,0.010357201099395752,-0.06731056421995163,0.031970757991075516,0.7324997186660767,1.0465354919433594,-0.5879004597663879,0.053371742367744446,-0.08469385653734207,-0.045385584235191345,0.2117767464460413,-0.2943505495746494,0.04510598839815593,-0.032010980162046704,-0.039612551703514375,0.020834930888998373,0.8511263799599923,0.9132562874425931,-0.5770450586167634,-0.41714255419519436,-0.0013055818515800871,-0.03786953682049875,0.06394151598215103,0.020714402198791504,-0.6667745113372803,1.5930709838867188,0.4467434883117676,-0.18154233694076538,-0.13462112843990326,0.14693106710910797,0.6113208532333374,0.9649993777275085,-0.8358008861541748,-0.3387754261493683
1.42,0.1684136539697647,-0.3057842254638672,0.09740696102380753,0.017381388694047928,-0.05796224996447563,0.04945533722639084,0.7698070406913757,1.1339170932769775,-0.4893154501914978,-0.04218854010105133,-0.2020571380853653,-0.05597088858485222,0.18183050170359236,-0.31069166000514387,0.05339317368225697,-0.019743167238427634,-0.03761984654296055,0.04312607227208436,0.8430580595894759,0.9910265569128013,-0.5909442070155384,-0.38587625480688026,-0.01071938969447271,-0.06238554998704254,0.09891067445278168,0.034762777388095856,-0.7715684771537781,1.7678340673446655,0.255622923374176,-0.22388355433940887,-0.11592449992895126,0.19481392204761505,0.49682730436325073,1.0396140813827515,-0.6386309266090393,-0.8082285523414612
1.44,0.13335691392421722,-0.39234673976898193,0.16092784702777863,0.025470111519098282,-0.043324921280145645,0.06689199060201645,0.7824721932411194,1.2191327810287476,-0.371663898229599,-0.4477028250694275,-0.34685781598091125,-0.053024403750896454,0.1627915901844386,-0.3419631994695897,0.06003563148742792,-0.0038503456997152313,-0.031157062101804616,0.0644613486209346,0.8392116626201086,1.0848348890758948,-0.6069658548556398,-0.3906886384531076,-0.045526982459305025,-0.06388800553785433,0.1337839812040329,0.050940223038196564,-0.9446935057640076,1.9382655620574951,-0.5554056763648987,-0.21209761500358582,-0.08664984256029129,0.32185569405555725,0.42671382427215576,1.0649443864822388,-0.4033277928829193,-1.387431263923645
1.46,0.11805319786071777,-0.43847963213920593,0.18035171926021576,-0.01856289431452751,-0.014937813393771648,0.09289626777172089,0.835818350315094,1.250460147857666,-0.03516197204589844,-0.7164561748504639,-0.35657796263694763,-0.01199281681329012,0.1516968642565293,-0.37460541973663114,0.0642276889670949,0.007150974396153037,-0.009604941559791712,0.07917256876754286,0.8398912094246259,1.1604579526876582,-0.6195565578698718,-0.49819251079459903,-0.09652636436786831,-0.046281786405679835,0.18579253554344177,-0.03712578862905502,-1.0369592905044556,2.000920295715332,-1.0929123163223267,-0.04797126725316048,-0.029875626787543297,0.3607034385204315,0.39610639214515686,1.171636700630188,0.2696760594844818,-1.4263118505477905
1.48,0.1156773567199707,-0.48071733117103577,0.14458908140659332,-0.023965397849678993,0.012145420536398888,0.11109355837106705,0.8992447853088379,1.234483242034912,0.2518409192562103,-0.7701079249382019,-0.2915763556957245,-0.014544125646352768,0.15368369978197838,-0.40295172523962763,0.06158452786784621,0.004482294063164216,0.019789203049830263,0.09587395919650903,0.855838597633228,1.2006862945689791,-0.6056540429992356,-0.6294479902411049,-0.11448727276344389,-0.029395435627825907,0.2221871167421341,-0.047930795699357986,-1.1214346885681152,1.9689666032791138,-1.2002158164978027,-0.05817650258541107,0.024290841072797775,0.28917816281318665,0.3913547098636627,1.2984895706176758,0.843681812286377,-1.166305422782898
1.5,0.10093051195144653,-0.53191077709198,0.14260634779930115,-0.033195242285728455,0.03114303946495056,0.1212729811668396,0.9764147996902466,1.1223711967468262,0.4164073169231415,-0.7842209339141846,-0.23568516969680786,-0.012232493609189987,0.16648856609973317,-0.4234042682014351,0.054934629559855994,-0.0063920232194224985,0.04524496270445603,0.11419968652807094,0.8903320312451194,1.1831017361856515,-0.5668272553879701,-0.7154270922776408,-0.09689396176180688,-0.01978228641039014,0.2425459623336792,-0.06639048457145691,-1.2238215208053589,1.7447422742843628,-1.228441834449768,-0.04892997443675995,0.06228607892990112,0.2852126955986023,0.3618610203266144,1.4528295993804932,1.1728146076202393,-0.9427406787872314
1.52,0.15261225402355194,-0.5246968269348145,0.14556258916854858,-0.06096300482749939,0.03739732503890991,0.12217962741851807,1.0523579120635986,0.9371697306632996,0.49952855706214905,-0.7056807279586792,-0.11733880639076233,-0.026391709223389626,0.19281791623029318,-0.43497736165514006,0.04930730397059573,-0.022441164731215355,0.056834457097819965,0.12001666843199724,0.944704243865864,1.0929181424594292,-0.5117538888039467,-0.732777800981846,-0.060028045897059255,-0.01936934399911336,0.24435925483703613,-0.12192600965499878,-1.2093936204910278,1.3743394613265991,-1.0713614225387573,-0.1055668368935585,0.07479465007781982,0.29112517833709717,0.4652245044708252,1.6047157049179077,1.3390570878982544,-0.4693552255630493
1.54,0.2450561672449112,-0.47208455204963684,0.0877375677227974,-0.05373210459947586,0.03972240164875984,0.09637732803821564,1.1282289028167725,0.7385789155960083,0.27480822801589966,-0.4840715229511261,0.02868642657995224,-0.059642449021339417,0.23127708472442385,-0.43536491903112895,0.0451073312683275,-0.041934832633155165,0.05410520841847333,0.10777409347628455,1.0168484720426776,0.9474199996918616,-0.4431721717840699,-0.6521303077470516,-0.0068987784681530055,-0.032671687781811516,0.19275465607643127,-0.10746420919895172,-1.1041691303253174,0.9771578311920166,-0.6281430721282959,-0.23856979608535767,0.07944480329751968,0.1754751354455948,0.6501123309135437,1.756457805633545,0.8896164298057556,0.11474570631980896
1.56,0.3564368784427643,-0.3947075307369232,-0.06104746460914612,-0.044645991176366806,0.03895609453320503,0.08558734506368637,1.2018259763717651,0.6790714859962463,-0.5617251992225647,-0.35812774300575256,0.06576117873191833,-0.008616778999567032,0.2707243169084386,-0.43298909656307694,0.024731170844784704,-0.06500908265195356,0.03609600935304741,0.09695587128246322,1.099577217166666,0.8204595102803218,-0.45192088232044597,-0.5236593935130263,0.0344620058830029,-0.030532347513059294,0.17117469012737274,-0.08929198235273361,-0.9494150876998901,0.8581429719924927,-0.37625551223754883,-0.03446711599826813,0.07791218906641006,-0.12209492921829224,0.8728737831115723,1.9036519527435303,-0.7834503650665283,0.26304471492767334
1.58,0.3572983145713806,-0.3979588449001312,-0.0807129293680191,-0.10931480675935745,0.0324849858880043,0.09639105945825577,1.214065670967102,0.6532301306724548,-0.752598226070404,-0.5544005036354065,0.03871447965502739,0.29251542687416077,0.2972131283572477,-0.42954376190537524,-0.01125311997765089,-0.09224142592310056,0.027194053889320235,0.09808650159788125,1.1576329740972935,0.7383353669207665,-0.5604649500833317,-0.4888437321452456,0.04546281985680792,0.0754222035948036,0.19278211891651154,-0.2186296135187149,-0.9559177160263062,0.8064602613449097,-0.7688010334968567,1.170061707496643,0.0649699717760086,-0.1614258587360382,0.8745966553688049,1.928131341934204,-1.165196418762207,0.15485791862010956
1.6,0.3151249885559082,-0.4072118401527405,-0.09761498868465424,-0.1347227841615677,0.026585284620523453,0.09918466210365295,1.1986280679702759,0.5772193670272827,-0.7150489687919617,-0.5436502695083618,0.060732122510671616,0.3246311545372009,0.3118384308411051,-0.41164328652729976,-0.03074968870718178,-0.09851883291089657,0.014526835457067315,0.09878431793508902,1.179283997829768,0.7384582601903948,-0.6526079854151435,-0.3589778883667154,0.04991351867796131,0.10059353365877426,0.1983693242073059,-0.2694455683231354,-0.9744237065315247,0.6544386744499207,-0.7473005652427673,1.2985246181488037,0.053170569241046906,-0.19522997736930847,0.7902500033378601,1.8972561359405518,-1.0900979042053223,0.24292849004268646
