time,cmd_L_hip_pitch,cmd_R_hip_pitch,cmd_L_hip_roll,cmd_R_hip_roll,cmd_L_hip_yaw,cmd_R_hip_yaw,cmd_L_knee,cmd_R_knee,cmd_L_foot_pitch,cmd_R_foot_pitch,cmd_L_foot_roll,cmd_R_foot_roll,pos_L_hip_pitch,pos_R_hip_pitch,pos_L_hip_roll,pos_R_hip_roll,pos_L_hip_yaw,pos_R_hip_yaw,pos_L_knee,pos_R_knee,pos_L_foot_pitch,pos_R_foot_pitch,pos_L_foot_roll,pos_R_foot_roll,act_R_hip_yaw,act_R_hip_roll,act_R_hip_pitch,act_R_knee,act_R_foot_pitch,act_R_foot_roll,act_L_hip_yaw,act_L_hip_roll,act_L_hip_pitch,act_L_knee,act_L_foot_pitch,act_L_foot_roll
0.0,0.13305509090423584,0.0062796492129564285,-0.11679502576589584,-0.13530321419239044,0.08721688389778137,0.048036277294158936,0.49515479803085327,0.5753536820411682,-0.4924463927745819,-0.052415356040000916,0.07758962363004684,0.061961475759744644,-0.02027143044051853,0.019280711882201478,-0.02653502486604659,-0.029603324093205412,0.0567250724738227,0.028255641339317815,0.3497075712397007,0.345530677019699,-0.3580678860008181,-0.31813679630005737,0.025185632371439615,0.01599564795077531,0.09607255458831787,-0.2706064283847809,-0.14744070172309875,0.6507073640823364,0.23516929149627686,0.24784590303897858,0.17443376779556274,-0.2335900515317917,0.426110178232193,0.49030962586402893,-0.6448928117752075,0.3103584945201874
0.02,0.2088378220796585,-0.08245575428009033,0.010560205206274986,-0.03389305621385574,0.05464000999927521,0.07139088958501816,0.5087321996688843,0.6300592422485352,-0.538424551486969,0.05365428328514099,-0.005974939092993736,0.02172626368701458,0.049195837793038814,-0.05380527177212718,-0.03557840446788549,-0.039844168059603086,0.06379236437704194,0.05805289318902236,0.43502677594096745,0.4336310672462147,-0.46045386698630447,-0.35947074789575734,0.027098954607502432,0.018896568226464735,0.14278177917003632,-0.06778611242771149,-0.324911504983902,0.7601184248924255,0.44730857014656067,0.08690505474805832,0.10928001999855042,0.021120410412549973,0.5776756405830383,0.5174643993377686,-0.7368490695953369,-0.023899756371974945
0.04,0.17290766537189484,-0.16534772515296936,-0.1349085122346878,-0.07143855094909668,-0.03792289271950722,0.05895606055855751,0.4896993041038513,0.6804530620574951,-0.5342944264411926,0.04015566408634186,-0.029460884630680084,0.05872221291065216,0.09294874907889449,-0.11367162026355135,-0.049472439728048795,-0.041678653136981554,-0.011670799588183439,0.06566445996638001,0.4682789032111103,0.5233807051439312,-0.5074243435028948,-0.40007410924129433,0.004060488880153941,0.00969579814762909,0.11791212111711502,-0.14287710189819336,-0.49069544672966003,0.8609060645103455,0.4203113317489624,0.23488885164260864,-0.07584578543901443,-0.2698170244693756,0.505815327167511,0.479398638010025,-0.7285888195037842,-0.11784353852272034
0.06,0.10399895906448364,-0.26950064301490784,-0.018379664048552513,-0.0228725578635931,-0.08345870673656464,0.010550388135015965,0.4206616282463074,0.7125483751296997,-0.5010024309158325,-0.08758313953876495,-0.08264385163784027,0.03081241250038147,0.11409652810339582,-0.1647435377250066,-0.04932104225080912,-0.03004057693476168,-0.06514406890608432,0.03533219664998478,0.45115882080873426,0.6108834831380476,-0.5154397825854505,-0.4331681987641303,-0.031235272531435213,0.0016375077090404026,0.02110077627003193,-0.0457451157271862,-0.6990013122558594,0.9250966906547546,0.16483372449874878,0.12324965000152588,-0.16691741347312927,-0.036759328097105026,0.3679979145526886,0.34132325649261475,-0.6620048880577087,-0.3305754065513611
0.08,0.055718645453453064,-0.33366358280181885,0.06485603004693985,-0.021809585392475128,-0.0989108756184578,-0.10008049011230469,0.36236056685447693,0.7310347557067871,-0.4336526393890381,-0.4873160421848297,-0.09829773008823395,0.008623257279396057,0.12003732796905026,-0.20712516766712574,-0.038450155020788225,-0.026392021478032855,-0.07809695252445034,-0.0560640323479891,0.42325090189047837,0.6753736666840101,-0.4253997424331671,-0.4595986986585272,-0.03475399227322697,0.0025520233013574234,-0.20016098022460938,-0.043619170784950256,-0.8273271918296814,0.962069571018219,-0.6346321105957031,0.03449302911758423,-0.1978217512369156,0.1297120600938797,0.27143728733062744,0.22472111880779266,-0.5273053050041199,-0.3931909203529358
0.1,0.10215379297733307,-0.29583895206451416,0.19713810086250305,-0.008878504857420921,-0.12149916589260101,-0.07911863178014755,0.35811251401901245,0.7409985065460205,-0.38349688053131104,-0.6014854907989502,-0.174973726272583,-0.08770780265331268,0.11906938444506382,-0.23766624176288945,-0.036501929044004754,-0.022257181381506806,-0.06593878068604869,-0.08188592996699717,0.42127815116076917,0.7026907882452245,-0.4072348666445445,-0.5078520272946453,-0.03436843844399672,-0.024858792513186453,-0.1582372635602951,-0.017757009714841843,-0.751677930355072,0.981997013092041,-0.8629709482192993,-0.35083121061325073,-0.24299833178520203,0.3942762017250061,0.36430758237838745,0.2162250131368637,-0.4269937574863434,-0.699894905090332
0.12,0.06827022135257721,-0.3125949501991272,0.24014492332935333,-0.018308723345398903,-0.10045582801103592,-0.04513384401798248,0.3863101601600647,0.7463003396987915,-0.3116404414176941,-0.604163408279419,-0.16154730319976807,-0.12567821145057678,0.10962966583501559,-0.25806080568525497,-0.017218339391348685,0.005819573089022289,-0.061195837258640015,-0.065509714598628,0.41388158798475594,0.7187152024131479,-0.40697546328961215,-0.5569234291867083,-0.02812304490180377,-0.07045558926781353,-0.09026768803596497,-0.036617446690797806,-0.7851899266242981,0.9926007390022278,-0.8683268427848816,-0.5027128458023071,-0.20091165602207184,0.48028984665870667,0.29654043912887573,0.272620290517807,-0.2832808792591095,-0.6461892127990723
0.14,0.05542449653148651,-0.31538936495780945,0.17861835658550262,-0.04669153690338135,-0.05619000270962715,-0.0038891122676432133,0.3636873960494995,0.7477536201477051,-0.3073623478412628,-0.621378481388092,-0.13350696861743927,-0.13614192605018616,0.09219467093711653,-0.2767470952977096,0.0013257533015744046,0.027454556468173727,-0.05248112877095232,-0.033317335293205456,0.39653854915926057,0.7327354590899317,-0.4032620752497877,-0.5902001911891759,-0.021204599382003708,-0.10689771375043233,-0.0077782245352864265,-0.0933830738067627,-0.7907787561416626,0.9955072999000549,-0.9027569890022278,-0.5445677042007446,-0.1123800054192543,0.35723671317100525,0.27084898948669434,0.22737479209899902,-0.27472469210624695,-0.5340278744697571
0.16,0.062436968088150024,-0.2965487539768219,0.1947232037782669,-0.007042176555842161,-0.036705486476421356,0.03674928843975067,0.34216344356536865,0.7483495473861694,-0.2984714210033417,-0.6232501268386841,-0.14870046079158783,-0.15823887288570404,0.07342781963627029,-0.29099561297187665,0.016839691048930246,0.040251627944032795,-0.042030318781320304,0.009525597783770923,0.3797347076352307,0.7364743366720792,-0.40136284588810284,-0.609183865409091,-0.014720483597484197,-0.13335777945690677,0.07349857687950134,-0.014084353111684322,-0.7530975341796875,0.9966990351676941,-0.9065002799034119,-0.6329554915428162,-0.07341097295284271,0.3894464075565338,0.28487393260002136,0.1843268871307373,-0.25694283843040466,-0.5948018431663513
0.18,0.05261634290218353,-0.29500049352645874,0.20180921256542206,0.0019703495781868696,-0.00942736305296421,0.06392162293195724,0.31690603494644165,0.7487173080444336,-0.2844191789627075,-0.6233387589454651,-0.1578216403722763,-0.15468814969062805,0.05430780984969666,-0.3022747473624755,0.03282087523209563,0.047115987526302805,-0.02895766744891986,0.04558626824407726,0.36221356981863695,0.7365328209102113,-0.4008516041509919,-0.617836224667958,-0.007338477953955255,-0.14781310595265942,0.1278432458639145,0.003940699156373739,-0.7500010132789612,0.997434675693512,-0.9066775441169739,-0.6187525987625122,-0.01885472610592842,0.4036184251308441,0.2652326822280884,0.1338120549917221,-0.22883836925029755,-0.6312865614891052
0.2,0.04382350295782089,-0.29474151134490967,0.20490407943725586,0.0090939961373806,0.01432899571955204,0.07211197167634964,0.3016767203807831,0.7488402128219604,-0.2630782723426819,-0.6241324543952942,-0.1639978587627411,-0.1488293707370758,0.03615971206373603,-0.3120005268201683,0.04966461511215137,0.048088672027167385,-0.01273653717707919,0.06348735844374534,0.34451899507759015,0.7354173993777525,-0.40252014783948803,-0.6213340691419573,0.0009748205443957978,-0.1513172049815127,0.14422394335269928,0.0181879922747612,-0.749483048915863,0.9976804256439209,-0.9082649350166321,-0.5953174829483032,0.02865799143910408,0.4098081588745117,0.2476470023393631,0.10335346311330795,-0.18615654110908508,-0.6559914350509644
0.22,0.03304705023765564,-0.300564706325531,0.1993384212255478,0.020952263846993446,0.03516538813710213,0.0657673329114914,0.30102548003196716,0.7489075660705566,-0.22912098467350006,-0.6251958608627319,-0.16654585301876068,-0.13819639384746552,0.020901352635870157,-0.32040478362391706,0.06744116735086285,0.04558622429263337,0.005475785407470976,0.06522551015561,0.3306364305541295,0.7347991943667337,-0.4079308940412002,-0.6229707744867617,0.010302495834041787,-0.14741555129711684,0.1315346658229828,0.04190452769398689,-0.7611294388771057,0.9978151917457581,-0.9103916883468628,-0.5527855753898621,0.07033077627420425,0.3986768424510956,0.2260940968990326,0.10205094516277313,-0.11824197322130203,-0.6661834120750427
0.24,0.022825753316283226,-0.30891314148902893,0.19176073372364044,0.0335528589785099,0.04815978184342384,0.047503747045993805,0.3130803108215332,0.7488201856613159,-0.19671805202960968,-0.6255851984024048,-0.16858886182308197,-0.12143179774284363,0.009827006033398691,-0.32692351847307294,0.08532188036997748,0.04120926365185554,0.022962875307217707,0.05391334167146277,0.3241815702570362,0.7351167076484129,-0.41865566810356186,-0.6238730952718766,0.01922105542034814,-0.13721884715118368,0.09500749409198761,0.0671057179570198,-0.7778263092041016,0.9976403117179871,-0.9111704230308533,-0.4857271909713745,0.09631956368684769,0.3835214674472809,0.20565150678157806,0.1261606067419052,-0.05343609303236008,-0.6743554472923279
0.26,0.009778818115592003,-0.32019928097724915,0.1947459876537323,0.0494217611849308,0.0545060858130455,0.02659727819263935,0.33728259801864624,0.748572826385498,-0.16951322555541992,-0.6231981515884399,-0.17235185205936432,-0.09338804334402084,0.002999894949487924,-0.3305742606395424,0.10305630460747553,0.03776455751274538,0.038870023598548735,0.036589277877354096,0.3272450669086994,0.7362650033385624,-0.43535775723424924,-0.6236684234851,0.023159871901415618,-0.11934741377065923,0.0531945563852787,0.0988435223698616,-0.800398588180542,0.9971456527709961,-0.9063963294029236,-0.3735521733760834,0.109012171626091,0.3894919753074646,0.17955763638019562,0.17456519603729248,0.0009735370986163616,-0.6894074082374573
0.28,-0.005560094490647316,-0.33246752619743347,0.20219725370407104,0.06356141716241837,0.05821063369512558,0.004270170349627733,0.3716411292552948,0.7479327917098999,-0.15512144565582275,-0.6165511608123779,-0.17668046057224274,-0.04806075617671013,-0.0005132739598749001,-0.3311950059140523,0.12104542619013671,0.03757925699614953,0.05255906195139342,0.01654742530978728,0.3400324843020682,0.7382814063762566,-0.45787953389325414,-0.6209173663837773,0.020527858924353003,-0.09008270985927985,0.008540340699255466,0.12712283432483673,-0.8249350786209106,0.9958656430244446,-0.8931022882461548,-0.19224302470684052,0.11642126739025116,0.4043945074081421,0.14887981116771698,0.2432822436094284,0.029757121577858925,-0.706721842288971
0.3,-0.018386388197541237,-0.3425029218196869,0.2060731202363968,0.0832887589931488,0.06056218221783638,-0.019767040386795998,0.42000579833984375,0.7461718916893005,-0.15415939688682556,-0.6031113862991333,-0.18218770623207092,0.018617672845721245,-0.0011647312291132345,-0.32921070190131346,0.13922271093305394,0.04179405234354877,0.06398055111619233,-0.005247327866588613,0.3639043170471613,0.7405757045520018,-0.4867679961306407,-0.6137179943187261,0.009714448818409703,-0.04491133695463578,-0.039534080773591995,0.1665775179862976,-0.8450058698654175,0.9923437833786011,-0.8662227392196655,0.07447069138288498,0.12112436443567276,0.4121462404727936,0.12322722375392914,0.3400116264820099,0.03168121725320816,-0.7287508249282837
0.32,-0.026093510910868645,-0.3480531573295593,0.19356273114681244,0.11616938561201096,0.06412820518016815,-0.04311508685350418,0.4877716600894928,0.7399278879165649,-0.16026262938976288,-0.5747770667076111,-0.18963754177093506,0.10047805309295654,0.0006913843093275901,-0.32516780570041476,0.15652369654644813,0.05146273458270259,0.07318513272628109,-0.026115553192262594,0.4016299155626563,0.7414348720806843,-0.5235252917827576,-0.5982305637047691,-0.013319724507981587,0.0174241254419914,-0.08623017370700836,0.2323387712240219,-0.8561063408851624,0.9798557758331299,-0.8095541000366211,0.40191221237182617,0.1282564103603363,0.3871254622936249,0.10781297832727432,0.4755433201789856,0.019474731758236885,-0.7585501670837402
0.34,-0.030045466497540474,-0.34151095151901245,0.14565759897232056,0.16522319614887238,0.07737789303064346,-0.0360867977142334,0.5742965340614319,0.7107972502708435,-0.1502889096736908,-0.5054932832717896,-0.19579918682575226,0.1627175509929657,0.0017336937128576138,-0.31871607150074494,0.16770818902651474,0.06810832329823847,0.081268340959646,-0.025128202465915087,0.4545552158946084,0.7331290988243908,-0.5649421062498965,-0.5627729505726852,-0.05114250208450024,0.08515830435622301,-0.0721735954284668,0.33044639229774475,-0.8430219292640686,0.921594500541687,-0.6709865927696228,0.6508702039718628,0.15475578606128693,0.2913151979446411,0.09990906715393066,0.6485930681228638,0.0394221730530262,-0.783196747303009
0.36,0.00018130063835997134,-0.2857939600944519,0.03361015394330025,0.1979120373725891,0.09208105504512787,0.0876087173819542,0.6659133434295654,0.5921717882156372,-0.1959220916032791,-0.30155009031295776,-0.13304775953292847,0.11533720791339874,0.004674740071306867,-0.3016570892952521,0.15833527061601357,0.08630830991900891,0.0941557594581713,0.05955483302983425,0.5278275532584975,0.6845555553107476,-0.5895717238516931,-0.4726364576966051,-0.07985468675274791,0.1155070246621353,0.1752174347639084,0.3958240747451782,-0.7315879464149475,0.6843436360359192,-0.26310020685195923,0.46134883165359497,0.18416211009025574,0.0672203078866005,0.1603626012802124,0.8318266272544861,-0.051844172179698944,-0.5321910381317139
0.38,0.16068893671035767,-0.17230941355228424,-0.19878201186656952,0.11973018944263458,0.12180397659540176,0.14524881541728973,0.7074042558670044,0.6048144102096558,-0.5701357126235962,0.054988518357276917,0.05825468897819519,-0.1997397094964981,0.025754163943873382,-0.2923676973230888,0.11937227130703919,0.07140346164289427,0.09150297468052526,0.1189948813807299,0.6100414312245821,0.6762851796435096,-0.5894514888305021,-0.5059611408458974,-0.04657452407407328,0.007102674601575583,0.29049763083457947,0.23946037888526917,-0.5046188235282898,0.7096287608146667,0.4499770402908325,-0.7989588379859924,0.24360795319080353,-0.39756402373313904,0.48137786984443665,0.914808452129364,-0.8002713918685913,0.23301875591278076
0.4,0.32945123314857483,-0.021567849442362785,-0.2565995156764984,0.15520471334457397,0.07913384586572647,-0.029246699064970016,0.7178295254707336,0.6597861051559448,-0.6147533059120178,0.06486472487449646,0.047794416546821594,-0.1730690449476242,0.07404751722903034,-0.2596790272062985,0.06651245565963036,0.055903761905584715,0.0463961998547973,0.06980255085583695,0.6815897600324214,0.6490676089505795,-0.5889538095777579,-0.5080647374060224,-0.000795688821765148,0.02603892442109987,-0.05849339812994003,0.31040942668914795,-0.20313569903373718,0.8195722699165344,0.4697294533252716,-0.6922761797904968,0.15826769173145294,-0.5131990313529968,0.8189024925231934,0.9356590509414673,-0.8895065784454346,0.19117766618728638
0.42,0.1707945019006729,-0.192831888794899,-0.08399947732686996,0.09711207449436188,0.10904481261968613,0.017452416941523552,0.6651374101638794,0.7033553123474121,-0.5747482776641846,-0.056821443140506744,0.13805954158306122,-0.05816206336021423,0.10898199717433667,-0.238276517227393,0.016045446233839335,0.05275451180780943,0.08375066928779425,0.028059529715777628,0.684912339657779,0.6511438798942117,-0.5850370298882008,-0.5073154660971154,0.054534689960956874,0.023916866923145284,0.034904833883047104,0.19422414898872375,-0.5456637740135193,0.9067105650901794,0.2263571172952652,-0.23264825344085693,0.21808962523937225,-0.16799895465373993,0.5015890002250671,0.8302748203277588,-0.8094965219497681,0.5522381663322449
0.44,0.15792880952358246,-0.2154904156923294,-0.1118341013789177,-0.03445259854197502,-0.04350201040506363,0.04833882674574852,0.672929048538208,0.6740117073059082,-0.5620476603507996,-0.19734260439872742,0.1119866892695427,0.05581994354724884,0.13903535816717608,-0.2193262690824099,-0.04853159814701606,0.05563720743840558,0.016028223563669296,0.029903876599321387,0.6812632668396778,0.6641404493692519,-0.613105074462258,-0.5159249688219495,0.07587787503758284,0.034584971780309996,0.09667765349149704,-0.06890519708395004,-0.5909808278083801,0.8480233550071716,-0.05468521639704704,0.22327977418899536,-0.08700402081012726,-0.2236682027578354,0.47585761547088623,0.8458581566810608,-0.7840953469276428,0.4479467570781708
0.46,0.12493987381458282,-0.2388862818479538,-0.004832185804843903,-0.047024209052324295,-0.05454494059085846,0.09670763462781906,0.7074310183525085,0.6359225511550903,-0.5808886289596558,-0.1640819013118744,0.15317033231258392,0.10640524327754974,0.1610213719632869,-0.19924857234651053,-0.08450882887988319,0.06806055592456876,-0.025354302481941378,0.07157449947715072,0.6861605428535829,0.6642997570326934,-0.6585602021908443,-0.5263327783697839,0.08499978896246894,0.046936866952905984,0.19341526925563812,-0.09404841810464859,-0.6377725601196289,0.7718450427055359,0.01183620560914278,0.425620973110199,-0.10908988118171692,-0.009664371609687805,0.40987974405288696,0.9148620367050171,-0.8217772841453552,0.6126813292503357
0.48,0.13625973463058472,-0.18359635770320892,-0.12823444604873657,-0.23152992129325867,-0.055986836552619934,0.11334418505430222,0.7327491044998169,0.5937091708183289,-0.6111040115356445,-0.1722181886434555,0.17954030632972717,0.1696016937494278,0.17269805140139732,-0.1698187444668915,-0.1290085376510217,0.05218533523263675,-0.051242585493539945,0.10352004173544745,0.7065954102859743,0.6480701395367666,-0.6126269536092135,-0.5606639068033565,0.09849592238932507,0.04153408833834722,0.22668837010860443,-0.46305984258651733,-0.5271927118301392,0.6874183416366577,-0.0044363741762936115,0.6784067749977112,-0.11197367310523987,-0.25646889209747314,0.43251946568489075,0.9654982686042786,-0.8822080492973328,0.7181612253189087
0.5,0.16625885665416718,-0.1092119961977005,0.029489992186427116,-0.14443930983543396,0.019938986748456955,0.09612950682640076,0.7464950084686279,0.5927314162254333,-0.6453720331192017,-0.0013639164390042424,0.16144981980323792,0.15260674059391022,0.17673958480548027,-0.1372003205797917,-0.12772767259676746,0.05297640628693706,0.009884577335198855,0.09470009333762552,0.7214375075980104,0.6334496693382629,-0.6125884808782225,-0.5732525626714569,0.13135089306927264,0.045268769713689594,0.1922590136528015,-0.2888786196708679,-0.3784239888191223,0.6854628324508667,0.33727216720581055,0.6104269623756409,0.03987797349691391,0.05897998437285423,0.49251770973205566,0.9929899573326111,-0.950744092464447,0.6457992792129517
0.52,0.19899879395961761,-0.05964399874210358,-0.12064405530691147,-0.29203829169273376,0.02583659254014492,0.1729702651500702,0.7441083192825317,0.5722760558128357,-0.6436685919761658,-0.005454106256365776,0.16206246614456177,0.20671336352825165,0.17962655560865737,-0.10992734771016234,-0.13550194356525927,0.04348671105473159,0.0359334199593954,0.09615793116687266,0.7242974108232441,0.6184173961455572,-0.6249461878471835,-0.5825833262767651,0.15084897158205796,0.05189691210913526,0.3459405303001404,-0.5840765833854675,-0.27928799390792847,0.6445521116256714,0.32909178733825684,0.8268534541130066,0.05167318508028984,-0.24128811061382294,0.5579975843429565,0.9882166385650635,-0.9473371505737305,0.6482498645782471
0.54,0.29071447253227234,0.007738934829831123,0.0034032249823212624,-0.2363816648721695,-0.038199301809072495,0.11921175569295883,0.7473684549331665,0.5726454854011536,-0.6414571404457092,-0.025250328704714775,0.08062741905450821,0.15323832631111145,0.19925405250355724,-0.08624288667757515,-0.1471874389563323,0.026749019935445636,0.006203971302594323,0.09201357741089577,0.7376311617392368,0.5883460022586475,-0.6330164928238623,-0.5836692963217851,0.1349819076397543,0.0564324902424773,0.23842351138591766,-0.472763329744339,-0.14452213048934937,0.6452909708023071,0.28949934244155884,0.6129533052444458,-0.07639860361814499,0.006806449964642525,0.7414289712905884,0.994736909866333,-0.9429143071174622,0.32250967621803284
0.56,0.29486554861068726,0.0519467331469059,-0.08702865988016129,-0.22254103422164917,-0.012760297395288944,0.12864868342876434,0.7461969256401062,0.5740740895271301,-0.6442755460739136,0.0047975946217775345,0.1400812864303589,0.14505693316459656,0.21235803915068976,-0.05648685220941535,-0.14871603210262613,0.00486023406132005,-0.002995246451319316,0.0933933314496537,0.7435291723112571,0.5638419620756251,-0.6366580607712745,-0.587034344041606,0.1272421862702365,0.06028770674276449,0.2572973668575287,-0.44508206844329834,-0.056106530129909515,0.6481481790542603,0.34959518909454346,0.5802277326583862,-0.02552059479057789,-0.17405731976032257,0.7497311234474182,0.9923938512802124,-0.9485510587692261,0.5603251457214355
0.58,0.31499677896499634,0.0636451244354248,-0.08608990907669067,-0.1395111083984375,-0.019238777458667755,0.08384134620428085,0.748319685459137,0.5344104766845703,-0.6447144746780396,-0.03712958097457886,0.1349981725215912,0.10768961161375046,0.2343840397294719,-0.026455449337973003,-0.1415520706701594,-0.01523913601217914,-0.009661142697932891,0.08682679875233502,0.7501115297925016,0.5354539540185063,-0.6390202934467164,-0.5891522688508133,0.1310988925890473,0.06406806244833241,0.1676826924085617,-0.279022216796875,-0.032709751278162,0.5688210129737854,0.26574084162712097,0.43075844645500183,-0.03847755491733551,-0.17217981815338135,0.7899935841560364,0.9966393709182739,-0.949428915977478,0.5399926900863647
0.6,0.30422136187553406,0.060023706406354904,-0.12964318692684174,-0.13417281210422516,0.02118072099983692,0.07943332195281982,0.7482954263687134,0.5282754302024841,-0.6474298238754272,-0.013109607622027397,0.16676101088523865,0.10917218774557114,0.25585379645888695,0.001681692569260501,-0.12852135324018366,-0.03407879033076138,0.007378638271055999,0.08010139871977298,0.7490945841221772,0.5163824149136367,-0.6411334195231264,-0.5964999995301719,0.14302405553065842,0.06710860580065313,0.15886664390563965,-0.2683456242084503,-0.039952583611011505,0.5565508604049683,0.3137807846069336,0.43668875098228455,0.04236144199967384,-0.25928637385368347,0.7684427499771118,0.996590793132782,-0.9548596739768982,0.6670440435409546
0.62,0.3138662576675415,0.053810253739356995,-0.12734530866146088,-0.09948886930942535,0.038205891847610474,0.061994679272174835,0.7485852241516113,0.5173149108886719,-0.6458858847618103,-0.01395694725215435,0.14867931604385376,0.09869666397571564,0.280505350547196,0.024185188944703565,-0.11526812958051802,-0.049498088767267086,0.0271222984171024,0.069933775896251,0.7472202721698036,0.5049710548173065,-0.6428092060112468,-0.6075679303555128,0.14941883210666715,0.06925134184184947,0.12398935854434967,-0.1989777386188507,-0.05237949267029762,0.5346298813819885,0.3120861053466797,0.39478665590286255,0.07641178369522095,-0.25469061732292175,0.7877325415611267,0.9971705079078674,-0.9517717957496643,0.594717264175415
0.64,0.3261145055294037,0.05773551017045975,-0.15968288481235504,-0.11169806122779846,0.04549204930663109,0.059620652347803116,0.7480557560920715,0.5240869522094727,-0.6436516642570496,-0.007306275889277458,0.1352977454662323,0.10471495240926743,0.3041870164259331,0.04273896685664737,-0.10954237731588473,-0.06462215312487217,0.034983768428546815,0.06321790483596487,0.7435272717057434,0.5014141081639042,-0.6430886643262486,-0.6245128207439831,0.14503752412965115,0.06974264890147233,0.11924130469560623,-0.22339612245559692,-0.04452897980809212,0.5481739640235901,0.32538744807243347,0.4188598096370697,0.09098409861326218,-0.3193657696247101,0.8122290372848511,0.9961115121841431,-0.9473033547401428,0.5411909818649292
0.66,0.33911678194999695,0.06565827131271362,-0.16100730001926422,-0.10866853594779968,0.04883546009659767,0.04868604615330696,0.747533917427063,0.5348038077354431,-0.641004204750061,-0.0044283997267484665,0.10966187715530396,0.1056346595287323,0.32543324053516587,0.05882253259836544,-0.10890944090140196,-0.07740176008789565,0.0384818797594205,0.05562187139652996,0.7411528824312421,0.5052353946660411,-0.6422661219300831,-0.6446231189878305,0.13104358412692066,0.06887183469960527,0.09737209230661392,-0.21733707189559937,-0.028683453798294067,0.5696076154708862,0.33114320039749146,0.4225386381149292,0.09767092019319534,-0.32201460003852844,0.8382335901260376,0.9950677752494812,-0.942008376121521,0.4386475086212158
0.68,0.349801242351532,0.07881343364715576,-0.18147534132003784,-0.1480778008699417,0.047626834362745285,0.04744509607553482,0.7459994554519653,0.5445940494537354,-0.636339008808136,-0.015324218198657036,0.07939080893993378,0.12528514862060547,0.34250076332063695,0.07418809853723975,-0.1168505746146358,-0.091954471367205,0.038713193311743006,0.05119873208456574,0.7380563072674031,0.5131116581951128,-0.639732344875588,-0.6681768208724925,0.10880765918040454,0.06668835534458165,0.09489019215106964,-0.2961556017398834,-0.0023731321562081575,0.5891880393028259,0.3093515634536743,0.5011405944824219,0.09525366872549057,-0.3629506826400757,0.8596025109291077,0.9919988512992859,-0.9326779842376709,0.3175632357597351
0.7000000000000001,0.35986658930778503,0.0942251980304718,-0.17590323090553284,-0.15807443857192993,0.050376974046230316,0.03840921074151993,0.7442933917045593,0.5601760149002075,-0.6313924789428711,-0.014357669278979301,0.03584396839141846,0.13543687760829926,0.35597947143227454,0.08894496912993805,-0.1275908374006493,-0.10505546508469187,0.042226548479492955,0.04581357245112545,0.7364492833070764,0.5241153330514516,-0.6360544959750447,-0.6918001971370414,0.07771609414463225,0.06357668460051277,0.07681842148303986,-0.31614887714385986,0.02845039777457714,0.620352029800415,0.3112846612930298,0.541747510433197,0.10075394809246063,-0.3518064618110657,0.8797332048416138,0.9885867834091187,-0.9227849245071411,0.14337587356567383
0.72,0.36807170510292053,0.11726024001836777,-0.20299746096134186,-0.19550655782222748,0.05104422569274902,0.03309135511517525,0.7393403649330139,0.582410991191864,-0.6237971782684326,-0.01668381504714489,-0.01056708488613367,0.1560746133327484,0.3618559011515555,0.10253290653425373,-0.14574873132185853,-0.12225606184319411,0.04683865231211675,0.03977144995338796,0.7434995062312159,0.5379719496324795,-0.6102586600113907,-0.7155167142776575,0.03019803750892368,0.06290037071114422,0.0661827102303505,-0.39101311564445496,0.07452047616243362,0.664821982383728,0.3066323697566986,0.6242984533309937,0.10208845138549805,-0.4059949219226837,0.8961434364318848,0.9786807298660278,-0.9075943231582642,-0.04226833954453468
0.74,0.37613445520401,0.1508251577615738,-0.2122267633676529,-0.16775238513946533,0.05688384175300598,0.021540358662605286,0.7316441535949707,0.6220152378082275,-0.6136865019798279,0.03891751170158386,-0.06139427796006203,0.152439147233963,0.3605460912946042,0.1159967210166404,-0.16223693896057376,-0.13317001374281565,0.04922704119548183,0.028290812053368728,0.7517356507891548,0.5575744194090295,-0.5858526399936373,-0.7316098113299319,-0.014348416316959411,0.062837520602812,0.04308071732521057,-0.33550477027893066,0.14165030419826508,0.7440304160118103,0.4178350269794464,0.609756588935852,0.11376768350601196,-0.4244535267353058,0.9122689366340637,0.9632883667945862,-0.8873729705810547,-0.2455771118402481
0.76,0.3780253827571869,0.19508646428585052,-0.2508029043674469,-0.16857527196407318,0.046766702085733414,0.006447192281484604,0.7092592716217041,0.6581921577453613,-0.6064409613609314,0.07210758328437805,-0.08038391917943954,0.1517372578382492,0.3475683360609696,0.13002894266168685,-0.18266448152797132,-0.1414145597456106,0.03271678439463153,0.013227452205882527,0.7551346831654762,0.5807472129829225,-0.5532944728083594,-0.737315667938252,-0.03704434252503588,0.06745892890324955,0.012894384562969208,-0.33715054392814636,0.23017293214797974,0.8163843154907227,0.4842151701450348,0.6069490313529968,0.09353340417146683,-0.5016058087348938,0.9160507917404175,0.918518602848053,-0.8728819489479065,-0.3215356767177582
0.78,0.3767085075378418,0.2443675845861435,-0.24825002253055573,-0.15253883600234985,0.01815653219819069,0.003566742641851306,0.6886426210403442,0.686471700668335,-0.5806939601898193,0.11987544596195221,-0.09255550056695938,0.15439464151859283,0.32700308599860206,0.14645973588694716,-0.19886900947335628,-0.14313250298065422,0.005815792815001461,0.0027167215329611297,0.7540105549151042,0.602607676708938,-0.5298139258119873,-0.7285010536701434,-0.051546353087884536,0.07931279131388508,0.007133485283702612,-0.3050776720046997,0.3287351727485657,0.8729434609413147,0.5797508955001831,0.6175785660743713,0.03631306439638138,-0.49650004506111145,0.9134170413017273,0.8772852420806885,-0.8213879466056824,-0.3702220022678375
0.8,0.37147873640060425,0.3045390248298645,-0.20411279797554016,-0.1556021124124527,-0.037635285407304764,0.06279108673334122,0.6859965324401855,0.6938859224319458,-0.5501689910888672,0.1610081046819687,-0.049899518489837646,0.14792804419994354,0.30061801032066515,0.16931022770335954,-0.20351743390210839,-0.13619528852174317,-0.02123382562305596,0.031201455405019184,0.7556245030735461,0.614809092800545,-0.5566254919385268,-0.6993115799952927,-0.04114486636220441,0.09607837126937806,0.12558217346668243,-0.3112042248249054,0.4490780532360077,0.8877717852592468,0.6620162129402161,0.5917121767997742,-0.07527057081460953,-0.4082255959510803,0.9029574990272522,0.8719930648803711,-0.7603379487991333,-0.19959807395935059
0.8200000000000001,0.3583601117134094,0.34581702947616577,-0.16840390861034393,-0.26390403509140015,-0.05945654958486557,0.18064627051353455,0.6988565921783447,0.6889153718948364,-0.5629699230194092,0.16079120337963104,0.04587150365114212,0.15373942255973816,0.272822967064341,0.19362666409213444,-0.20969089608764885,-0.134371666406252,-0.038199104792058784,0.12578483236184654,0.7533546774539137,0.6177503355082038,-0.5837398131182091,-0.6606685823765933,-0.029215706705430743,0.10350654751158563,0.3612925410270691,-0.5278080701828003,0.5316340327262878,0.8778308033943176,0.6615824103355408,0.6149576902389526,-0.11891309916973114,-0.33680781722068787,0.8767202496528625,0.8977131247520447,-0.7859398126602173,0.18348601460456848
0.84,0.35717442631721497,0.3698123097419739,-0.09530358016490936,-0.3632839620113373,-0.006845478434115648,0.29704082012176514,0.733092188835144,0.6596893668174744,-0.6298109292984009,0.23065270483493805,0.10558602213859558,0.16747181117534637,0.2566171352864052,0.21800981903323244,-0.2089812322696448,-0.14390636162140846,-0.009176282310551873,0.2518834799356061,0.753484183076538,0.6064245488992926,-0.6153248900851044,-0.6208505196611867,0.018754528656326104,0.09978791756886125,0.5940816402435303,-0.7265679240226746,0.579624593257904,0.8193787336349487,0.8013054132461548,0.6698872447013855,-0.013690956868231297,-0.19060716032981873,0.8743488788604736,0.9661843776702881,-0.9196218252182007,0.4223440885543823
0.86,0.35925185680389404,0.381765753030777,-0.08007681369781494,-0.37778422236442566,0.02395402081310749,0.3328554630279541,0.7457433938980103,0.6321359276771545,-0.6531895399093628,0.285832941532135,0.14240333437919617,0.17838738858699799,0.2575965782460207,0.24665390139985088,-0.20318072014801983,-0.15997719522429818,0.02961624387384802,0.3280739416089696,0.7575580068439889,0.5819658405061354,-0.635362867312914,-0.5784088077848125,0.0764738095796884,0.10460494028762625,0.6657109260559082,-0.7555684447288513,0.6035314798355103,0.7642718553543091,0.9116658568382263,0.7135495543479919,0.04790804162621498,-0.16015362739562988,0.8785037398338318,0.9914867281913757,-0.9663790464401245,0.5696133375167847
0.88,0.34209537506103516,0.38304126262664795,-0.06288082897663116,-0.35852864384651184,0.07001974433660507,0.3830781579017639,0.7481850385665894,0.6455157995223999,-0.6540334224700928,0.3150463402271271,0.19703206419944763,0.16002078354358673,0.2622950936481434,0.2735888415309108,-0.18857853847628556,-0.1756820388003392,0.07250509979652206,0.3763219573229364,0.7629101701877284,0.5714421600916931,-0.6697603621280789,-0.5284419175356955,0.13342750212779922,0.12214025419852578,0.7661563158035278,-0.7170572876930237,0.6060824990272522,0.7910315990447998,0.9700926542282104,0.6400831341743469,0.14003948867321014,-0.12576165795326233,0.844190776348114,0.9963700771331787,-0.9680668115615845,0.7881282567977905
0.9,0.3359397053718567,0.3671247065067291,-0.12743690609931946,-0.30876824259757996,0.10544788837432861,0.37571415305137634,0.7487068772315979,0.6473283767700195,-0.6585224270820618,0.3181441128253937,0.20074278116226196,0.08965373784303665,0.27055781279561597,0.29180093930579354,-0.17901313448356862,-0.19120803027891797,0.10525297819741504,0.38649041115015936,0.7678419179269115,0.5729748120238819,-0.6787937585450239,-0.46900002577473937,0.16959659659133616,0.11874164638008379,0.7514283061027527,-0.6175364851951599,0.5742493867874146,0.7946566939353943,0.9762881994247437,0.3586149513721466,0.21089577674865723,-0.2548738121986389,0.8318794369697571,0.9974137544631958,-0.9770448207855225,0.8029711246490479
0.92,0.31746456027030945,0.3458287715911865,-0.15840394794940948,-0.25073298811912537,0.1621675193309784,0.3992467224597931,0.7487936019897461,0.6629847288131714,-0.6525562405586243,0.32356008887290955,0.2092636525630951,-0.005751388147473335,0.27821997180453545,0.30265420397914916,-0.16543605483550963,-0.19790291084149889,0.14237932168768316,0.39500536104507233,0.7632005663058827,0.5872946780155743,-0.6821008239155648,-0.4060691425154465,0.1910357485065276,0.08911603530045083,0.7984934449195862,-0.5014659762382507,0.5316575169563293,0.8259694576263428,0.9871201515197754,-0.02300555258989334,0.3243350386619568,-0.31680789589881897,0.7949291467666626,0.9975871443748474,-0.9651125073432922,0.8370546102523804
0.9400000000000001,0.2957458794116974,0.3328024446964264,-0.18431657552719116,-0.1674308478832245,0.16928192973136902,0.40026265382766724,0.748063862323761,0.6882694959640503,-0.6528945565223694,0.3259379267692566,0.21704116463661194,-0.11592503637075424,0.2800103752886903,0.30999539558421113,-0.15855015003653497,-0.1904968620872109,0.15944537964449537,0.4005897465215613,0.7671495500419884,0.6136425274216337,-0.6961250874863282,-0.3324317757070485,0.19856173693417792,0.02866815497221669,0.8005253076553345,-0.334861695766449,0.5056048631668091,0.8765389323234558,0.9918758273124695,-0.46370014548301697,0.33856385946273804,-0.3686331510543823,0.7514917850494385,0.996127724647522,-0.9657890796661377,0.8681646585464478
0.96,0.23342929780483246,0.2807106673717499,-0.2499561309814453,-0.14380447566509247,0.23634323477745056,0.420250803232193,0.7470525503158569,0.6995314359664917,-0.6455297470092773,0.3250248432159424,0.22369679808616638,-0.14400526881217957,0.2705729540093507,0.3093800569398198,-0.16250899754285594,-0.1800682337763835,0.20035615899949663,0.4151387337598794,0.7615802548364269,0.6478551554836549,-0.714678317518471,-0.24627089750983072,0.2032415404072311,-0.03765301314086611,0.840501606464386,-0.28760895133018494,0.40142133831977844,0.8990628123283386,0.9900496602058411,-0.5760210752487183,0.4726864695549011,-0.4999122619628906,0.6268585920333862,0.9941051602363586,-0.9510594606399536,0.8947871923446655
0.98,0.17879925668239594,0.2390771359205246,-0.14988666772842407,-0.03492536395788193,0.1900000125169754,0.4390084445476532,0.7464555501937866,0.7237554788589478,-0.6091092824935913,0.3283441662788391,0.2310214787721634,-0.20514221489429474,0.25159677059744734,0.2996061227621406,-0.15948649116917668,-0.1399951334216458,0.2038699293839373,0.4363619917067743,0.7612046454646063,0.6843965214061216,-0.7505975424035228,-0.11734358829424385,0.20367042351429543,-0.10222031273806521,0.8780168890953064,-0.06985072791576385,0.3181542754173279,0.9475108981132507,0.9966883063316345,-0.820568859577179,0.3800000250339508,-0.29977333545684814,0.5175985097885132,0.9929110407829285,-0.8782185912132263,0.9240859150886536
1.0,0.05720601975917816,0.17704258859157562,-0.21357432007789612,-0.05629653111100197,0.07477555423974991,0.4412399232387543,0.7430000305175781,0.7289307117462158,-0.5571459531784058,0.3237960636615753,0.23426610231399536,-0.17424632608890533,0.2106176727729907,0.28917464431307094,-0.1663371834431928,-0.09766141111480232,0.12129490014671103,0.43996300773673974,0.7388349108876937,0.7160605919885717,-0.7861483398536159,0.043589357106873845,0.18565237411537025,-0.15807678784403054,0.8824798464775085,-0.11259306222200394,0.19408518075942993,0.9578614830970764,0.9875921010971069,-0.6969853043556213,0.14955110847949982,-0.42714864015579224,0.27441203594207764,0.9860000014305115,-0.7742919325828552,0.9370644092559814
1.02,-0.023421132937073708,0.12933193147182465,-0.11164619773626328,-0.006116636097431183,-0.040332913398742676,0.4383564293384552,0.7460546493530273,0.7324433326721191,-0.4535260498523712,0.32621872425079346,0.23697035014629364,-0.20310983061790466,0.15907135403507797,0.2684216628862831,-0.16442610948971098,-0.05947041677337404,0.008213694986677544,0.43711519239680857,0.7171055530584083,0.7460196285591041,-0.8244895151105008,0.21410224996022395,0.17775772787025199,-0.1942345559757531,0.8767128586769104,-0.012233272194862366,0.09866387397050858,0.9648866653442383,0.9924374222755432,-0.8124393224716187,-0.08066582679748535,-0.22329239547252655,0.1131577342748642,0.9921092391014099,-0.5670521259307861,0.9478814005851746
1.04,-0.04412044957280159,0.1603572964668274,-0.17042315006256104,-0.05069546774029732,-0.212324857711792,0.3983866274356842,0.7466261386871338,0.7251526117324829,-0.26209962368011475,0.3181437849998474,0.22801406681537628,-0.17934484779834747,0.10286097821292564,0.25361075048010084,-0.17385470297152333,-0.04363306794543809,-0.14826856756324905,0.40229552617993647,0.7085506097270149,0.7653309658809034,-0.8437358968604789,0.351934062813378,0.1543207658278744,-0.21076026254385619,0.7967732548713684,-0.10139093548059464,0.16071459650993347,0.950305163860321,0.9762875437736511,-0.7173793911933899,-0.424649715423584,-0.34084630012512207,0.07175909727811813,0.9932522177696228,-0.1841992288827896,0.9120562672615051
1.06,-0.13427279889583588,0.14819826185703278,-0.022997265681624413,-0.0016517596086487174,-0.36061012744903564,0.3310767412185669,0.7490454912185669,0.7355971336364746,0.14257733523845673,0.32481253147125244,0.2305736541748047,-0.21976187825202942,0.03752556261702817,0.24368609053964901,-0.17280207255397323,-0.031185988322438924,-0.3025807524216326,0.3516157262985788,0.7018086743895966,0.7801277585907773,-0.8498876280373983,0.4259693141718074,0.13927401222919958,-0.21866350559441483,0.6621534824371338,-0.003303519217297435,0.13639651238918304,0.971194326877594,0.9896250367164612,-0.8790475130081177,-0.7212202548980713,-0.045994531363248825,-0.10854560136795044,0.998090922832489,0.6251546740531921,0.9222946166992188
1.08,-0.2453845888376236,0.13857561349868774,0.04512796550989151,0.025480566546320915,-0.4443417489528656,-0.07355965673923492,0.7490742206573486,0.7366781234741211,0.32037147879600525,0.29001903533935547,0.23639272153377533,-0.19832736253738403,-0.04136816918524938,0.23973824413765324,-0.14167860114492944,-0.03193489694002741,-0.4192112449915541,0.0891023835776813,0.6961185747266498,0.7919885015958082,-0.8520499055149149,0.43318693475162834,0.14672551406288428,-0.2051246961797723,-0.14711931347846985,0.05096113309264183,0.11715123057365417,0.9733561873435974,0.9200380444526672,-0.7933094501495361,-0.8886834979057312,0.09025593101978302,-0.3307691812515259,0.9981483817100525,0.9807429313659668,0.9455708861351013
1.1,-0.21399837732315063,-0.0013247859897091985,0.26577064394950867,-0.050705209374427795,-0.48214462399482727,-0.4177749752998352,0.7483402490615845,0.7340819835662842,0.32980120182037354,-0.06509442627429962,0.24508227407932281,-0.039419859647750854,-0.06935784162118551,0.1907691353406971,-0.06709453761562362,-0.02613231799635011,-0.47038453539734837,-0.2771501893045649,0.6819700866657926,0.8196381627046017,-0.8539720537961977,0.3419789388002188,0.1683010869057942,-0.1389304505311137,-0.8355499505996704,-0.10141041874885559,-0.16264957189559937,0.9681639671325684,0.20981115102767944,-0.15767943859100342,-0.9642892479896545,0.5315412878990173,-0.26799675822257996,0.9966805577278137,0.9996023774147034,0.9803290963172913
1.12,-0.08713236451148987,-0.007960384711623192,0.1056925505399704,0.009066281840205193,-0.48905274271965027,-0.4803753197193146,0.7486042380332947,0.7024292945861816,0.32999104261398315,-0.23286795616149902,0.24947062134742737,0.0029043324757367373,-0.05990084230261806,0.12680472780365362,-0.001471583494703601,0.002595561116942788,-0.488821173913677,-0.46206458453849636,0.6794337640770346,0.8208315724473555,-0.8196495507110806,0.20877082209793335,0.1649142339681144,-0.06213929255202452,-0.9607506394386292,0.018132563680410385,-0.175920769572258,0.9048585891723633,-0.12573592364788055,0.011617329902946949,-0.9781054854393005,0.2113851010799408,-0.014264732599258423,0.9972084760665894,0.9999820590019226,0.9978824853897095
1.1400000000000001,0.08600686490535736,0.2797069251537323,0.1487639993429184,0.20399920642375946,-0.49701300263404846,-0.4868471622467041,0.7497909665107727,0.7114601135253906,0.32999926805496216,-0.014290018007159233,0.24986480176448822,-0.0644802525639534,-0.05958306531843708,0.1266096255791814,0.039877822957053055,0.060253169865066965,-0.50070517201452,-0.5031133252972749,0.7125643014234952,0.7719793694285447,-0.75090373773149,0.13962866502028806,0.17746001329969424,-0.03197379051942019,-0.9736943244934082,0.4079984128475189,0.3994138240814209,0.922920286655426,0.3114199638366699,-0.2579210102558136,-0.9940260052680969,0.2975279986858368,0.33201372623443604,0.9995819330215454,0.9999985098838806,0.9994592070579529
1.16,0.09479080140590668,0.2912634313106537,0.3471164107322693,0.07825925201177597,-0.4973638355731964,-0.42921775579452515,0.7499297857284546,0.7199792861938477,0.32999521493911743,0.028233634307980537,0.24996770918369293,-0.06036294251680374,-0.05269375784795192,0.13861409672145952,0.07568757609324805,0.11941124177845941,-0.4897503126078078,-0.4766826009965452,0.7346564336671226,0.7311316646437386,-0.65266349102176,0.0753993423753345,0.22004641795164062,-0.04357648228797357,-0.8584355115890503,0.15651850402355194,0.42252686619758606,0.9399586319923401,0.39646726846694946,-0.24145177006721497,-0.9947276711463928,0.6942328214645386,0.34958159923553467,0.9998595714569092,0.9999904036521912,0.9998708367347717
1.18,-0.018332066014409065,0.24468936026096344,0.4237915873527527,-0.04223857447504997,-0.49768730998039246,-0.37285712361335754,0.7499434351921082,0.7318663597106934,0.3299950063228607,0.06803387403488159,0.24996417760849,-0.05533645674586296,-0.06323156344004671,0.1582369091239391,0.10535630177126454,0.14433822982773983,-0.4745089454407406,-0.426917257992868,0.7330874798422278,0.7278635214460254,-0.5044235015919232,0.0549273228869687,0.260499845149789,-0.05418957076644676,-0.7457142472267151,-0.08447714895009995,0.32937872409820557,0.9637327790260315,0.47606775164604187,-0.22134582698345184,-0.9953746199607849,0.8475831747055054,0.12333586812019348,0.9998868703842163,0.9999899864196777,0.99985671043396
1.2,-0.07296866178512573,0.21663856506347656,0.4214908480644226,0.05729098618030548,-0.4978894591331482,-0.41022998094558716,0.7499161958694458,0.7372716665267944,0.32999587059020996,0.00017899453814607114,0.24994607269763947,-0.11799520254135132,-0.07352193202145701,0.17765858269698426,0.15801247221618275,0.1557910677399981,-0.4707917498846487,-0.419826288168287,0.7332886529563488,0.7311329081398292,-0.24895593413373185,0.03841906653464181,0.27307529680817083,-0.0768308584099779,-0.8204599618911743,0.11458197236061096,0.2732771337032318,0.9745432734489441,0.3403579890727997,-0.4719808101654053,-0.9957789182662964,0.8429816961288452,0.014062671922147274,0.9998323917388916,0.9999917149543762,0.9997842907905579
1.22,-0.04121588170528412,-0.012926844879984856,0.35247379541397095,0.1772467941045761,-0.4946938753128052,-0.4203607439994812,0.7497225999832153,0.7407564520835876,0.32998570799827576,-0.35623136162757874,0.24982033669948578,-0.16724804043769836,-0.034263147130118785,0.1286642829284559,0.2323448762117022,0.1694794209015023,-0.4815001783020674,-0.4152653750827494,0.732162380711892,0.7441482484527825,0.047661220611238925,-0.08858221157610971,0.2655925338808238,-0.11429113047550692,-0.8407214879989624,0.3544935882091522,-0.18585368990898132,0.9815129041671753,-0.37246274948120117,-0.6689921617507935,-0.9893877506256104,0.7049475908279419,0.07756823301315308,0.9994452595710754,0.9999713897705078,0.9992813467979431
1.24,-0.03560813516378403,-0.08237765729427338,0.16938437521457672,0.2816788852214813,-0.4966376721858978,-0.4835660755634308,0.7496020793914795,0.7406941056251526,0.32999953627586365,-0.4631996750831604,0.24995467066764832,-0.1637716442346573,-0.008386003433425679,0.06496726397943313,0.2728001018292347,0.16355778881897348,-0.5098716892053515,-0.4402390587762468,0.7379882034572895,0.7490493316564961,0.22275905898721057,-0.2620189593642832,0.2560861937854804,-0.14084839528960053,-0.9671321511268616,0.5633577704429626,-0.32475531101226807,0.9813882112503052,-0.5863993763923645,-0.6550865769386292,-0.9932753443717957,0.33876875042915344,0.08878372609615326,0.9992042183876038,0.9999990463256836,0.9998186826705933
1.26,-0.10005263984203339,0.2110050916671753,0.18057528138160706,0.34319454431533813,-0.49935320019721985,-0.49642807245254517,0.7498414516448975,0.73824143409729,0.3300000727176666,-0.28291845321655273,0.24999397993087769,-0.12018293142318726,-0.06870706785242447,0.09566365645470506,0.2915200665615983,0.16960060545488745,-0.5193605638380545,-0.4724661614423882,0.7540789244548032,0.7295089253465461,0.3005807204592307,-0.3267596084284593,0.2498171717331409,-0.1403014016930826,-0.9928561449050903,0.6863890886306763,0.2620101869106293,0.9764828681945801,-0.2258368879556656,-0.480731725692749,-0.9987064003944397,0.3611505627632141,-0.04010527953505516,0.9996828436851501,1.0000001192092896,0.9999759197235107
1.28,-0.1696142554283142,0.39930710196495056,0.23113186657428741,0.31507760286331177,-0.499562531709671,-0.49367010593414307,0.7498340606689453,0.7161922454833984,0.3299999237060547,-0.22393180429935455,0.24999898672103882,-0.0863388255238533,-0.148592967376196,0.18510252176808834,0.3012943750703877,0.19171285939682325,-0.5146937432830881,-0.4911968997483697,0.767530509723105,0.7060483758664824,0.3299190314840241,-0.3011327908916457,0.24730958834326394,-0.12034447314240675,-0.9873402118682861,0.6301552057266235,0.6386141777038574,0.9323844909667969,-0.10786359757184982,-0.3453553020954132,-0.999125063419342,0.46226373314857483,-0.1792284995317459,0.9996681213378906,0.9999998211860657,0.9999959468841553
1.3,-0.3921435475349426,0.4734741151332855,0.43280029296875,0.0864943191409111,-0.4997313320636749,-0.46981844305992126,0.7499082088470459,0.7182950973510742,0.3299998342990875,0.05605052411556244,0.24999970197677612,0.07120466977357864,-0.2546511452876093,0.3050688684014627,0.3096908374334846,0.20146321012904184,-0.49073328552849416,-0.4903613340138748,0.7582214340737654,0.7098192043148799,0.3361634186707569,-0.17698386145617853,0.24847550644580832,-0.05334786247346838,-0.9396368861198425,0.1729886382818222,0.7869482040405273,0.9365902543067932,0.45210105180740356,0.2848186790943146,-0.9994626641273499,0.8656005859375,-0.6242870688438416,0.999816358089447,0.9999996423721313,0.9999988079071045
1.32,-0.5046530961990356,0.5309629440307617,0.47404012084007263,-0.15410438179969788,-0.499898225069046,-0.43246734142303467,0.749969482421875,0.7260878086090088,0.33000001311302185,0.2578207850456238,0.24999988079071045,0.14236751198768616,-0.35839340915375406,0.40793155911103274,0.30497966231644064,0.16592388219996154,-0.4744086399586891,-0.47486277464750526,0.7438432878296581,0.730042967774626,0.3330427386476153,0.013210498076482969,0.25137964846492017,0.033603320911727706,-0.8649346828460693,-0.30820876359939575,0.9019259214401245,0.9521756172180176,0.8556415438652039,0.5694700479507446,-0.999796450138092,0.9480802416801453,-0.8493062257766724,0.99993896484375,1.0,0.9999995231628418
1.34,-0.5423538684844971,0.5655759572982788,0.4895298182964325,-0.3234820067882538,-0.4999794065952301,-0.4244876503944397,0.7499955296516418,0.7310464978218079,0.33000001311302185,0.31850215792655945,0.2499999701976776,0.16950322687625885,-0.4374655501449491,0.47869129511258185,0.29223101041762733,0.07896704723056146,-0.46721250395847186,-0.46509500771536133,0.7352580587654002,0.7446236714619389,0.32901306481726655,0.1772808290932103,0.2537483344298192,0.10151580889891934,-0.8489753007888794,-0.6469640135765076,0.9711519479751587,0.9620929956436157,0.9770042896270752,0.6780129075050354,-0.9999588131904602,0.979059636592865,-0.9247077107429504,0.9999910593032837,1.0,0.9999998807907104
1.36,-0.552065372467041,0.575297474861145,0.49386337399482727,-0.40106359124183655,-0.4999924600124359,-0.4457891881465912,0.7499985694885254,0.7257287502288818,0.33000001311302185,0.32612529397010803,0.25,0.21420146524906158,-0.48890624988882975,0.520118243829893,0.28951723676047897,-0.04395982775660702,-0.465654048806485,-0.4731906089399375,0.7327317766091198,0.7454749855379684,0.32678616738878163,0.2733808466716281,0.255149367131912,0.15357099274801994,-0.8915783762931824,-0.8021271824836731,0.9905949831008911,0.9514575004577637,0.9922505617141724,0.8568058609962463,-0.9999849200248718,0.9877267479896545,-0.9441307187080383,0.9999971985816956,1.0,1.0
1.3800000000000001,-0.5521674156188965,0.5779345035552979,0.4953232705593109,-0.4503789246082306,-0.4999939203262329,-0.45009616017341614,0.7499991059303284,0.707397997379303,0.33000001311302185,0.3274429440498352,0.25,0.24129484593868256,-0.5794084376826981,0.48573959213703166,0.30742549675983405,-0.14241924777580714,-0.5669643377402414,-0.4828656278888338,0.731065387633165,0.7281680630257169,0.312690691697136,0.3151526542897632,0.251916426020568,0.1945949115424597,-0.9001923203468323,-0.9007578492164612,0.9958690404891968,0.914795994758606,0.9948858618736267,0.9651793837547302,-0.9999878406524658,0.9906465411186218,-0.9443348050117493,0.9999982118606567,1.0,1.0
1.4000000000000001,-0.5359416604042053,0.5794411301612854,0.4839991629123688,-0.4842199385166168,-0.49999210238456726,-0.49256736040115356,0.7499983906745911,0.511215090751648,0.33000001311302185,0.3227081596851349,0.25,0.24888619780540466,-0.6010469394944549,0.4646892817080764,0.4029279705075891,-0.15240625517668258,-0.655882740987641,-0.5273945399928315,0.7492009020493638,0.642201011043105,0.3193386738404789,0.3288027650399962,0.2441066889029202,0.220347906715962,-0.9851347208023071,-0.9684398770332336,0.9988822937011719,0.5224301218986511,0.9854162931442261,0.9955447912216187,-0.9999842047691345,0.9679983258247375,-0.9118833541870117,0.9999967813491821,1.0,1.0
1.42,-0.5483457446098328,0.5784991383552551,0.49695444107055664,-0.4980015456676483,-0.4998408257961273,-0.06624514609575272,0.7499978542327881,0.5921759605407715,0.33000001311302185,0.3271358609199524,0.25,0.24999010562896729,-0.6108618457000591,0.46908621933901495,0.5060442815561031,-0.15871290801472793,-0.5907057455654751,-0.2788779356361083,0.7598536359113791,0.6290162028896501,0.3290582645090987,0.32850466089107755,0.2369539849368996,0.2283980753903678,-0.13249029219150543,-0.9960030913352966,0.9969983100891113,0.6843519806861877,0.9942716956138611,0.9999604225158691,-0.9996816515922546,0.9939088821411133,-0.9366915225982666,0.999995768070221,1.0,1.0
1.44,-0.5694898366928101,0.5713745355606079,0.49981677532196045,-0.4965558648109436,-0.49990302324295044,0.4633849263191223,0.7499998211860657,0.742378830909729,0.329999178647995,0.32995370030403137,0.2499999701976776,0.24992600083351135,-0.6018255829403842,0.500823005164715,0.5309256577290644,-0.23288990508820515,-0.5218207062266067,0.2088648274837249,0.7605288103792566,0.6913084319718985,0.33385587881023976,0.3287981040058332,0.240846007059408,0.23074053250869522,0.9267698526382446,-0.9931117296218872,0.9827490448951721,0.9847576022148132,0.999907374382019,0.9997040033340454,-0.9998060464859009,0.9996335506439209,-0.9789796471595764,0.9999996423721313,0.9999983310699463,0.9999998807907104
1.46,-0.5744842290878296,0.5222582221031189,0.4996801018714905,-0.48636436462402344,-0.4994979500770569,0.4933736026287079,0.7499998807907104,0.7482454776763916,0.3299829661846161,0.3299984633922577,0.24999934434890747,0.2411501705646515,-0.5629002564580198,0.542526628646814,0.5377998048212709,-0.3617199722524196,-0.5034611043176662,0.4660134777386494,0.7514549610445732,0.742875264255602,0.33313394894237053,0.33677068385187275,0.24620294661436298,0.23818369016009672,0.9867472052574158,-0.9727287292480469,0.8845164179801941,0.9964908957481384,0.9999969005584717,0.964600682258606,-0.9989959001541138,0.999360203742981,-0.9889684915542603,0.9999997019767761,0.9999659061431885,0.9999973773956299
1.48,-0.5787858963012695,0.5399570465087891,0.49969616532325745,-0.4950500428676605,-0.4998798668384552,0.49283555150032043,0.75,0.7489856481552124,0.3299996852874756,0.32999977469444275,0.2499992400407791,0.17255254089832306,-0.5425708337172542,0.5697947082455708,0.557694616144751,-0.48934190988002346,-0.5024257215972291,0.5250947899514918,0.7440175631436973,0.7601461235796078,0.33032675079433105,0.341815473355512,0.24913310669574606,0.22256070562395155,0.9856711030006409,-0.990100085735321,0.9199141263961792,0.99797123670578,0.9999995231628418,0.6902101635932922,-0.9997597336769104,0.9993923306465149,-0.9975717663764954,1.0,0.9999993443489075,0.9999969601631165
1.5,-0.5790177583694458,0.5689277648925781,0.49886268377304077,-0.49708065390586853,-0.49995890259742737,0.47550779581069946,0.7499999403953552,0.7468920946121216,0.33000001311302185,0.3299979567527771,0.24999982118606567,0.21157114207744598,-0.5368316328767608,0.5880381228600442,0.5964226701477533,-0.5753066257641831,-0.5164558353452252,0.5143000850404571,0.7470580101809253,0.7652472580430458,0.3294951976218519,0.34229062142752015,0.249075966577257,0.21201345378068515,0.9510155916213989,-0.9941613078117371,0.9778555035591125,0.9937841296195984,0.9999958872795105,0.8462845683097839,-0.9999178051948547,0.9977253675460815,-0.9980355501174927,0.9999998807907104,1.0,0.9999992847442627
1.52,-0.5787320137023926,0.571628987789154,0.4981740713119507,-0.4981582760810852,-0.4999484419822693,0.47773557901382446,0.7499998807907104,0.7448357939720154,0.32999998331069946,0.3299969732761383,0.24999985098838806,0.23226521909236908,-0.5627574150873417,0.5932133348061941,0.6206721338916282,-0.6474427436562765,-0.5179112483660637,0.5099672785912149,0.7644720404730084,0.7734199278075208,0.3313661337899645,0.34116762007412105,0.2480503145316517,0.21833904991658576,0.9554711580276489,-0.9963165521621704,0.9832580089569092,0.9896715879440308,0.9999939203262329,0.9290608763694763,-0.9998968839645386,0.9963481426239014,-0.9974640011787415,0.9999998211860657,0.9999999403953552,0.9999994039535522
1.54,-0.5759795308113098,0.5714805722236633,0.4943404197692871,-0.4969892203807831,-0.49984461069107056,0.45622488856315613,0.7499994039535522,0.735166609287262,0.32999956607818604,0.3299734890460968,0.24999935925006866,0.22089771926403046,-0.588727420851472,0.603790025418529,0.6462766430048782,-0.6984729123294898,-0.5193993225218432,0.5003814059959839,0.7767440116338081,0.7770962846279079,0.335398194288839,0.34096202039640594,0.2475208927684509,0.2243008043435599,0.9124497771263123,-0.9939784407615662,0.9829611778259277,0.9703332185745239,0.9999469518661499,0.8835908770561218,-0.9996892213821411,0.9886808395385742,-0.9919590950012207,0.9999988079071045,0.9999991059303284,0.9999974370002747
1.56,-0.5767768621444702,0.5711050033569336,0.49452918767929077,-0.4977928698062897,-0.4998304843902588,0.46915093064308167,0.7499995231628418,0.7357110381126404,0.329999715089798,0.3299854099750519,0.24999934434890747,0.21294352412223816,-0.600117387391828,0.6035071083675493,0.6655552403286765,-0.7189827334563454,-0.5244537659404661,0.5022936466509024,0.7802634815063483,0.7748977579865262,0.33720344290003784,0.3401755697241194,0.24674114718991919,0.22318831756387314,0.9383018612861633,-0.9955857396125793,0.9822099804878235,0.9714220762252808,0.9999707937240601,0.8517740964889526,-0.9996609687805176,0.9890583753585815,-0.9935536980628967,0.9999991059303284,0.9999994039535522,0.9999973773956299
1.58,-0.5769803524017334,0.5708240866661072,0.49360391497612,-0.49802565574645996,-0.49975845217704773,0.47376227378845215,0.7499995827674866,0.7344735860824585,0.3299994468688965,0.3299902081489563,0.2499990314245224,0.1763104796409607,-0.6048063896930975,0.6002418263324267,0.6705408075483125,-0.7194182397810891,-0.5264400571567591,0.5064163159756635,0.780454762847666,0.7702640149275055,0.3374324481829373,0.3386981162323108,0.24599825434632977,0.2090750641465942,0.9475245475769043,-0.9960513114929199,0.9816482067108154,0.968947172164917,0.9999803900718689,0.7052419185638428,-0.9995169043540955,0.98720782995224,-0.9939607381820679,0.9999991655349731,0.9999988675117493,0.9999961256980896
1.6,-0.5775921940803528,0.571516752243042,0.4934890568256378,-0.49829408526420593,-0.4997277855873108,0.4749143123626709,0.7499995231628418,0.7348080277442932,0.3299995958805084,0.32999423146247864,0.24999882280826569,0.1087813451886177,-0.6059906962041988,0.5966672183982905,0.6618612284821682,-0.7052298650745084,-0.5240385502117273,0.5047906636311388,0.7783889191828443,0.7656181629186181,0.3370013394015555,0.33709278628879996,0.24573002130108076,0.17276859922717702,0.9498286247253418,-0.9965881705284119,0.9830334782600403,0.9696160554885864,0.9999884366989136,0.4351253807544708,-0.9994555711746216,0.9869781136512756,-0.9951843619346619,0.9999990463256836,0.9999991655349731,0.9999952912330627
1.62,-0.5777171850204468,0.5697588324546814,0.4929729402065277,-0.4980189800262451,-0.49957865476608276,0.47337576746940613,0.7499992847442627,0.7372433543205261,0.3299993574619293,0.32999473810195923,0.24999774992465973,-0.0486617237329483,-0.6051778000480804,0.5924760137289573,0.6423260496579128,-0.6803423623984786,-0.5190705717375311,0.49838040203916134,0.7748731254708956,0.7620932260027542,0.33622818367085194,0.33568197761136465,0.24588159507463164,0.0900591945374155,0.9467515349388123,-0.9960379600524902,0.9795176386833191,0.9744867086410522,0.9999894499778748,-0.1946468949317932,-0.9991573095321655,0.9859458804130554,-0.9954343438148499,0.9999985098838806,0.9999986886978149,0.9999909996986389
