time,cmd_L_hip_pitch,cmd_R_hip_pitch,cmd_L_hip_roll,cmd_R_hip_roll,cmd_L_hip_yaw,cmd_R_hip_yaw,cmd_L_knee,cmd_R_knee,cmd_L_foot_pitch,cmd_R_foot_pitch,cmd_L_foot_roll,cmd_R_foot_roll,pos_L_hip_pitch,pos_R_hip_pitch,pos_L_hip_roll,pos_R_hip_roll,pos_L_hip_yaw,pos_R_hip_yaw,pos_L_knee,pos_R_knee,pos_L_foot_pitch,pos_R_foot_pitch,pos_L_foot_roll,pos_R_foot_roll,act_R_hip_yaw,act_R_hip_roll,act_R_hip_pitch,act_R_knee,act_R_foot_pitch,act_R_foot_roll,act_L_hip_yaw,act_L_hip_roll,act_L_hip_pitch,act_L_knee,act_L_foot_pitch,act_L_foot_roll
0.0,-0.11368498206138611,0.0455307811498642,-0.009651181288063526,-0.012581010349094868,0.08610322326421738,-0.3299316465854645,0.34875065088272095,0.3672012686729431,0.13617686927318573,-0.35207274556159973,0.06392700970172882,0.060945864766836166,-0.07920730674702549,0.0783641561178757,-0.0035235805618292725,-0.012364702857800607,0.04648660561889431,-0.20575965379828126,0.28174835980840846,0.3137645008178547,-0.26909205457076,-0.35388182738973023,0.026741382085910502,0.008347828557366703,-0.659863293170929,-0.025162020698189735,-0.06893843412399292,0.23440255224704742,-0.36414551734924316,0.24378345906734467,0.17220644652843475,-0.019302362576127052,-0.0673699676990509,0.1975013166666031,0.6123537421226501,0.2557080388069153
0.02,-0.08546528965234756,0.06699157506227493,-0.014515149407088757,-0.02961382269859314,0.15818534791469574,-0.6687206625938416,0.3682507872581482,0.4330805242061615,0.260458379983902,-0.49711474776268005,0.11476587504148483,0.051393065601587296,-0.07510543203159209,0.07985373744196442,-0.01588116282985193,-0.04495386379218528,0.11069533226366768,-0.5385041544707042,0.3006135690338803,0.40565271237125733,-0.28385032545350913,-0.4324193195360949,0.06518743628197322,0.03375871565428319,-1.337441325187683,-0.05922764539718628,-0.026016850024461746,0.366161048412323,-0.6542295217514038,0.20557226240634918,0.3163706958293915,-0.029030298814177513,-0.010930575430393219,0.2365015745162964,0.8609167337417603,0.45906350016593933
0.04,-0.06276759505271912,0.08776243776082993,-0.024255678057670593,0.017427165061235428,0.15284255146980286,-0.7864946126937866,0.4406983256340027,0.5059563517570496,0.3244372606277466,-0.5379720330238342,0.10304410755634308,-0.017690056934952736,-0.06044001681172399,0.09090437912753524,-0.02129046722499026,-0.05902239202799137,0.14984055779162628,-0.73691800545853,0.3435291386352567,0.48205358010584365,-0.31584899716202475,-0.4840414550048734,0.05440820624359841,0.029087994899351714,-1.5729892253875732,0.034854330122470856,0.01552487351000309,0.5119127035140991,-0.7359440326690674,-0.07076022773981094,0.3056851029396057,-0.048511356115341187,0.03446481376886368,0.38139668107032776,0.9888744950294495,0.4121764302253723
0.06,-0.044044129550457,0.0845097154378891,-0.04992120712995529,0.027350790798664093,0.12699227035045624,-0.8424360752105713,0.5042034387588501,0.606918215751648,0.29884326457977295,-0.48535796999931335,0.0565524660050869,-0.09097810089588165,-0.038355379983367625,0.10150381691037982,-0.023427095089731478,-0.05869312213158502,0.1454960493084533,-0.8196975607607029,0.4134681870098885,0.5577598313375299,-0.356793669621175,-0.5017208420570375,0.010915267890234526,-0.013227371802313856,-1.6848721504211426,0.054701581597328186,0.00901943538337946,0.7138363718986511,-0.6307159662246704,-0.3639124035835266,0.2539845407009125,-0.09984241425991058,0.07191173732280731,0.508406937122345,0.9376865029335022,0.2262098640203476
0.08,-0.011882269755005836,0.0735560953617096,-0.050740525126457214,-0.005651611834764481,0.10288845002651215,-0.8644824028015137,0.5498153567314148,0.6913766860961914,0.24673105776309967,-0.44737449288368225,-0.010237988084554672,-0.1400282233953476,-0.01364711252905674,0.10343576283845181,-0.031838907290313544,-0.06082756503939217,0.12138202882466144,-0.8552054355344896,0.4881505488268496,0.6439857213777765,-0.4001229940775389,-0.5062295340089059,-0.013178135456877491,-0.064759262246237,-1.7289648056030273,-0.011303223669528961,-0.012887805700302124,0.882753312587738,-0.5547490119934082,-0.5601128935813904,0.2057769000530243,-0.10148105025291443,0.13623546063899994,0.5996307134628296,0.833462119102478,-0.04095195233821869
0.1,-0.013374561443924904,0.07736041396856308,-0.0071702683344483376,-0.011651932261884212,0.07514655590057373,-0.9012683629989624,0.5740344524383545,0.7155759334564209,0.24063478410243988,-0.46882039308547974,-0.07655782252550125,-0.17698299884796143,0.001992721573476659,0.10830241138656033,-0.039102013904509625,-0.05924382492585855,0.08971540368831761,-0.8884227128720076,0.5435258247406931,0.6967852643603134,-0.4395165630585026,-0.5682990451948193,-0.008990738805951484,-0.1002504437053709,-1.8025367259979248,-0.023303864523768425,-0.0052791777998209,0.9311518669128418,-0.5976408123970032,-0.7079319953918457,0.15029311180114746,-0.014340536668896675,0.1332508772611618,0.6480689644813538,0.8212695717811584,-0.306231290102005
0.12,0.01809368096292019,0.10188688337802887,0.018217911943793297,-0.012428236193954945,0.04937586188316345,-0.941806972026825,0.58600914478302,0.7288655042648315,0.22001437842845917,-0.49150827527046204,-0.13563355803489685,-0.19876936078071594,0.013648551551010128,0.11118048996615461,-0.043676972071969716,-0.05331234540758501,0.05940902475420257,-0.9275976518761333,0.577070794198308,0.7143266638954145,-0.4739690834151931,-0.6217626881220646,0.0137529470607391,-0.1254219257956305,-1.88361394405365,-0.02485647238790989,0.04377376288175583,0.9577310681343079,-0.6430165767669678,-0.7950774431228638,0.0987517237663269,0.036435823887586594,0.196187362074852,0.67201828956604,0.780028760433197,-0.5425342321395874
0.14,0.03275349736213684,0.12089027464389801,0.03448276221752167,-0.013458934612572193,0.021523138508200645,-0.9550560116767883,0.5746133923530579,0.7114684581756592,0.16232793033123016,-0.526710569858551,-0.17734631896018982,-0.2022104114294052,0.024428219051513107,0.1192027251465392,-0.05804759263015247,-0.05511072882657043,0.04704981447932635,-0.9556045737811654,0.6095783854727327,0.706313882983183,-0.4832049050430455,-0.6721641775481523,0.0239976537637566,-0.13158112087254675,-1.9101120233535767,-0.026917869225144386,0.08178055286407471,0.9229369759559631,-0.7134211659431458,-0.8088416457176208,0.04304627701640129,0.06896552443504333,0.225506991147995,0.6492267847061157,0.664655864238739,-0.7093852758407593
0.16,0.05992169678211212,0.13731518387794495,0.052370861172676086,-0.05314125493168831,0.006823206320405006,-0.9492225050926208,0.5675449371337891,0.6946738958358765,0.08234407007694244,-0.5482776165008545,-0.20581454038619995,-0.19830480217933655,0.033124607513135076,0.12249966590748959,-0.06975568617186914,-0.05472456792558837,0.03874024038655634,-0.9625506841383946,0.6205337781370479,0.6891098869442177,-0.4817756589507939,-0.7095827595100759,0.03265478310686212,-0.1271230089549685,-1.8984450101852417,-0.10628250986337662,0.11463036388158798,0.8893477916717529,-0.7565552592277527,-0.7932192087173462,0.013646412640810013,0.10474172234535217,0.27984338998794556,0.6350898742675781,0.5046881437301636,-0.8232581615447998
0.18,0.06809563934803009,0.13843464851379395,0.02671998366713524,-0.08255083113908768,-0.0029943548142910004,-0.9728919267654419,0.5961910486221313,0.6809353828430176,0.021426575258374214,-0.5316463708877563,-0.21306109428405762,-0.2028362900018692,0.04270056911705043,0.12393158108947831,-0.07897781445809038,-0.05589667216305555,0.026216332281079623,-0.9719431580732518,0.6233599776880239,0.6770431941354734,-0.47524794998021136,-0.7402383939983529,0.04122359473680118,-0.13200182430357704,-1.9457838535308838,-0.16510166227817535,0.11686928570270538,0.8618707656860352,-0.7232927680015564,-0.8113451600074768,-0.005988709628582001,0.05343996733427048,0.2961912751197815,0.6923821568489075,0.3828531503677368,-0.8522443771362305
0.2,0.053358495235443115,0.12804046273231506,-0.013157912530004978,-0.1112961545586586,-0.001512882299721241,-1.0247231721878052,0.658300518989563,0.6540092825889587,-0.06646270304918289,-0.4926113784313202,-0.20895124971866608,-0.21082106232643127,0.05155133550774893,0.1291620011376911,-0.08316481338898905,-0.05640077351692176,0.004499820217850217,-1.00233423929727,0.6381865185250354,0.6816319462439446,-0.47268045721670293,-0.7518503671260833,0.026357627278641285,-0.1246925553342718,-2.0494463443756104,-0.2225923091173172,0.09608092904090881,0.8080185651779175,-0.6452227830886841,-0.8432842493057251,-0.003025764599442482,-0.026315825060009956,0.26671698689460754,0.8166010975837708,0.2070745974779129,-0.8358049988746643
0.22,0.06788741052150726,0.11721886694431305,-0.022016409784555435,-0.14601697027683258,0.0016533415764570236,-1.109713077545166,0.7355583906173706,0.6147859692573547,-0.14920711517333984,-0.4397618770599365,-0.1960446685552597,-0.2205314338207245,0.072784265461909,0.1385340579603278,-0.08597206916655344,-0.05339922016614827,-0.002189860737556346,-1.0650548403667717,0.6792794964089702,0.6815449568706435,-0.47607533442919564,-0.7615600711048641,-0.011434916402572314,-0.12219289967576251,-2.219426155090332,-0.29203394055366516,0.07443773001432419,0.7295719385147095,-0.5395237803459167,-0.882125735282898,0.0033066831529140472,-0.04403281956911087,0.29577481746673584,0.9711167812347412,0.041585758328437805,-0.7841786742210388
0.24,0.08328145742416382,0.10163535177707672,-0.009012994356453419,-0.1863453984260559,0.006744997575879097,-1.231264352798462,0.844548225402832,0.564237117767334,-0.23061807453632355,-0.38369426131248474,-0.17503567039966583,-0.2399895340204239,0.10795160125849991,0.15354181879982645,-0.08369047128497867,-0.043341329166696974,0.010335013751021528,-1.1679808091719126,0.7520069618650044,0.6727043955753084,-0.4786093875241348,-0.7678462904402973,-0.05479981977483988,-0.11326533909810366,-2.462528705596924,-0.3726907968521118,0.04327069967985153,0.628474235534668,-0.4273885488510132,-0.9599581360816956,0.013489995151758194,-0.018025988712906837,0.32656291127204895,1.189096450805664,-0.1212361603975296,-0.7001426815986633
0.26,0.09752406179904938,0.08644972741603851,0.03137073665857315,-0.21523989737033844,0.017017288133502007,-1.3708313703536987,0.962752640247345,0.5112905502319336,-0.29499518871307373,-0.3598499298095703,-0.16252179443836212,-0.2751610279083252,0.15018816178731292,0.17201080848255026,-0.07455790626108556,-0.025534706254332525,0.02826249808450655,-1.292279176512365,0.851993840633934,0.6576684257861036,-0.4746249764719502,-0.7703437256266865,-0.08829718095217301,-0.09748840808054542,-2.7416627407073975,-0.4304797947406769,0.012899450026452541,0.522581160068512,-0.37969985604286194,-1.1006441116333008,0.03403457626700401,0.0627414733171463,0.35504812002182007,1.42550528049469,-0.24999037384986877,-0.6500871777534485
0.28,0.14700132608413696,0.11973617225885391,0.06878842413425446,-0.19747602939605713,0.038256965577602386,-1.5434699058532715,1.1029374599456787,0.4655687212944031,-0.30806463956832886,-0.3770017921924591,-0.14663328230381012,-0.3101235330104828,0.19434034701607264,0.19583679731217613,-0.05412186451286494,0.0027520895118156056,0.047716297962814784,-1.4421288139812969,0.982272116035988,0.6329248006306105,-0.4569072882197196,-0.7691381121162607,-0.10813806120843675,-0.08499392518929648,-3.086939811706543,-0.39495205879211426,0.07947234064340591,0.43113741278648376,-0.4140036106109619,-1.2404941320419312,0.07651393115520477,0.1375768482685089,0.45400264859199524,1.7058749198913574,-0.2761293053627014,-0.5865331292152405
0.3,0.20700012147426605,0.18602347373962402,0.12563997507095337,-0.13794898986816406,0.0713280513882637,-1.7225204706192017,1.2683507204055786,0.43576937913894653,-0.3098207712173462,-0.3931426405906677,-0.12502850592136383,-0.34365811944007874,0.23467213177723295,0.22659994669616693,-0.01612942345546949,0.04432329874000805,0.07374370869293276,-1.599394761907656,1.1433335118997379,0.6001579375638332,-0.4344816719696552,-0.7610484203068877,-0.11200271586658442,-0.07595451657376179,-3.4450409412384033,-0.2758979797363281,0.21204695105552673,0.3715387284755707,-0.44628527760505676,-1.374632477760315,0.1426561027765274,0.25127995014190674,0.5740002393722534,2.0367014408111572,-0.2796415388584137,-0.5001140236854553
0.32,0.2826782464981079,0.27053338289260864,0.1388680785894394,-0.003600738011300564,0.0874931588768959,-1.9030508995056152,1.4350792169570923,0.38983628153800964,-0.3141809105873108,-0.40532711148262024,-0.11855725944042206,-0.3691936135292053,0.25924475780231876,0.25079926327140306,0.04228583078005093,0.10188811417625493,0.09945900416674147,-1.633881753475111,1.3263317401832224,0.553192311853969,-0.3774618736564408,-0.7539026436542646,-0.11477724911436746,-0.07141098309735368,-3.8061017990112305,-0.007201476022601128,0.38106676936149597,0.2796725630760193,-0.4706542193889618,-1.4767744541168213,0.1749863177537918,0.2777361571788788,0.7253565192222595,2.3701584339141846,-0.2883618474006653,-0.47422903776168823
0.34,0.43032118678092957,0.40001538395881653,0.13740724325180054,0.18572929501533508,0.04992052912712097,-2.0894904136657715,1.5726898908615112,0.3013698160648346,-0.3085813820362091,-0.41190487146377563,-0.10952059924602509,-0.3800775706768036,0.2840402421578301,0.2681340711615314,0.10730554680502907,0.18701831782206624,0.0779843999678068,-1.6392113905514372,1.5104365911223951,0.47315170523031913,-0.33239811409657055,-0.7288308621635666,-0.11091716372384912,-0.08199420259961568,-4.178980827331543,0.37145859003067017,0.6400307416915894,0.10273964703083038,-0.4838097393512726,-1.5203102827072144,0.09984105825424194,0.2748144865036011,1.0206423997879028,2.6453797817230225,-0.2771627902984619,-0.43808239698410034
0.36,0.5553768873214722,0.5098482370376587,0.16461005806922913,0.3263704478740692,-0.012628192082047462,-2.185912609100342,1.6845102310180664,0.1974640190601349,-0.3304414749145508,-0.36720195412635803,-0.09957441687583923,-0.4006873369216919,0.3068833075448583,0.2824590104182283,0.13585578608712565,0.24841701070052016,0.025032594674428258,-1.6390155765600793,1.6535614207133391,0.40010937069820707,-0.3083752028133622,-0.7061308611131993,-0.10366757613172821,-0.10386162651578171,-4.371825218200684,0.6527408957481384,0.8596964478492737,-0.10507194697856903,-0.3944039046764374,-1.6027493476867676,-0.025256384164094925,0.32922011613845825,1.2707537412643433,2.869020462036133,-0.32088297605514526,-0.39829766750335693
0.38,0.6753486394882202,0.6187451481819153,0.16681940853595734,0.32545581459999084,-0.17343203723430634,-2.1566414833068848,1.7087020874023438,0.13684962689876556,-0.5672726035118103,-0.3168926537036896,-0.1348140686750412,-0.40181463956832886,0.3292937199625592,0.2929927548479718,0.10909120431886817,0.2445774135627937,-0.053437241847347154,-1.6385514207755965,1.7364343058533611,0.3748454570861151,-0.36589734895391374,-0.7066846225834772,-0.10344674896332293,-0.12547573967709022,-4.3132829666137695,0.6509116291999817,1.0774903297424316,-0.22630074620246887,-0.29378533363342285,-1.6072585582733154,-0.34686407446861267,0.3336388170719147,1.5106972455978394,2.9174041748046875,-0.7945451736450195,-0.5392562747001648
0.4,0.7511877417564392,0.6294095516204834,0.15207381546497345,0.2674390375614166,-0.29640501737594604,-2.1296260356903076,1.6448737382888794,0.12130475044250488,-0.7034096717834473,-0.29437056183815,-0.16242998838424683,-0.43045929074287415,0.3653378172132985,0.2951946871873443,0.07261647915712846,0.23320146840517283,-0.1677104776393265,-1.637886135762763,1.7481488030321575,0.33948537545267743,-0.48435190217462687,-0.7024910205011187,-0.11774642512325566,-0.17589414625339056,-4.259252071380615,0.5348780751228333,1.0988191366195679,-0.25739049911499023,-0.24874112010002136,-1.7218371629714966,-0.5928100347518921,0.3041476309299469,1.6623754501342773,2.789747476577759,-1.0668193101882935,-0.6497199535369873
0.42,0.7605322599411011,0.6333802342414856,0.18068422377109528,0.22910410165786743,-0.3553675413131714,-2.137132406234741,1.5575441122055054,0.1937519609928131,-0.7342636585235596,-0.29063737392425537,-0.14023728668689728,-0.46341049671173096,0.4011881685965629,0.30572361373900014,0.06108313697683197,0.22450698607993852,-0.27738748054749557,-1.6341627095224174,1.6753768407405583,0.29997435126744226,-0.5919923827303154,-0.6980612281196407,-0.12993479730260135,-0.2718683091090661,-4.274264812469482,0.45820820331573486,1.1067605018615723,-0.11249607801437378,-0.24127477407455444,-1.8536419868469238,-0.7107350826263428,0.36136844754219055,1.681064486503601,2.6150882244110107,-1.128527283668518,-0.5609491467475891
0.44,0.7321693301200867,0.6300478577613831,0.1904202252626419,0.2425726354122162,-0.3544538915157318,-2.1612093448638916,1.4745674133300781,0.2585268020629883,-0.7202070355415344,-0.31301072239875793,-0.1221277117729187,-0.5219728946685791,0.437089079098941,0.3358089611857559,0.08690069569303233,0.2188020005104164,-0.3445938638999167,-1.628276565738067,1.5506594522450956,0.2786446513299894,-0.6549877002567233,-0.6949643497199736,-0.13223712754757147,-0.3039744691874698,-4.322418689727783,0.4851452708244324,1.1000957489013672,0.017053619027137756,-0.28602147102355957,-2.0878915786743164,-0.7089077830314636,0.3808404505252838,1.6243386268615723,2.4491348266601562,-1.1004140377044678,-0.4885108470916748
0.46,0.6630531549453735,0.6073389053344727,0.15485255420207977,0.29096436500549316,-0.3173469007015228,-2.1709375381469727,1.4100717306137085,0.29678115248680115,-0.687113881111145,-0.3313446640968323,-0.1425207257270813,-0.6159507036209106,0.47439459017566654,0.38985288938491663,0.12974218854776726,0.21549432872764598,-0.35676277515649507,-1.6232967787277939,1.4245618655675538,0.2873616561901553,-0.6744303912981197,-0.7150840556080662,-0.13755195434279982,-0.29849327651917723,-4.341875076293945,0.5819287300109863,1.0546778440475464,0.09356231987476349,-0.32268935441970825,-2.4638028144836426,-0.6346938014030457,0.30970510840415955,1.486106276512146,2.320143461227417,-1.034227728843689,-0.5700829029083252
0.48,0.5639414191246033,0.5622314810752869,0.18724827468395233,0.335470974445343,-0.2689921259880066,-2.1259498596191406,1.3469070196151733,0.3273235559463501,-0.6826406121253967,-0.3778311610221863,-0.17843732237815857,-0.7298697233200073,0.5083771615929609,0.4596415470214245,0.17401743557558932,0.21388060383077076,-0.3148044916136225,-1.620916962786849,1.326649361376276,0.31372358136658,-0.6756365186938577,-0.7610108218587001,-0.15414346373317125,-0.2920990802568596,-4.251899719238281,0.670941948890686,0.9644629955291748,0.15464714169502258,-0.41566231846809387,-2.9194788932800293,-0.5379842519760132,0.37449654936790466,1.2878828048706055,2.1938140392303467,-1.0252811908721924,-0.7137492895126343
0.5,0.5340228080749512,0.5593181252479553,0.2185097634792328,0.37413010001182556,-0.2600296139717102,-1.9939864873886108,1.2456750869750977,0.33171194791793823,-0.730574369430542,-0.4439992904663086,-0.18989567458629608,-0.8028016686439514,0.5391351689725955,0.5259505641412513,0.20834165653004796,0.21340793766355945,-0.26202035213259184,-1.6212889522184106,1.2429529924661769,0.3423364364713106,-0.6880839880795812,-0.8194833263691249,-0.16973007038664212,-0.2875851961089255,-3.9879729747772217,0.7482602000236511,0.9586362838745117,0.16342389583587646,-0.5479986071586609,-3.2112066745758057,-0.5200592279434204,0.4370195269584656,1.2280455827713013,1.9913502931594849,-1.121148705482483,-0.7595826983451843
0.52,0.5406553745269775,0.584160327911377,0.21507544815540314,0.3771152198314667,-0.2743162214756012,-1.8152673244476318,1.1060559749603271,0.35169148445129395,-0.772462785243988,-0.49590250849723816,-0.16434673964977264,-0.8234137892723083,0.5592322928057588,0.5759167552165274,0.23180538153147887,0.2134890227124393,-0.24881983908352262,-1.6203014281173045,1.135372610881176,0.37914029264330423,-0.7159850335642193,-0.8643590102971699,-0.1698391688158099,-0.2823735063255269,-3.6305346488952637,0.7542304396629333,1.008320689201355,0.20338298380374908,-0.65180504322052,-3.2936551570892334,-0.5486324429512024,0.4301508963108063,1.241310715675354,1.7121120691299438,-1.204925537109375,-0.6573869585990906
0.54,0.5448294281959534,0.6130998730659485,0.16509166359901428,0.3292214274406433,-0.30640068650245667,-1.5564422607421875,0.9442682862281799,0.400709867477417,-0.8058475852012634,-0.4948823153972626,-0.1121184229850769,-0.7927277088165283,0.5653735376830247,0.6109232570419132,0.23098666679118637,0.2134347778163268,-0.2867933575639451,-1.59445341280277,0.9866636032546485,0.4090372325063354,-0.7487356884033803,-0.8930785182191745,-0.14953960793369866,-0.27825981094201874,-3.112884521484375,0.6584428548812866,1.066199779510498,0.3014197051525116,-0.6497646570205688,-3.1709108352661133,-0.6128013730049133,0.33018332719802856,1.2496588230133057,1.3885365724563599,-1.2716951370239258,-0.4484736919403076
0.56,0.4700261652469635,0.577750563621521,0.033102016896009445,0.21718019247055054,-0.3347666561603546,-1.2178786993026733,0.7904857397079468,0.4246983528137207,-0.7475201487541199,-0.40954115986824036,-0.0433267280459404,-0.7000654935836792,0.5549862541869052,0.6352686814859477,0.2074398076786332,0.21181872863813364,-0.3496848498824107,-1.4020840959560918,0.8122559008573659,0.42625472506172407,-0.7571826667497196,-0.8971613294842338,-0.1113914628408915,-0.25456271860916013,-2.4357573986053467,0.4343603849411011,0.9955011606216431,0.3493967056274414,-0.479082316160202,-2.800261974334717,-0.6695333123207092,0.06620403379201889,1.1000523567199707,1.0809714794158936,-1.1550402641296387,-0.1733069121837616
0.58,0.35114163160324097,0.47403860092163086,-0.06516380608081818,0.05392453074455261,-0.3391910791397095,-1.0283130407333374,0.7807539701461792,0.34358805418014526,-0.49964359402656555,-0.22103910148143768,0.03022782690823078,-0.4817819595336914,0.5435215980990428,0.6501542398013185,0.14306585081412118,0.18668343036565907,-0.38044133800028146,-1.134007376799753,0.6893083599805538,0.40734921078165337,-0.6829448733822457,-0.8977459751044201,-0.05880797832834332,-0.24864649939664266,-2.056626081466675,0.10784906148910522,0.788077175617218,0.18717613816261292,-0.10207821428775787,-1.9271278381347656,-0.678382158279419,-0.13032761216163635,0.8622832894325256,1.0615079402923584,-0.6592872142791748,0.12091130763292313
0.6,0.33469563722610474,0.41882944107055664,-0.036705877631902695,0.0530993826687336,-0.31319406628608704,-1.0612280368804932,0.7977701425552368,0.34185492992401123,-0.338765025138855,-0.06029824912548065,0.07602349668741226,-0.2912510931491852,0.5489024723236947,0.6488830154340174,0.06113251616949595,0.14359743297337177,-0.34948679965262763,-1.0164585940916322,0.6691643269002613,0.36412405166405654,-0.5489663439727654,-0.8902695119310968,-0.000307028467143664,-0.2560501813225232,-2.1224560737609863,0.1061987653374672,0.6776588559150696,0.18370985984802246,0.21940350532531738,-1.1650043725967407,-0.6263881325721741,-0.07341175526380539,0.8293913006782532,1.0955402851104736,-0.33753007650375366,0.30409398674964905
0.62,0.3520229458808899,0.438585489988327,0.003500528633594513,0.09954877942800522,-0.2675507068634033,-1.189895749092102,0.8005506992340088,0.40471845865249634,-0.4118565022945404,0.08863292634487152,0.08857402205467224,-0.26387763023376465,0.5436361739878247,0.6361077306025431,0.01459417467336544,0.11193268826840186,-0.29301437083308673,-1.0853765341316182,0.7128600796353083,0.34897136393753475,-0.45926371314318565,-0.8593002030778127,0.04618621211107657,-0.25799984333288845,-2.379791498184204,0.19909755885601044,0.7171709537506104,0.3094369173049927,0.5172658562660217,-1.0555105209350586,-0.5351014137268066,0.007001057267189026,0.8640459179878235,1.1011013984680176,-0.4837130308151245,0.35429608821868896
0.64,0.3269272446632385,0.41386541724205017,-0.04632042348384857,0.10847458988428116,-0.23066869378089905,-1.3698471784591675,0.8242436647415161,0.4182097911834717,-0.4533795416355133,0.10365311801433563,0.05755285546183586,-0.319456547498703,0.5190333775745333,0.6107467518198517,-0.0040991360595019535,0.09919970311052995,-0.2520493172342982,-1.2691550134418106,0.7668610450942116,0.3622012689021388,-0.43618597035901996,-0.8034104014243048,0.06162161985481155,-0.2505674442925562,-2.739694356918335,0.21694917976856232,0.6677308082580566,0.33641955256462097,0.54730623960495,-1.277826189994812,-0.4613373875617981,-0.09264084696769714,0.8138545155525208,1.1484873294830322,-0.5667591094970703,0.23021142184734344
0.66,0.3060590922832489,0.38282209634780884,-0.07262814044952393,0.07520214468240738,-0.18890441954135895,-1.5160057544708252,0.8971967697143555,0.3955373764038086,-0.39676132798194885,0.03415641188621521,0.014807341620326042,-0.33137887716293335,0.48495599020491065,0.5738491592714065,-0.0135941744299673,0.09270975285388044,-0.21417892464516444,-1.4650360567267626,0.8239332896750584,0.37673718088754077,-0.4256270956553877,-0.7388078964996091,0.04678455886277605,-0.22865880149610038,-3.0320115089416504,0.15040428936481476,0.605644166469574,0.2910747826099396,0.4083128273487091,-1.3255155086517334,-0.3778088390827179,-0.14525628089904785,0.7721182107925415,1.294393539428711,-0.4535226821899414,0.05922936648130417
0.68,0.34961381554603577,0.40181633830070496,-0.04142364114522934,0.03255223110318184,-0.17015507817268372,-1.6907089948654175,1.0134837627410889,0.34974464774131775,-0.3752836585044861,-0.002568347379565239,-0.017846327275037766,-0.3101734220981598,0.45328958893713933,0.529181132638009,-0.017544228221833734,0.09527053292699335,-0.17755635077279242,-1.6224869999996963,0.9159442740634169,0.37395491457561547,-0.4077497290952977,-0.6751425434160317,0.019237195281695114,-0.22147136338628293,-3.381417989730835,0.06510446220636368,0.6436326503753662,0.1994892954826355,0.3348633050918579,-1.2406936883926392,-0.34031015634536743,-0.08284728229045868,0.8592276573181152,1.5269674062728882,-0.41056734323501587,-0.07138530910015106
0.7000000000000001,0.4641896188259125,0.4701147675514221,-0.0004163961857557297,0.05020246282219887,-0.18682590126991272,-1.9475420713424683,1.1805229187011719,0.26585444808006287,-0.4315773844718933,0.0056561995297670364,-0.0219242125749588,-0.3035171627998352,0.43607555195401654,0.48510484084732364,-0.01144922317532287,0.12210069007880535,-0.16137069104388932,-1.6499279619469083,1.073037134981241,0.33625162207085646,-0.4063474467553849,-0.6059068730903309,-0.0001840673388335328,-0.2094904004882838,-3.8950841426849365,0.10040492564439774,0.7802295088768005,0.03170887008309364,0.35131239891052246,-1.2140686511993408,-0.37365180253982544,-0.0008327923715114594,1.0883792638778687,1.8610458374023438,-0.5231547951698303,-0.0876968502998352
0.72,0.5997735261917114,0.5521236062049866,0.024701204150915146,0.11303943395614624,-0.22067295014858246,-2.1811211109161377,1.3874201774597168,0.1389596164226532,-0.5319851636886597,0.04251167178153992,-0.004772711545228958,-0.3169085681438446,0.4417865161964568,0.4505551601831832,-0.01182927662686278,0.1849573507122899,-0.17239075823768532,-1.6427090833473579,1.2908108115357524,0.25753385608340235,-0.43784186946259523,-0.5257547055317447,-0.0027743078524537237,-0.26860738864559874,-4.362242221832275,0.22607886791229248,0.9442471861839294,-0.2220807671546936,0.4250233471393585,-1.2676342725753784,-0.4413459002971649,0.04940240830183029,1.3595470190048218,2.2748403549194336,-0.723970353603363,-0.019090846180915833
0.74,0.6952563524246216,0.6059001088142395,0.04828239977359772,0.14053550362586975,-0.24205628037452698,-2.336106538772583,1.5994484424591064,0.0092000812292099,-0.6459357738494873,0.08143694698810577,-0.00041748490184545517,-0.3428548574447632,0.45390709372927085,0.4236140927293637,-0.03193774960755173,0.2380737262254426,-0.16951743418922494,-1.6308066419282328,1.5184363055605463,0.1677215166921778,-0.5029691784312469,-0.46160100006096066,0.003405552756811272,-0.2923786574894301,-4.672213077545166,0.2810710072517395,1.05180025100708,-0.4815998375415802,0.5028738975524902,-1.3714194297790527,-0.48411256074905396,0.09656479954719543,1.550512671470642,2.698896884918213,-0.9518715739250183,-0.0016699396073818207
0.76,0.8146801590919495,0.6849697828292847,0.06764747947454453,0.16139793395996094,-0.32088473439216614,-2.413363456726074,1.7567657232284546,-0.062163978815078735,-1.0275955200195312,0.06300139427185059,0.005311880726367235,-0.3341478705406189,0.47149073236191746,0.39964782939634846,-0.08199409962211561,0.23649571235667396,-0.1623336245543695,-1.6219348354409029,1.7231552652426632,0.10479803346136549,-0.6702186753194619,-0.44116685710155035,0.01673734427043221,-0.287275715684539,-4.826726913452148,0.3227958679199219,1.2099395990371704,-0.6243279576301575,0.46600279211997986,-1.3365914821624756,-0.6417694687843323,0.13529495894908905,1.7893602848052979,3.013531446456909,-1.7151910066604614,0.02124752290546894
0.78,0.8978575468063354,0.7082112431526184,0.05718955397605896,0.11179739236831665,-0.3793925344944,-2.511469602584839,1.864010214805603,-0.13830259442329407,-1.1932011842727661,0.06048564612865448,0.01993647590279579,-0.3436833620071411,0.506511549125223,0.38438548934332273,-0.13087209236382835,0.22739915158325336,-0.1946440867887622,-1.6098939317128629,1.8961269797613327,0.02951189932817977,-0.8877561319905832,-0.4187067533724515,0.03263179249569193,-0.28091918980552616,-5.022939205169678,0.2235947847366333,1.256422519683838,-0.7766051888465881,0.46097129583358765,-1.3747334480285645,-0.7587850689888,0.11437910795211792,1.9557150602340698,3.228020429611206,-2.0464024543762207,0.07974590361118317
0.8,0.9568461775779724,0.7609752416610718,0.1017116978764534,0.0812995433807373,-0.3918747007846832,-2.654050588607788,1.95265531539917,-0.15573111176490784,-1.3168249130249023,0.10177133977413177,0.03050404042005539,-0.3851015865802765,0.5512129977008046,0.3941456428504128,-0.1392365499023421,0.21776739262694325,-0.25653930498356753,-1.6001196394117732,2.022058935827308,-0.026819282047545207,-0.9492556325708613,-0.33759814972602115,0.043390576332490015,-0.2769874854232205,-5.308101177215576,0.1625990867614746,1.3619505167007446,-0.8114622235298157,0.5435426831245422,-1.540406346321106,-0.7837494015693665,0.2034233957529068,2.0736923217773438,3.40531063079834,-2.293649911880493,0.12201616168022156
0.8200000000000001,0.9364272952079773,0.8105875849723816,0.15557605028152466,0.15221817791461945,-0.37845730781555176,-2.8230197429656982,1.960689663887024,-0.18520855903625488,-1.3305542469024658,0.2981875538825989,0.04723021015524864,-0.45027992129325867,0.5905774054279702,0.4424027694295857,-0.08122012292587055,0.20682244004754452,-0.32225803710239814,-1.5918736806731386,2.079859816370336,-0.027724382285827777,-0.9332961880757233,-0.19481459604194032,0.048396274307984405,-0.27601216424541597,-5.6460394859313965,0.3044363558292389,1.4611752033233643,-0.8704171180725098,0.936375081539154,-1.8011196851730347,-0.7569146156311035,0.3111521005630493,2.0328545570373535,3.421379327774048,-2.32110857963562,0.18892084062099457
0.84,0.8988142609596252,0.7952145338058472,0.12518249452114105,0.18789483606815338,-0.39168503880500793,-2.8466176986694336,1.9171223640441895,-0.23200762271881104,-1.3439818620681763,0.43425849080085754,0.014848321676254272,-0.495490163564682,0.6414934811491121,0.511686037150952,0.0011332753776323303,0.18952857267142068,-0.37955701642244344,-1.602391769607685,2.0487863285946184,-0.022330160307414883,-0.9150366546110386,0.09163139848398885,0.03831623663882049,-0.27515399647578836,-5.693235397338867,0.37578967213630676,1.4304291009902954,-0.9640152454376221,1.2085169553756714,-1.981960654258728,-0.7833700776100159,0.2503649890422821,1.9576284885406494,3.334244728088379,-2.347963809967041,0.05939328670501709
0.86,0.8182064890861511,0.761046290397644,0.09758634865283966,0.14428351819515228,-0.35176974534988403,-2.7472524642944336,1.8465255498886108,-0.2304401993751526,-1.365248203277588,0.6099262237548828,-0.01749318651854992,-0.5080781579017639,0.692925328679615,0.5944299157136592,0.06694500430626411,0.15011168609889297,-0.39608011229419515,-1.6115317768407924,1.9376963354755041,-0.018856631214250703,-0.9044566729961324,0.3510594246356194,0.011765265037959957,-0.27497664256570997,-5.494504928588867,0.28856703639030457,1.3620926141738892,-0.9608803987503052,1.5598524808883667,-2.0323126316070557,-0.7035394906997681,0.19517269730567932,1.7964129447937012,3.1930510997772217,-2.3904964923858643,-0.06997274607419968
0.88,0.7387316226959229,0.7112060189247131,0.05116642639040947,0.12177126109600067,-0.3032739460468292,-2.597837209701538,1.75095796585083,-0.18224340677261353,-1.3204330205917358,0.7640385031700134,-0.023541245609521866,-0.49760308861732483,0.7414482225255122,0.6743411181523552,0.10058368256583124,0.09352024279704706,-0.3664283905825454,-1.6170395523873269,1.7882732331821691,-0.016383813904058908,-0.8988049074225767,0.555018400531793,-0.012172816305174063,-0.2747694043150336,-5.195674419403076,0.24354252219200134,1.2624120712280273,-0.864486813545227,1.868077039718628,-1.9904123544692993,-0.6065478920936584,0.10233285278081894,1.6374632120132446,3.00191593170166,-2.30086612701416,-0.09416498243808746
0.9,0.6667191386222839,0.6707136631011963,-0.01270348485559225,0.10936842858791351,-0.257718950510025,-2.4313127994537354,1.6133766174316406,-0.10403236746788025,-1.2348753213882446,0.929652750492096,-0.018366267904639244,-0.47404906153678894,0.7803158415412037,0.7444247646936195,0.09754183350594108,0.0392020034487989,-0.3162641431852361,-1.6199599626339845,1.6273434441304608,-0.013288469145462022,-0.8947921509324396,0.5954626839571959,-0.02253029928583617,-0.2740893843381491,-4.862625598907471,0.21873685717582703,1.1814273595809937,-0.7080647349357605,2.199305534362793,-1.8961962461471558,-0.51543790102005,-0.0254069697111845,1.4934382438659668,2.7267532348632812,-2.1297507286071777,-0.07346507161855698
0.92,0.5925085544586182,0.6298271417617798,-0.0773945078253746,0.08974959701299667,-0.22925704717636108,-2.266268253326416,1.4317458868026733,-0.0043399035930633545,-1.1313625574111938,1.0647879838943481,-0.018404295668005943,-0.4427642822265625,0.796132189336675,0.7937391968205706,0.05985074977294599,-0.011436301146505446,-0.2859230315583921,-1.6215105065631963,1.5402651006297774,-0.009266443485997531,-0.9041438020202724,0.5802248323468212,0.026494061341510767,-0.2729203439271239,-4.532536506652832,0.17949919402599335,1.0996543169021606,-0.5086798071861267,2.469575881958008,-1.77105712890625,-0.45851409435272217,-0.1547890156507492,1.3450170755386353,2.3634917736053467,-1.9227250814437866,-0.07361718267202377
0.9400000000000001,0.5179026126861572,0.6122645139694214,-0.1390112191438675,0.08098526298999786,-0.23358787596225739,-2.0308074951171875,1.2032707929611206,0.09044429659843445,-1.2457621097564697,1.0318729877471924,0.007419134024530649,-0.40453970432281494,0.764396424025005,0.8037718687667665,-0.019806163418425525,-0.07483888749714909,-0.2733192695811092,-1.622529519447493,1.5011280631276855,0.008826244741040807,-0.9280043970851997,0.5647558003983427,0.14975690610550596,-0.2713606205150329,-4.061614990234375,0.16197052597999573,1.0645290613174438,-0.3191114068031311,2.4037458896636963,-1.6181588172912598,-0.46717575192451477,-0.278022438287735,1.1958051919937134,1.9065415859222412,-2.151524305343628,0.029676536098122597
0.96,0.2852514386177063,0.5394001007080078,-0.20887932181358337,0.08466456830501556,-0.2914922535419464,-1.7188711166381836,1.0972404479980469,0.19239318370819092,-1.0823757648468018,0.9260708689689636,0.06424328684806824,-0.40601685643196106,0.6685799768601407,0.794757577479557,-0.10031661349666804,-0.11423372849598523,-0.2985031543697706,-1.6139138746076567,1.3147091447690766,0.06868538486999835,-0.9389133172660964,0.5537241000033486,0.2348373639803403,-0.2701257671275868,-3.437742233276367,0.16932913661003113,0.9188002347946167,-0.11521361768245697,2.1921417713165283,-1.6240674257278442,-0.5829845070838928,-0.41775864362716675,0.7305029034614563,1.6944807767868042,-1.8247514963150024,0.25697314739227295
0.98,0.06120355427265167,0.4879610538482666,-0.24749347567558289,0.017090629786252975,-0.3712708055973053,-1.3953651189804077,0.9898447394371033,0.14382801949977875,-1.1059677600860596,0.759909987449646,0.08597671985626221,-0.36368894577026367,0.5110427205827013,0.7624048571134189,-0.1313683303339136,-0.11750758104127139,-0.37769369096545363,-1.4596197078770337,1.0514050756239115,0.11874367216189742,-0.9316132848278612,0.545501832660709,0.2237714003784157,-0.26877599083326575,-2.7907302379608154,0.03418125957250595,0.8159220814704895,-0.2123439610004425,1.859820008277893,-1.4547557830810547,-0.7425416111946106,-0.49498695135116577,0.28240710496902466,1.4796894788742065,-1.8719356060028076,0.34390687942504883
1.0,-0.04251444339752197,0.5587216019630432,-0.12404386699199677,-0.022043906152248383,-0.534870982170105,-1.0701076984405518,0.8503081202507019,0.036851122975349426,-1.1171846389770508,0.5923100113868713,0.09765220433473587,-0.3370859920978546,0.322413696854751,0.7138413925353897,-0.1254420953878514,-0.11277325236478702,-0.49991618124601905,-1.1696835587934473,0.8248875954324694,0.09996115951083791,-0.9122675471814584,0.5384047069858594,0.1568368163344167,-0.26735611068460696,-2.1402153968811035,-0.044087812304496765,0.9574431777000427,-0.42629775404930115,1.5246200561523438,-1.3483439683914185,-1.06974196434021,-0.24808773398399353,0.07497110962867737,1.2006162405014038,-1.8943692445755005,0.3906088173389435
1.02,0.5711668133735657,0.6720184087753296,0.16806660592556,0.0038129983004182577,-0.8986496329307556,-0.9906654953956604,1.1190202236175537,-0.3042110800743103,-0.9822152853012085,0.38350751996040344,0.2854665517807007,0.029921695590019226,0.3232086549017817,0.5761261652604834,-0.1910373152962557,-0.19554632645406514,-0.5890860283677318,-1.0181963277389534,0.8743322523863188,-0.07207183549125908,-0.8949409721402806,0.5066648685585234,0.18690607776712903,-0.1725982423939409,-1.9813309907913208,0.007625996600836515,1.1840368509292603,-1.1084221601486206,1.1070150136947632,0.1196867823600769,-1.7972992658615112,0.33613321185112,1.3023335933685303,1.7380403280258179,-1.624430537223816,1.1418662071228027
1.04,0.6394323110580444,0.6822402477264404,0.017025452107191086,-0.07337411493062973,-0.6544472575187683,-1.6200262308120728,1.0879065990447998,-0.12524661421775818,-1.1037591695785522,0.5060462355613708,0.18335963785648346,-0.038723304867744446,0.34949568198932557,0.49530455889801694,-0.191094663923113,-0.18360134392604058,-0.6383852554217554,-1.3315598421091337,1.0226009032864645,-0.09294127332331958,-0.8868701368053978,0.4414879058758112,0.21742050934140822,-0.10100758255149953,-3.2400524616241455,-0.14674822986125946,1.204480528831482,-0.7504932284355164,1.3520925045013428,-0.15489321947097778,-1.3088945150375366,0.03405090421438217,1.4388645887374878,1.6758133172988892,-1.8675183057785034,0.7334385514259338
1.06,0.41783004999160767,0.43150341510772705,0.11049529910087585,0.034677185118198395,-0.3499636650085449,-2.006075143814087,1.0869667530059814,0.07049739360809326,-0.3594757914543152,0.28493016958236694,0.031902119517326355,-0.2101316601037979,0.3644278859218111,0.4481236826397798,-0.09230639944813526,-0.1512472746233437,-0.48854891268478146,-1.7592962467346178,1.1276856276124645,-0.04807123876479056,-0.7337495786978718,0.3631002188949073,0.15590033040148504,-0.11558756834252233,-4.012150287628174,0.06935437023639679,0.7030068039894104,-0.3590052127838135,0.9098603129386902,-0.8405266404151917,-0.6999273300170898,0.2209905982017517,0.995660126209259,1.6739333868026733,-0.3789516091346741,0.12760847806930542
1.08,0.4776947796344757,0.4135187268257141,0.15069375932216644,0.15289698541164398,-0.28559914231300354,-2.3370964527130127,1.2012431621551514,0.12503983080387115,-0.17033208906650543,0.23746247589588165,0.03970407322049141,-0.4070381224155426,0.3941086436468649,0.4134601810636057,0.03560228070476396,-0.10038751077373628,-0.3305412014877761,-1.774195969027239,1.2133746822763103,0.035656763946167264,-0.47979605869781133,0.28607861051847994,0.0896192742984929,-0.2177010437990229,-4.674192905426025,0.30579397082328796,0.6670374274253845,-0.2499203383922577,0.814924955368042,-1.6281524896621704,-0.5711982846260071,0.3013875186443329,1.1153895854949951,1.9024862051010132,-0.0006641671061515808,0.15881629288196564
1.1,0.48780038952827454,0.4328779876232147,0.15677613019943237,0.2315572053194046,-0.2153118997812271,-2.462301015853882,1.3426439762115479,0.06521633267402649,-0.3535941541194916,0.346816748380661,0.062060318887233734,-0.4826916754245758,0.42417796956068793,0.4040774002728773,0.1316249618343933,-0.024337050152615065,-0.25381630478682987,-1.7149459258954336,1.3227698992199572,0.070717913934991,-0.34248295670340756,0.28764713060006536,0.06182550983563661,-0.3074029931783158,-4.924602031707764,0.4631144106388092,0.7057559490203857,-0.369567334651947,1.0336334705352783,-1.9307667016983032,-0.4306237995624542,0.31355226039886475,1.1356008052825928,2.1852879524230957,-0.36718833446502686,0.24824127554893494
1.12,0.5914187431335449,0.47673436999320984,0.1769248992204666,0.30567532777786255,-0.20184969902038574,-2.5155651569366455,1.5606862306594849,-0.022565841674804688,-0.422268807888031,0.2851768136024475,-0.000956997275352478,-0.622221827507019,0.4515593147232517,0.38890329603301577,0.18741412770490695,0.07947603837491109,-0.264389535541235,-1.6700658410106308,1.43843059529006,0.029193835425882306,-0.3486338389997956,0.3074885247459872,0.03966980908557232,-0.30837134627331525,-5.031130313873291,0.6113506555557251,0.793468713760376,-0.5451316833496094,0.9103536009788513,-2.488887310028076,-0.4036993980407715,0.3538497984409332,1.3428374528884888,2.6213724613189697,-0.5045376420021057,-0.003827989101409912
1.1400000000000001,0.6686216592788696,0.5462806224822998,0.19113433361053467,0.24315117299556732,-0.19321505725383759,-2.4608922004699707,1.7486937046051025,-0.11651712656021118,-0.7292503118515015,0.11970432102680206,-0.11141408979892731,-0.6609146595001221,0.47744490853525445,0.38429598054154845,0.21767128543151995,0.17500382568076667,-0.2698902663704605,-1.6448839935640256,1.6132020484232492,-0.02551297139309726,-0.47755765045588117,0.25640873252937363,-0.023300320299007474,-0.2979627670968668,-4.921784400939941,0.48630234599113464,0.9325612187385559,-0.7330342531204224,0.5794086456298828,-2.6436586380004883,-0.38643011450767517,0.38226866722106934,1.4972432851791382,2.997387409210205,-1.1185005903244019,-0.44565635919570923
1.16,0.7229606509208679,0.5565767884254456,0.21955865621566772,0.2520104646682739,-0.22934864461421967,-2.4859399795532227,1.8748763799667358,-0.18082842230796814,-0.7371751070022583,-0.007913647219538689,-0.17288987338542938,-0.7172396183013916,0.5019233661214185,0.3773798490982109,0.21653170468309524,0.22202698845366878,-0.25793454484979084,-1.6322343011939584,1.805773757947898,-0.026979615945358047,-0.6199367215745583,0.1469759779362475,-0.093308946477312,-0.29166286411903686,-4.971879959106445,0.5040209293365479,0.9531535506248474,-0.8616568446159363,0.324172705411911,-2.8689584732055664,-0.45869728922843933,0.43911731243133545,1.6059212684631348,3.2497527599334717,-1.1343501806259155,-0.6915594935417175
1.18,0.7787575721740723,0.6340752243995667,0.20570477843284607,0.22038213908672333,-0.2933146357536316,-2.5082130432128906,1.9318939447402954,-0.20545843243598938,-1.0786211490631104,-0.08058151602745056,-0.1928253024816513,-0.698987603187561,0.5187594447131215,0.382130146226128,0.18873264930708972,0.22512018435295578,-0.24363988428482694,-1.6260692424380205,1.9629806498406475,-0.018741085012051833,-0.7873877906675392,0.042520811680874744,-0.14319743070650295,-0.2886110438327921,-5.016426086425781,0.44076427817344666,1.1081504821777344,-0.9109168648719788,0.17883697152137756,-2.795950412750244,-0.5866292715072632,0.41140955686569214,1.7175151109695435,3.363787889480591,-1.8172423839569092,-0.7713012099266052
1.2,0.7643626928329468,0.6412333846092224,0.18095627427101135,0.19345973432064056,-0.3105602562427521,-2.5685653686523438,1.9477081298828125,-0.2195499837398529,-1.1414135694503784,-0.04952869564294815,-0.2090868055820465,-0.7430103421211243,0.5277171860277722,0.395256019034357,0.16634545328646394,0.21679355437903824,-0.2608304563699043,-1.6231467819401095,2.057148477578375,-0.014547127763619603,-0.9362461130963434,-0.016942303764715526,-0.1716461972581784,-0.2876920984198341,-5.1371307373046875,0.38691946864128113,1.122466802597046,-0.9390999674797058,0.24094261229038239,-2.972041368484497,-0.6211205124855042,0.3619125485420227,1.6887253522872925,3.395416259765625,-1.9428271055221558,-0.836347222328186
1.22,0.7398626804351807,0.6950628161430359,0.17739255726337433,0.2008618712425232,-0.30123385787010193,-2.697347402572632,1.9689629077911377,-0.19097048044204712,-1.1889235973358154,0.019151197746396065,-0.15841470658779144,-0.8008289933204651,0.5165050167112657,0.4159699227059488,0.16461077374950936,0.2085689791957075,-0.29779433000286587,-1.6218293088233173,2.0736599576982013,-0.01317851444115151,-0.9428617040035776,-0.02036797632905618,-0.17590343924238375,-0.28858979282823743,-5.394694805145264,0.4017237424850464,1.2301256656646729,-0.8819409608840942,0.3783023953437805,-3.2033159732818604,-0.6024677157402039,0.35478511452674866,1.6397253274917603,3.4379258155822754,-2.0378472805023193,-0.6336588263511658
1.24,0.7258815765380859,0.7064999938011169,0.20594234764575958,0.25919869542121887,-0.31394946575164795,-2.784005880355835,1.9564467668533325,-0.17836511135101318,-1.1389201879501343,0.07041017711162567,-0.14222367107868195,-0.8627434968948364,0.518578067633664,0.45286036854772843,0.1782899765480543,0.2099863834666095,-0.3271256020382603,-1.624160647774212,2.040126554636168,-0.012543685811932269,-0.92043869080267,-0.0008187171876063666,-0.164201342402184,-0.28263230650977467,-5.56801176071167,0.5183973908424377,1.253000020980835,-0.8567302227020264,0.48082035779953003,-3.4509739875793457,-0.6278989315032959,0.41188469529151917,1.6117631196975708,3.412893533706665,-1.937840461730957,-0.5688946843147278
1.26,0.7070537805557251,0.704394519329071,0.19488763809204102,0.2524360120296478,-0.3150835931301117,-2.791424036026001,1.9307390451431274,-0.18510288000106812,-1.1532267332077026,0.11718110740184784,-0.14119921624660492,-0.8659387230873108,0.5341926762183958,0.49269694880792914,0.1965549991759249,0.2108206559836509,-0.33731521067644465,-1.623345106552129,1.9817840885214215,-0.012063564323468908,-0.9033616326998405,0.04854026237122223,-0.15462522653793243,-0.28654317879841773,-5.582848072052002,0.5048720240592957,1.2487890720367432,-0.8702057600021362,0.5743622183799744,-3.463754892349243,-0.6301671862602234,0.38977527618408203,1.5741075277328491,3.361478090286255,-1.9664534330368042,-0.5647968649864197
1.28,0.6838951706886292,0.6901200413703918,0.20557768642902374,0.2636808753013611,-0.30350619554519653,-2.7766222953796387,1.9097497463226318,-0.18113869428634644,-1.0676329135894775,0.1418852061033249,-0.1421792060136795,-0.8879908323287964,0.5522293502319461,0.5314982527214356,0.21372947105446,0.20774939157909128,-0.3335359849429614,-1.6224423111168498,1.9292188269253319,-0.011854389878844662,-0.8933542205951307,0.09638499321359456,-0.1468523285507023,-0.29050381491792,-5.553244590759277,0.5273617506027222,1.2202401161193848,-0.8622773885726929,0.6237704157829285,-3.5519633293151855,-0.6070123910903931,0.4111553728580475,1.5277903079986572,3.3194994926452637,-1.7952659130096436,-0.568716824054718
1.3,0.672184407711029,0.7019330859184265,0.17148897051811218,0.24226444959640503,-0.2923946976661682,-2.740539312362671,1.884207844734192,-0.1726287603378296,-1.1117801666259766,0.17718462646007538,-0.1377774477005005,-0.8664364218711853,0.5695170105160398,0.5667193443539563,0.22625618757362131,0.20748625921529532,-0.32871984221469447,-1.6219244462121345,1.8969454440726918,-0.011827917313975513,-0.8880913167442471,0.13570988807871792,-0.14378945804453713,-0.29266261668271176,-5.481078624725342,0.48452889919281006,1.243866205215454,-0.8452575206756592,0.6943692564964294,-3.465745687484741,-0.5847893953323364,0.34297794103622437,1.504368782043457,3.268415689468384,-1.883560299873352,-0.551109790802002
1.32,0.6477934122085571,0.6803876161575317,0.18015338480472565,0.24752210080623627,-0.2753354012966156,-2.712925672531128,1.8811739683151245,-0.16129767894744873,-0.9902034401893616,0.19116316735744476,-0.1380670666694641,-0.8924323320388794,0.5937953605440548,0.6055923070785536,0.22830003074962052,0.21117417936476138,-0.30975567129205905,-1.6216334458892794,1.8759084937794013,-0.0014988055610928351,-0.884040390199713,0.16897917317949757,-0.14336799979059028,-0.29387519211035185,-5.425851345062256,0.49504420161247253,1.2007752656936646,-0.8225953578948975,0.7223263382911682,-3.5697293281555176,-0.5506708025932312,0.3603067696094513,1.4555867910385132,3.262347936630249,-1.640406847000122,-0.5522682666778564
1.34,0.6593284606933594,0.6777632236480713,0.18461187183856964,0.25282022356987,-0.2676297426223755,-2.6627211570739746,1.8839035034179688,-0.17021942138671875,-0.9739339351654053,0.17256535589694977,-0.15180671215057373,-0.8873394727706909,0.6115365605187508,0.6289746987183779,0.2267409379697512,0.2107954906801194,-0.2763916309406283,-1.621307058630238,1.8632745842451381,-0.0009407508314214828,-0.8813248708013707,0.19032829589241718,-0.14304991669954215,-0.2945267437419986,-5.325442314147949,0.50564044713974,1.1955264806747437,-0.8404388427734375,0.6851307153701782,-3.5493578910827637,-0.535259485244751,0.3692237436771393,1.4786568880081177,3.2678070068359375,-1.6078678369522095,-0.6072268486022949
1.36,0.6931833028793335,0.7364946007728577,0.14514094591140747,0.22230149805545807,-0.2908956706523895,-2.621086359024048,1.8633323907852173,-0.15078020095825195,-1.15314519405365,0.17993755638599396,-0.13871634006500244,-0.832273542881012,0.6173650870217948,0.644036445607904,0.21783482537551313,0.21046782046453394,-0.2625123767011584,-1.620973718145723,1.863324114587412,-0.0020321061921402817,-0.8819697813109455,0.20297206923348393,-0.138268149592653,-0.2940199026776081,-5.242172718048096,0.44460299611091614,1.3129892349243164,-0.8015604019165039,0.6998751163482666,-3.329094171524048,-0.581791341304779,0.29028189182281494,1.546366572380066,3.2266647815704346,-1.9662904739379883,-0.5548653602600098
1.3800000000000001,0.6870753765106201,0.724714457988739,0.12417460232973099,0.19479502737522125,-0.28370264172554016,-2.6566505432128906,1.8557449579238892,-0.14588060975074768,-1.0447642803192139,0.23808805644512177,-0.10683189332485199,-0.8283883333206177,0.6219790408223722,0.6527791367070468,0.21404107095560154,0.21035448821971806,-0.2619669555201608,-1.6207277180565371,1.8704917400949306,-0.0014981015722674747,-0.8823411700907904,0.22738378367767564,-0.12429087863930985,-0.2931574915864985,-5.313301086425781,0.3895900547504425,1.289428949356079,-0.7917612195014954,0.8161761164665222,-3.3135533332824707,-0.5674052834510803,0.24834920465946198,1.5341507196426392,3.2114899158477783,-1.7495286464691162,-0.42732757329940796
1.4000000000000001,0.6891652941703796,0.7217174172401428,0.11614072322845459,0.19057686626911163,-0.27207595109939575,-2.651003122329712,1.8527884483337402,-0.15148863196372986,-1.0660688877105713,0.25888592004776,-0.09628389030694962,-0.7899173498153687,0.6280140293660582,0.6583163471193855,0.2109435677452387,0.20903220639319983,-0.2625173881931038,-1.620810192134609,1.8723580993540776,-0.0005202561702721243,-0.88205067077545,0.25201471627999744,-0.10909897921044663,-0.2920251165232722,-5.302006244659424,0.38115373253822327,1.2834348678588867,-0.8029772639274597,0.8577718138694763,-3.1596693992614746,-0.5441519021987915,0.23228144645690918,1.5383305549621582,3.2055768966674805,-1.7921377420425415,-0.38513556122779846
1.42,0.6821414828300476,0.7154642939567566,0.11195600032806396,0.18404297530651093,-0.2635302245616913,-2.6623599529266357,1.8489844799041748,-0.15660837292671204,-1.055662989616394,0.2827455699443817,-0.08345241844654083,-0.7660633325576782,0.6325202592009139,0.6627121566051395,0.20840647410790653,0.2072031328501082,-0.25975502664777306,-1.620977596319843,1.8680372062164514,-0.0015581607682991726,-0.8817992471076178,0.2753684913209594,-0.09588480531801762,-0.2906929507704293,-5.3247199058532715,0.36808595061302185,1.2709286212921143,-0.8132167458534241,0.9054911136627197,-3.064253330230713,-0.5270604491233826,0.22391200065612793,1.5242829322814941,3.1979689598083496,-1.771325945854187,-0.33380967378616333
1.44,0.6845412254333496,0.7169100642204285,0.11717990785837173,0.18167376518249512,-0.2606741487979889,-2.6716372966766357,1.8571157455444336,-0.15264105796813965,-1.0597797632217407,0.28336194157600403,-0.08008015900850296,-0.7552787065505981,0.6368034232017151,0.6663166411104388,0.2072374890030538,0.2061195779873572,-0.253996327835452,-1.621043155798229,1.8640464972826083,0.00013467587844350062,-0.8816513348504104,0.293655136363678,-0.08597853240267693,-0.2895318922144907,-5.3432745933532715,0.36334753036499023,1.273820161819458,-0.8052821159362793,0.9067238569259644,-3.0211148262023926,-0.5213482975959778,0.23435981571674347,1.5290824174880981,3.214231491088867,-1.7795594930648804,-0.32032063603401184
1.46,0.6864483952522278,0.7134426832199097,0.12040704488754272,0.181906059384346,-0.25602588057518005,-2.6857175827026367,1.8653699159622192,-0.15713077783584595,-1.0477885007858276,0.2877362072467804,-0.07733634859323502,-0.7524328827857971,0.6420973236716908,0.6688914169614715,0.20660611994369107,0.207665146792826,-0.2474384732037859,-1.6210325272544313,1.8649424086692696,1.4636144296558114e-05,-0.8814440958025457,0.3077606404548147,-0.07957985201920757,-0.2887181122356663,-5.371435165405273,0.363812118768692,1.2668853998184204,-0.8142615556716919,0.9154723882675171,-3.0097315311431885,-0.5120517611503601,0.24081408977508545,1.5328967571258545,3.2307398319244385,-1.7555769681930542,-0.30934539437294006
1.48,0.691014289855957,0.7142771482467651,0.12736277282238007,0.1846645474433899,-0.2526899576187134,-2.699760913848877,1.8780642747879028,-0.1563841998577118,-1.047329068183899,0.2805669605731964,-0.07752636075019836,-0.7531992197036743,0.64684080674072,0.6709722613248799,0.2056292224590748,0.21042095237544273,-0.23998744543686515,-1.6209679943109139,1.8710905454489368,-0.00043057577419732847,-0.8812320488035978,0.31717415730013987,-0.0760066801145354,-0.28823472721098736,-5.399521827697754,0.3693290948867798,1.2685543298721313,-0.8127683997154236,0.9011338949203491,-3.0127968788146973,-0.5053799152374268,0.25472554564476013,1.542028546333313,3.2561285495758057,-1.7546581029891968,-0.31010544300079346
1.5,0.7028442621231079,0.7228019833564758,0.13038590550422668,0.19082079827785492,-0.2579890787601471,-2.7121450901031494,1.8863238096237183,-0.15501943230628967,-1.0711491107940674,0.2700533866882324,-0.07756023108959198,-0.7521809935569763,0.6504682034696361,0.6714584514034652,0.2045043196494123,0.21070021957980986,-0.23296917536240971,-1.620824415763561,1.8811770164203352,-0.0002290944726700709,-0.8813932465749138,0.3220368883668766,-0.07356588201885197,-0.28794842562287565,-5.424290180206299,0.38164159655570984,1.2856040000915527,-0.8100388646125793,0.8801067471504211,-3.0087239742279053,-0.5159781575202942,0.26077181100845337,1.5656884908676147,3.2726476192474365,-1.8022981882095337,-0.3102409243583679
1.52,0.7115098834037781,0.7282391786575317,0.13312998414039612,0.19488395750522614,-0.2630460560321808,-2.7295799255371094,1.8912209272384644,-0.15354791283607483,-1.0827301740646362,0.2667011320590973,-0.07473759353160858,-0.7520575523376465,0.6535132658677398,0.6713646667594171,0.2031647892061924,0.21060644118506303,-0.23272000380846405,-1.6206359325566724,1.8932213346280962,-0.0008788355129594304,-0.8818158081941913,0.3244943941585219,-0.0709770737202631,-0.287774505216588,-5.459159851074219,0.38976791501045227,1.2964783906936646,-0.8070958256721497,0.8734022378921509,-3.008230209350586,-0.5260921120643616,0.26625996828079224,1.583019733428955,3.2824418544769287,-1.8254603147506714,-0.2989503741264343
1.54,0.7207157015800476,0.7346840500831604,0.1352408230304718,0.19957298040390015,-0.269493967294693,-2.742206335067749,1.8950896263122559,-0.15282681584358215,-1.1011378765106201,0.2637503743171692,-0.07315526902675629,-0.7507066130638123,0.6560644805732647,0.6707322544747031,0.20184359009364902,0.21050773969695982,-0.24019003268060013,-1.6205373586850593,1.9037675344457314,-0.003194697643851334,-0.8824054433732401,0.3268536220085813,-0.06867752901051873,-0.2876358291919533,-5.484412670135498,0.3991459608078003,1.3093681335449219,-0.8056536316871643,0.8675007224082947,-3.002826452255249,-0.538987934589386,0.2704816460609436,1.6014313697814941,3.2901792526245117,-1.8622757196426392,-0.29262107610702515
1.56,0.7260199785232544,0.7370496988296509,0.13809017837047577,0.20169800519943237,-0.2733563184738159,-2.7551259994506836,1.8987635374069214,-0.15251925587654114,-1.104961633682251,0.26435983180999756,-0.07118092477321625,-0.7509504556655884,0.6586509542960813,0.6702231299587788,0.20054312126930876,0.21034684730532147,-0.2535066104284527,-1.6206087474262052,1.9113180914769212,-0.004876977043702438,-0.8829429839690919,0.3285351278715651,-0.06738953138769882,-0.287524411057165,-5.510251998901367,0.40339601039886475,1.3140994310379028,-0.8050385117530823,0.8687196373939514,-3.0038018226623535,-0.5467126369476318,0.27618035674095154,1.6120399236679077,3.2975270748138428,-1.8699233531951904,-0.284723699092865
1.58,0.728354811668396,0.7371869683265686,0.14023198187351227,0.20287370681762695,-0.27470263838768005,-2.7658610343933105,1.9027817249298096,-0.15352404117584229,-1.105236291885376,0.26486337184906006,-0.07002916932106018,-0.7514254450798035,0.660816165582909,0.6697007947333053,0.19953035968497534,0.21016123861859456,-0.26674965640036363,-1.6207083433205276,1.9154482692018764,-0.005959781236145955,-0.8832945573227835,0.32961880556862827,-0.06711592333176353,-0.2874611501104733,-5.531722068786621,0.4057474136352539,1.3143739700317383,-0.8070480823516846,0.8697267174720764,-3.005701780319214,-0.5494052767753601,0.28046396374702454,1.616709589958191,3.305563449859619,-1.8704725503921509,-0.2801166772842407
1.6,0.7287827134132385,0.7374185919761658,0.14186638593673706,0.20402905344963074,-0.27511370182037354,-2.7747013568878174,1.906838059425354,-0.15463712811470032,-1.105175256729126,0.2642611563205719,-0.06931748986244202,-0.7530068159103394,0.6621275623556978,0.669339558446903,0.19892237279117417,0.21001802336511838,-0.2751793215257514,-1.620801204784986,1.9175237673249699,-0.0066403987144019495,-0.883493268818273,0.33030531465507806,-0.06727142211610869,-0.28744134439460656,-5.549402713775635,0.4080581068992615,1.3148372173309326,-0.8092742562294006,0.8685222864151001,-3.0120272636413574,-0.5502274036407471,0.2837327718734741,1.617565393447876,3.313676118850708,-1.8703504800796509,-0.27726995944976807
1.62,0.7281262278556824,0.7378689646720886,0.14319027960300446,0.20601554214954376,-0.2755903899669647,-2.781461715698242,1.9105143547058105,-0.15552973747253418,-1.105332851409912,0.262506365776062,-0.06940346211194992,-0.7566290497779846,0.6626258882109157,0.6692925020222066,0.1986201823770488,0.20997905037962242,-0.27728164102310165,-1.6208661677325276,1.9192832514066747,-0.007011667329903088,-0.8835984065658777,0.330703762099377,-0.0674934896418487,-0.28748161666181954,-5.562923431396484,0.4120310842990875,1.3157379627227783,-0.8110594749450684,0.8650127053260803,-3.0265161991119385,-0.5511807799339294,0.2863805592060089,1.6162524223327637,3.321028709411621,-1.8706656694412231,-0.2776138484477997
