time,cmd_L_hip_pitch,cmd_R_hip_pitch,cmd_L_hip_roll,cmd_R_hip_roll,cmd_L_hip_yaw,cmd_R_hip_yaw,cmd_L_knee,cmd_R_knee,cmd_L_foot_pitch,cmd_R_foot_pitch,cmd_L_foot_roll,cmd_R_foot_roll,pos_L_hip_pitch,pos_R_hip_pitch,pos_L_hip_roll,pos_R_hip_roll,pos_L_hip_yaw,pos_R_hip_yaw,pos_L_knee,pos_R_knee,pos_L_foot_pitch,pos_R_foot_pitch,pos_L_foot_roll,pos_R_foot_roll,act_R_hip_yaw,act_R_hip_roll,act_R_hip_pitch,act_R_knee,act_R_foot_pitch,act_R_foot_roll,act_L_hip_yaw,act_L_hip_roll,act_L_hip_pitch,act_L_knee,act_L_foot_pitch,act_L_foot_roll
0.0,-0.07924774289131165,0.019581643864512444,-0.0088100740686059,-0.042864225804805756,0.10601083934307098,-0.340379923582077,0.34420549869537354,0.3725154995918274,0.08075396716594696,-0.4136601984500885,0.08269339054822922,0.028120772913098335,-0.06776673927399221,0.0655740341866252,-0.005549478525609143,-0.0169133595113661,0.0596352758865389,-0.21339605882755627,0.2851563984240049,0.31748290033994836,-0.2702134770544574,-0.36841294716637557,0.033283303604804554,-0.001382479422450561,-0.680759847164154,-0.08572845160961151,-0.12083671241998672,0.24503099918365479,-0.4873203933238983,0.11248309165239334,0.21202167868614197,-0.0176201481372118,0.0015045199543237686,0.18841102719306946,0.5015079379081726,0.33077356219291687
0.02,-0.05845310166478157,0.03930345177650452,-0.021274670958518982,-0.06201719120144844,0.20292773842811584,-0.6481292247772217,0.4039028286933899,0.4319605827331543,0.2286069244146347,-0.5804755091667175,0.14159131050109863,0.0182785727083683,-0.05528416833794229,0.060809177518595735,-0.020401474588532902,-0.055947768973088334,0.1449479919335746,-0.5296339050817283,0.31599574759906224,0.40968159248356745,-0.29003600970355276,-0.4758898054939725,0.08096108336163926,0.011547003476441109,-1.2962584495544434,-0.12403438240289688,-0.08139309287071228,0.3639211356639862,-0.8209510445594788,0.0731142908334732,0.4058554768562317,-0.042549341917037964,0.04309379309415817,0.3078056871891022,0.7972138524055481,0.5663652420043945
0.04,-0.03347383439540863,0.07649312168359756,-0.03280379995703697,-0.003844265826046467,0.21866707503795624,-0.7634071111679077,0.48530149459838867,0.4931934177875519,0.2831352949142456,-0.6505749821662903,0.1383984386920929,-0.05305708199739456,-0.03553695385450872,0.0751741083044337,-0.027277566145239594,-0.07421581680991342,0.20335163994251199,-0.7158451456100253,0.37519676922745215,0.4774735433192908,-0.3287513665853194,-0.5582684733869107,0.08282798492402,-0.000999298309758589,-1.5268142223358154,-0.007688531652092934,-0.00701376236975193,0.48638683557510376,-0.9611499905586243,-0.21222832798957825,0.4373341500759125,-0.06560759991407394,0.09305232763290405,0.47060298919677734,0.9062705636024475,0.5535937547683716
0.06,0.0009899643482640386,0.08228646963834763,-0.05186022073030472,0.02104952186346054,0.21826092898845673,-0.8387883305549622,0.5503702759742737,0.5844166278839111,0.22999735176563263,-0.6294602751731873,0.11090149730443954,-0.11782144010066986,-0.0062657824816319575,0.09067475850206846,-0.026267212322028635,-0.07402588181128951,0.22425534540190784,-0.808139378083018,0.4637731427941983,0.5392990577573066,-0.37534181421448215,-0.6074598662393252,0.046067726298382836,-0.04400369849304836,-1.6775766611099243,0.04209904372692108,0.004572933539748192,0.668833315372467,-0.9189205765724182,-0.47128576040267944,0.43652185797691345,-0.10372044146060944,0.16197992861270905,0.6007405519485474,0.799994707107544,0.4436059892177582
0.08,0.0280857365578413,0.07459807395935059,-0.061502598226070404,-0.01095584500581026,0.21007944643497467,-0.8632486462593079,0.6134302616119385,0.650070071220398,0.1739783138036728,-0.633587121963501,0.06387905776500702,-0.1724860966205597,0.022801961108057416,0.0979895824490754,-0.03071833662155403,-0.07371539840158865,0.22272734716438253,-0.8485783233254568,0.5543330012283585,0.6120986667582302,-0.41969556405349645,-0.6271141905560084,0.011189860969776023,-0.09933377062422331,-1.7264972925186157,-0.02191169001162052,-0.010803848505020142,0.8001402020454407,-0.9271742701530457,-0.6899443864822388,0.42015889286994934,-0.12300519645214081,0.2161714732646942,0.726860523223877,0.6879566311836243,0.2555162310600281
0.1,0.05360756814479828,0.07109663635492325,-0.0549440011382103,-0.06617657840251923,0.19185708463191986,-0.8701103329658508,0.6503502130508423,0.6860934495925903,0.13767246901988983,-0.6332453489303589,-0.002993161790072918,-0.208079531788826,0.04641778693495079,0.09779915080234057,-0.048165387116502485,-0.07932834537633018,0.20734936558451095,-0.863435506180043,0.6267682224622063,0.6750783365201124,-0.4573019715119598,-0.6311050021644189,-0.005589373516111742,-0.15120235372612922,-1.7402206659317017,-0.13235315680503845,-0.01780671998858452,0.8721868991851807,-0.9264907240867615,-0.832318127155304,0.3837141692638397,-0.1098880022764206,0.26721513271331787,0.8007004857063293,0.6153449416160583,-0.011972647160291672
0.12,0.07742269337177277,0.06861993670463562,-0.03254353627562523,-0.12423810362815857,0.1579623967409134,-0.8602285385131836,0.6450930833816528,0.7122904062271118,0.1001255065202713,-0.5987809300422668,-0.07172686606645584,-0.22519345581531525,0.06298048218042598,0.09091936419260822,-0.07416353646335452,-0.09190150697023462,0.1787431521913551,-0.8677905058133787,0.6641181392747603,0.7046399752232223,-0.4888520196552158,-0.712399359305277,-0.008652821038874542,-0.15502483213056825,-1.7204570770263672,-0.24847620725631714,-0.02276012673974037,0.9245807528495789,-0.8575618267059326,-0.900773823261261,0.3159247934818268,-0.06508707255125046,0.31484538316726685,0.7901862263679504,0.5402510166168213,-0.28690746426582336
0.14,0.09982746839523315,0.08781994134187698,-0.005618534050881863,-0.15014414489269257,0.11905517429113388,-0.8822598457336426,0.6419938802719116,0.7170220613479614,0.06594808399677277,-0.5911717414855957,-0.1138242781162262,-0.25591179728507996,0.06847419684172149,0.0807831369684874,-0.08153979179007116,-0.1022902745756304,0.13423713354264236,-0.8810102408821505,0.672672479679607,0.7445261013999172,-0.5217842457870193,-0.7546923381232081,0.00269521158431086,-0.08018705262233122,-1.7645196914672852,-0.30028828978538513,0.015639886260032654,0.9340440630912781,-0.8423435091972351,-1.0236471891403198,0.23811034858226776,-0.011237068101763725,0.3596549332141876,0.7839877009391785,0.4718961715698242,-0.4552971124649048
0.16,0.010244330391287804,0.08605369925498962,-0.06766057014465332,-0.13083872199058533,0.1219438686966896,-0.8959532976150513,0.7094583511352539,0.6741980314254761,-0.012916071340441704,-0.5915920734405518,-0.14106310904026031,-0.28309208154678345,0.061117030688466356,0.09972900428237458,-0.0856304922331825,-0.11174221294137306,0.1172002981475027,-0.9018248880787306,0.6961232129946172,0.7688346285334936,-0.52633734994237,-0.7780425077470097,0.01821850684228627,-0.05791927197308447,-1.7919065952301025,-0.26167744398117065,0.01210740115493536,0.8483960628509521,-0.8431841135025024,-1.1323683261871338,0.2438877373933792,-0.13532114028930664,0.18048866093158722,0.918916642665863,0.314167857170105,-0.5642524361610413
0.18,0.03426998108625412,0.10633377730846405,-0.043686579912900925,-0.08951758593320847,0.11754081398248672,-0.9121236801147461,0.7246525883674622,0.6162595748901367,-0.13777779042720795,-0.6735827326774597,-0.16837070882320404,-0.26584476232528687,0.06108130846049778,0.11801646733206447,-0.07599330627096527,-0.09313636246966273,0.10666261347155152,-0.9186178683511037,0.7156895319861843,0.751370449054494,-0.5327763716394877,-0.7788453114802905,0.009611976162280168,-0.04892720599797576,-1.8242473602294922,-0.17903517186641693,0.052667561918497086,0.7325192093849182,-1.0071654319763184,-1.0633790493011475,0.23508162796497345,-0.08737315982580185,0.22853995859622955,0.9493051767349243,0.0644444078207016,-0.6734828352928162
0.2,0.056887343525886536,0.14818595349788666,-0.03591986000537872,-0.088481105864048,0.11411920934915543,-0.9805665612220764,0.7865537405014038,0.5605369806289673,-0.1583353579044342,-0.6807485818862915,-0.1696571707725525,-0.2539117932319641,0.07060981318877457,0.1437674187298625,-0.06009713410989128,-0.05770654774905286,0.10405227605138982,-0.9537168523065731,0.7456116300415669,0.7017194932201573,-0.5341691883898997,-0.7641402433666905,-0.01363637294411299,-0.04595872910024175,-1.9611331224441528,-0.176962211728096,0.1363718956708908,0.6210739016532898,-1.021497130393982,-1.0156471729278564,0.22823841869831085,-0.07183972001075745,0.2737746834754944,1.0731074810028076,0.023329272866249084,-0.67862868309021
0.22,0.04126998037099838,0.15804339945316315,-0.009436334483325481,-0.08800734579563141,0.1168757751584053,-1.0060147047042847,0.8386030793190002,0.5174283385276794,-0.1754280924797058,-0.653167188167572,-0.18539123237133026,-0.2537820041179657,0.08167072531684035,0.17423124785060337,-0.0483849250171083,-0.022439729373644163,0.116566483541808,-0.9921607221457064,0.7839880208720054,0.6465142045763075,-0.5261014065179631,-0.7480813523460895,-0.04980817563679372,-0.05663217600863884,-2.0120294094085693,-0.17601469159126282,0.15608680248260498,0.5348566770553589,-0.966334342956543,-1.0151280164718628,0.2337515503168106,-0.018872668966650963,0.24253995716571808,1.1772061586380005,-0.010856188833713531,-0.741564929485321
0.24,0.058475688099861145,0.1756000965833664,0.009550727903842926,-0.07967661321163177,0.11374426633119583,-1.034434199333191,0.8771883845329285,0.48619401454925537,-0.19196690618991852,-0.6237861514091492,-0.20278361439704895,-0.2492748349905014,0.09591816116202302,0.20021191409990807,-0.043227270554003466,0.005262926795242842,0.12690735988160662,-1.028369788664635,0.8231881239932666,0.5973968473911795,-0.5100976591595613,-0.7358394441935027,-0.08793451608226836,-0.07291946299670451,-2.068868398666382,-0.15935322642326355,0.19120019674301147,0.47238805890083313,-0.9075722694396973,-0.9970993399620056,0.22748853266239166,0.019101455807685852,0.2769513726234436,1.254376769065857,-0.04393380880355835,-0.8111344575881958
0.26,0.0947650671005249,0.20320546627044678,0.013230353593826294,-0.0824078693985939,0.09844589978456497,-1.091570496559143,0.9216582775115967,0.4652824401855469,-0.2051936388015747,-0.5774096846580505,-0.21118591725826263,-0.24669167399406433,0.11564409109752814,0.2223869611838834,-0.04455348448934629,0.025601980200759072,0.12030462448961636,-1.0681863476772495,0.8669772246647129,0.5588032250236374,-0.4882571919821057,-0.7301301963241033,-0.11953593980062482,-0.09262194805716784,-2.183140993118286,-0.1648157387971878,0.24641093611717224,0.43056491017341614,-0.8148193359375,-0.9867666959762573,0.19689179956912994,0.026460707187652588,0.3495301306247711,1.3433165550231934,-0.07038726657629013,-0.8447436690330505
0.28,0.12512418627738953,0.21931853890419006,0.012310911901295185,-0.09404361993074417,0.08352259546518326,-1.1703104972839355,0.9760758876800537,0.450214684009552,-0.24106262624263763,-0.5073487162590027,-0.21098573505878448,-0.25520098209381104,0.14109660100265933,0.24304680674437118,-0.05077233393992864,0.03853554468221555,0.10446706681619165,-1.1229225114587742,0.9189385737306656,0.5332902879436585,-0.46174813342269705,-0.7325199832238856,-0.1407832367071124,-0.11189010497022116,-2.340620994567871,-0.18808723986148834,0.2786370813846588,0.400429368019104,-0.6746974587440491,-1.0208039283752441,0.16704519093036652,0.02462182380259037,0.41024836897850037,1.4521517753601074,-0.14212524890899658,-0.8439429402351379
0.3,0.15195724368095398,0.22676199674606323,0.009873073548078537,-0.10888633131980896,0.06790782511234283,-1.2827855348587036,1.0398814678192139,0.43660929799079895,-0.29062560200691223,-0.4160201847553253,-0.19989512860774994,-0.27861151099205017,0.17057938716106164,0.26195346854800544,-0.05697337300449185,0.047193540974867804,0.08878815462890899,-1.2116164595441925,0.9800047235784215,0.5198407032816957,-0.4337774433101013,-0.7417328099450949,-0.15590347173445296,-0.133089282437054,-2.5655710697174072,-0.21777266263961792,0.29352399706840515,0.3732185959815979,-0.49204036593437195,-1.1144460439682007,0.13581565022468567,0.019746147096157074,0.4639144837856293,1.5797628164291382,-0.24125118553638458,-0.7995805144309998
0.32,0.18181346356868744,0.23555047810077667,0.014109802432358265,-0.12351687252521515,0.039457857608795166,-1.4185494184494019,1.106635570526123,0.4259184002876282,-0.3454485535621643,-0.33708804845809937,-0.18076375126838684,-0.31620877981185913,0.20078775341716698,0.27764050509305604,-0.05988250013582216,0.05462200968338094,0.06842325735415303,-1.3341360585002906,1.0476080792928715,0.5163415721922352,-0.40973685699827056,-0.7521969841473946,-0.16397654983767493,-0.1516500136129198,-2.8370988368988037,-0.2470337450504303,0.31110095977783203,0.35183677077293396,-0.33417612314224243,-1.2648351192474365,0.07891571521759033,0.02821960486471653,0.5236269235610962,1.713271141052246,-0.3508971333503723,-0.7230550050735474
0.34,0.2095899134874344,0.2508388161659241,0.025525838136672974,-0.12854495644569397,0.017141839489340782,-1.57957124710083,1.1799015998840332,0.4041522443294525,-0.37499064207077026,-0.2788757383823395,-0.15601851046085358,-0.3576382100582123,0.2273732795709409,0.29118495512223636,-0.05635640424880659,0.06465885616665887,0.04539227946139963,-1.48794006461317,1.1201215300050886,0.5127299047866818,-0.3891081970896738,-0.7623715833343814,-0.1624471943603404,-0.1699533850847833,-3.15914249420166,-0.25708991289138794,0.34167763590812683,0.30830448865890503,-0.21775145828723907,-1.4305528402328491,0.034283678978681564,0.05105167627334595,0.5791798233985901,1.8598031997680664,-0.40998131036758423,-0.6240740418434143
0.36,0.23934568464756012,0.28048568964004517,0.03421635553240776,-0.12050603330135345,-0.0064719561487436295,-1.7042981386184692,1.2445223331451416,0.39152801036834717,-0.4228966534137726,-0.2252851128578186,-0.15256968140602112,-0.39478397369384766,0.24518005065711512,0.30149733879712437,-0.04549858333435465,0.07652662022481224,0.024471461640757305,-1.608773045905199,1.1901036773617628,0.5063472958467303,-0.393295298271691,-0.7658399008303437,-0.15579190657547165,-0.1696337365943649,-3.4085962772369385,-0.2410120666027069,0.400971382856369,0.28305602073669434,-0.11057023704051971,-1.5791358947753906,-0.012943912297487259,0.06843271106481552,0.6386913657188416,1.9890447854995728,-0.5057933330535889,-0.6102787256240845
0.38,0.33931201696395874,0.35692647099494934,0.029998447746038437,-0.0716850683093071,-0.044446393847465515,-1.8769389390945435,1.332403540611267,0.35770517587661743,-0.46779757738113403,-0.19121018052101135,-0.13250389695167542,-0.431088387966156,0.2614969413638074,0.3032069856473844,-0.028180674050708378,0.09607226287131818,-0.002266699596117619,-1.6306144401145644,1.2707133213450497,0.4810132655726905,-0.42056843782758047,-0.7760018753264036,-0.14333532332409343,-0.1766019383979811,-3.753877878189087,-0.1433701366186142,0.553852915763855,0.21541035175323486,-0.04242035001516342,-1.724353551864624,-0.08889278769493103,0.059996895492076874,0.8386240601539612,2.164807081222534,-0.5955951809883118,-0.5300155878067017
0.4,0.45370355248451233,0.43609312176704407,0.03329799324274063,0.0058220503851771355,-0.08449355512857437,-2.0824687480926514,1.4513297080993652,0.29334601759910583,-0.507253110408783,-0.16306926310062408,-0.10709559172391891,-0.46626660227775574,0.2860647037309006,0.3035912748863341,-0.0006335082763587727,0.13802414221596113,-0.053821962222096106,-1.6334228522143885,1.3827225922620472,0.4342221370160751,-0.45588802606334894,-0.7716460476826523,-0.12580400313907553,-0.201706015903621,-4.164937496185303,0.011644100770354271,0.7121862173080444,0.08669205009937286,0.013861466199159622,-1.865066409111023,-0.16898711025714874,0.06659598648548126,1.0674071311950684,2.4026594161987305,-0.6745062470436096,-0.42838236689567566
0.42,0.5467299818992615,0.4967249929904938,0.052060335874557495,0.08534688502550125,-0.12057412415742874,-2.261648654937744,1.5888806581497192,0.22311629354953766,-0.5308437347412109,-0.14665737748146057,-0.0936742052435875,-0.4997676908969879,0.3187861089535466,0.3081698718790429,0.03129989822448559,0.1973666514319271,-0.11067288089701824,-1.6335356522408586,1.5209533586967852,0.3636994473002845,-0.4864615985032957,-0.7549304588260902,-0.10995421017282983,-0.25112054667602546,-4.523297309875488,0.1706937700510025,0.8334499597549438,-0.05376741662621498,0.04668525978922844,-1.9990707635879517,-0.24114824831485748,0.10412067174911499,1.2534599304199219,2.6777613162994385,-0.7216874957084656,-0.37469682097435
0.44,0.6293609738349915,0.5514782071113586,0.08667770773172379,0.16302688419818878,-0.17037934064865112,-2.3788375854492188,1.706254243850708,0.16258791089057922,-0.5896692872047424,-0.14474986493587494,-0.09226710349321365,-0.5242629051208496,0.35262677840052425,0.3151403275631434,0.04820155789089824,0.2325771573374948,-0.15111635422510378,-1.631878265237106,1.653999470624226,0.30395364750346743,-0.5192939632188149,-0.7432330957125322,-0.09947888736656912,-0.2863693944157431,-4.7576751708984375,0.32605376839637756,0.9429563879966736,-0.17482416331768036,0.05050026997923851,-2.0970516204833984,-0.34075868129730225,0.17335541546344757,1.4187219142913818,2.912508487701416,-0.8393385410308838,-0.3690684139728546
0.46,0.7139511108398438,0.6224557161331177,0.12341377139091492,0.2209969460964203,-0.26296466588974,-2.4157259464263916,1.729321002960205,0.14255288243293762,-0.8058469891548157,-0.15307027101516724,-0.08866458386182785,-0.5416463613510132,0.38628473417224096,0.32573074272296554,0.04138849165868898,0.2298205206516034,-0.1927318135561617,-1.6290268398661578,1.7513399205076567,0.2703766112766169,-0.6058276758840812,-0.7468296236831594,-0.08975118942987044,-0.2848799126136948,-4.831451892852783,0.4419938921928406,1.0849114656448364,-0.21489423513412476,0.03385945409536362,-2.1665854454040527,-0.52592933177948,0.24682754278182983,1.5879021883010864,2.95864200592041,-1.2716939449310303,-0.3546583354473114
0.48,0.7164407968521118,0.6379972696304321,0.13240762054920197,0.22709406912326813,-0.31565600633621216,-2.4280896186828613,1.6767020225524902,0.15368422865867615,-0.8965954184532166,-0.1508343517780304,-0.10005726665258408,-0.6026614904403687,0.4178290100699907,0.3491792184699561,0.034341177764351104,0.22306864146115757,-0.24706093727587017,-1.625970212913929,1.7772228131990482,0.23626076467565665,-0.7224086660140581,-0.7514068328313709,-0.08758285706129475,-0.2807593381124766,-4.856179237365723,0.45418813824653625,1.1159945726394653,-0.1926315575838089,0.038331300020217896,-2.4106459617614746,-0.6313120126724243,0.26481524109840393,1.5928815603256226,2.8534040451049805,-1.453190803527832,-0.4002290666103363
0.5,0.6711136698722839,0.639762818813324,0.14706356823444366,0.24517130851745605,-0.3303346037864685,-2.3948893547058105,1.5740469694137573,0.20328420400619507,-0.9165195226669312,-0.14891687035560608,-0.11566680669784546,-0.6802763938903809,0.44163214954333074,0.3884570192443298,0.044959082021814374,0.21807224937997707,-0.2908949473622198,-1.6230227420490284,1.7057723262228854,0.2116418234739697,-0.8145178443720036,-0.7573063995537046,-0.0964091377708946,-0.2806652481250992,-4.789778709411621,0.4903426170349121,1.119525671005249,-0.09343157708644867,0.042166274040937424,-2.7211055755615234,-0.660669207572937,0.29412713646888733,1.5022273063659668,2.6480939388275146,-1.4930390119552612,-0.46266722679138184
0.52,0.5997412800788879,0.6229726672172546,0.14677797257900238,0.2687605321407318,-0.31964683532714844,-2.3102869987487793,1.4352329969406128,0.23855645954608917,-0.8893812298774719,-0.15349999070167542,-0.13489596545696259,-0.754845142364502,0.45751209162665096,0.43796393973048753,0.07568714774901938,0.21504520056260495,-0.3075393652285849,-1.6214059027851908,1.5483695943970681,0.21162590420939179,-0.8579175099998736,-0.7681309945330981,-0.11231418053840722,-0.2823950114947166,-4.620573997497559,0.5375210642814636,1.0859453678131104,-0.022887077182531357,0.03300002962350845,-3.019380569458008,-0.6392936706542969,0.29355594515800476,1.3594825267791748,2.3704659938812256,-1.4387624263763428,-0.5395838618278503
0.54,0.5063132643699646,0.5906100869178772,0.12523165345191956,0.2707388699054718,-0.29747647047042847,-2.152952194213867,1.2710305452346802,0.2685158848762512,-0.8590585589408875,-0.1287681609392166,-0.14378032088279724,-0.7985023260116577,0.4645943130262098,0.49183402857421826,0.10872068710045683,0.21332943860747663,-0.29941534371717105,-1.621291851094345,1.3406793025229988,0.2329799628044965,-0.8603178358659257,-0.7859675157667964,-0.12706676042320125,-0.284344039905559,-4.305904388427734,0.5414777398109436,1.0212202072143555,0.03703177720308304,0.08246368169784546,-3.194009304046631,-0.5949529409408569,0.2504633069038391,1.1726264953613281,2.0420610904693604,-1.3781170845031738,-0.575121283531189
0.56,0.4033234417438507,0.5542929768562317,0.07196643948554993,0.2397361844778061,-0.28028255701065063,-1.9249813556671143,1.0969997644424438,0.30713462829589844,-0.8129733204841614,-0.04096350073814392,-0.12790143489837646,-0.8105927109718323,0.46169682207703755,0.5452798017261393,0.12339051557544263,0.21211610114123816,-0.2870786799131126,-1.6222063404665128,1.1226463279264618,0.26566915751063896,-0.8370929862373377,-0.8066045191916764,-0.13083909842918573,-0.2856033151771069,-3.8499627113342285,0.4794723689556122,0.9485859870910645,0.11426928639411926,0.25807300209999084,-3.242370843887329,-0.5605651140213013,0.14393287897109985,0.9666469097137451,1.6939995288848877,-1.2859466075897217,-0.5116057395935059
0.58,0.2995864152908325,0.5151638984680176,-0.01792348548769951,0.1853787899017334,-0.273124635219574,-1.6541861295700073,0.9368524551391602,0.35617727041244507,-0.7252585887908936,0.12570951879024506,-0.08983134478330612,-0.7889838218688965,0.448653976986349,0.5932867742630962,0.10856756629109422,0.20513079762695247,-0.28946894210553564,-1.6122129217218055,0.9244124890062825,0.30274157358003695,-0.7902394871243739,-0.8249188814333981,-0.11861817498207204,-0.2853950855205848,-3.3083722591400146,0.3707575798034668,0.8703278303146362,0.21235455572605133,0.5914190411567688,-3.155935287475586,-0.546249270439148,-0.03584697097539902,0.7591728568077087,1.3737049102783203,-1.110517144203186,-0.3593253791332245
0.6,0.21157796680927277,0.4664316773414612,-0.11301493644714355,0.13512785732746124,-0.28144875168800354,-1.3986929655075073,0.8146146535873413,0.3993363380432129,-0.5912230610847473,0.3305179178714752,-0.044920384883880615,-0.7113878726959229,0.43012402010388856,0.6290976852458912,0.07118723329154339,0.17982244741010708,-0.30504239588238014,-1.5178943489054744,0.7674134062695621,0.34155562153600627,-0.7132735861974512,-0.84004332829022,-0.0929096177085345,-0.2781253391844064,-2.7973859310150146,0.2702557146549225,0.7728633284568787,0.2986726462841034,1.0010358095169067,-2.8455514907836914,-0.5628975033760071,-0.2260298728942871,0.5831559300422668,1.1292293071746826,-0.8424461483955383,-0.17968153953552246
0.62,0.19034849107265472,0.4435890018939972,-0.1571764200925827,0.12725339829921722,-0.3049522936344147,-1.305999755859375,0.7419817447662354,0.4193037748336792,-0.45206722617149353,0.4856010973453522,-0.009072879329323769,-0.5489975810050964,0.41928906686516787,0.6460281563201388,0.018367182230256515,0.14612879288548547,-0.3290060103711283,-1.3764168642503254,0.6729802577002725,0.3719038461727973,-0.6087061666294781,-0.842330112671252,-0.060755801938372066,-0.27418211403091164,-2.61199951171875,0.25450679659843445,0.7271779775619507,0.3386075794696808,1.3112021684646606,-2.1959903240203857,-0.6099045872688293,-0.3143528401851654,0.5406969785690308,0.9839635491371155,-0.5641344785690308,-0.036291517317295074
0.64,0.16243886947631836,0.4195936322212219,-0.1740412414073944,0.1382371485233307,-0.2990562319755554,-1.3374899625778198,0.6961290836334229,0.44226446747779846,-0.38779082894325256,0.5667762160301208,0.0005496460944414139,-0.4512873589992523,0.4078169903981579,0.6497085601138165,-0.0376595981560618,0.12530553851093892,-0.3310699940246473,-1.3090883610447759,0.6292463535583054,0.39453206457775414,-0.5061317112613034,-0.819981871618478,-0.03386959650747261,-0.272473739982009,-2.6749799251556396,0.2764742970466614,0.6791872382164001,0.3845289349555969,1.4735524654388428,-1.8051494359970093,-0.5981124639511108,-0.3480824828147888,0.48487773537635803,0.8922581076622009,-0.43558168411254883,0.0021985843777656555
0.66,0.11259080469608307,0.40091198682785034,-0.19620934128761292,0.1446365863084793,-0.27556389570236206,-1.3524121046066284,0.6350971460342407,0.4862596392631531,-0.412589430809021,0.6224793195724487,0.006759325973689556,-0.44179269671440125,0.37872794780389635,0.6432387218800053,-0.08195763227797337,0.11617192920613001,-0.30795110589434427,-1.3252843381183996,0.593519354486955,0.4268948983986927,-0.4449805831607411,-0.771627566274692,-0.016089654035296646,-0.2707564760771524,-2.704824209213257,0.2892731726169586,0.641823947429657,0.47251924872398376,1.5849586725234985,-1.767170786857605,-0.5511277914047241,-0.39241868257522583,0.38518160581588745,0.7701942324638367,-0.4851788878440857,0.027037303894758224
0.68,0.06207706034183502,0.3985462784767151,-0.2330615222454071,0.12930338084697723,-0.26919758319854736,-1.3207577466964722,0.5794882774353027,0.507737398147583,-0.4116228520870209,0.6601032614707947,0.009983423165977001,-0.42754417657852173,0.3287607990233164,0.6279553546231748,-0.11340294109948348,0.1144875129787079,-0.29098489866806976,-1.3377330184682314,0.5462650394875391,0.4709549956447259,-0.4213278911522426,-0.6865402765585974,-0.005558981068491954,-0.2637413734650506,-2.6415154933929443,0.25860676169395447,0.6370925307273865,0.5154747366905212,1.6602065563201904,-1.710176706314087,-0.5383951663970947,-0.4661230444908142,0.28415411710739136,0.6589766144752502,-0.48324573040008545,0.039933692663908005
0.7000000000000001,0.034203797578811646,0.4189435541629791,-0.2654663324356079,0.10702138394117355,-0.2897636294364929,-1.290402889251709,0.5367521047592163,0.5170965790748596,-0.4237513840198517,0.6991980671882629,0.005690174642950296,-0.37509098649024963,0.26649669952431776,0.606401001142467,-0.14224611752057598,0.12222539979366406,-0.29918108151769257,-1.3136823153309085,0.5011039058337622,0.5093537826348675,-0.41756721407404607,-0.5444364560980179,-0.001794080327831856,-0.26477748716597693,-2.580805778503418,0.2140427678823471,0.6778870820999146,0.5341931581497192,1.738396167755127,-1.5003639459609985,-0.5795272588729858,-0.5309326648712158,0.2284075915813446,0.5735042095184326,-0.5075027942657471,0.022760698571801186
0.72,-0.019835615530610085,0.42254629731178284,-0.2629464268684387,0.08114971220493317,-0.30649226903915405,-1.2255200147628784,0.49364590644836426,0.5034497976303101,-0.4127199053764343,0.738555371761322,0.0026370733976364136,-0.29544422030448914,0.19323535939363862,0.5805422519076728,-0.16893890544764328,0.1348062581055035,-0.31223893130479446,-1.2489155643788141,0.46203157924421157,0.530470672928546,-0.4160041402082585,-0.3097123123187855,-0.0018029373533974841,-0.2626137718297154,-2.451040029525757,0.16229942440986633,0.685092568397522,0.5068996548652649,1.8171107769012451,-1.1817768812179565,-0.6129845380783081,-0.5258928537368774,0.12032876908779144,0.48729178309440613,-0.48543983697891235,0.010548293590545654
0.74,-0.07898584008216858,0.4204162657260895,-0.23257313668727875,0.04146796092391014,-0.33657360076904297,-1.129257321357727,0.46271365880966187,0.4755416512489319,-0.37022989988327026,0.7218912243843079,0.007103859446942806,-0.19846849143505096,0.11969140379812243,0.550625081128801,-0.1920566800168471,0.130462018803436,-0.3440208223287002,-1.1563517404359887,0.41695690447720846,0.5205107262502533,-0.4147194492328728,0.12333704548271703,-0.024454820663011828,-0.24416332300590363,-2.258514642715454,0.08293592184782028,0.6808325052261353,0.45108330249786377,1.7837824821472168,-0.7938739657402039,-0.6731472015380859,-0.4651462733745575,0.0020283181220293045,0.4254273474216461,-0.40045982599258423,0.028415437787771225
0.76,-0.21765853464603424,0.35412493348121643,-0.13304229080677032,0.03410705178976059,-0.32029205560684204,-0.8980783820152283,0.56071937084198,0.3880500793457031,-0.2632911503314972,0.4449547231197357,0.041598111391067505,-0.20319128036499023,0.0571773382942556,0.5430880040212326,-0.17761002066406784,0.11555559958009912,-0.3119723706171808,-0.9677997281580644,0.4152589281492051,0.4735569885324314,-0.4498277060027795,0.3999978336613382,-0.04672675339338524,-0.22082122091757223,-1.7961567640304565,0.06821410357952118,0.5482498407363892,0.27610012888908386,1.2299094200134277,-0.8127651214599609,-0.6405841112136841,-0.26608458161354065,-0.27531707286834717,0.6214386820793152,-0.1865822970867157,0.16639244556427002
0.78,-0.2646739184856415,0.4390386939048767,0.07082564383745193,0.02446052059531212,-0.35912609100341797,-0.8667244911193848,0.6658577919006348,0.3127984404563904,-0.48737385869026184,0.12358830869197845,-0.0638304054737091,-0.19107000529766083,-0.013213246502657835,0.5642421351424477,-0.14920560125961177,0.11618972977894512,-0.3270499092356604,-0.8628100688553569,0.5186968553137511,0.416936248091706,-0.4788465049612665,0.41158801949820717,-0.04227285301705746,-0.19687218390496897,-1.7334489822387695,0.04892104119062424,0.7180773615837097,0.12559689581394196,0.5871766209602356,-0.7642800211906433,-0.7182521820068359,0.14165128767490387,-0.36934781074523926,0.8317156434059143,-0.6347477436065674,-0.2553216218948364
0.8,-0.3471764624118805,0.5774310827255249,0.17396916449069977,0.11258730292320251,-0.5331186056137085,-0.6808509230613708,0.7001703977584839,0.26108500361442566,-0.45456504821777344,0.03961603343486786,-0.05147678405046463,-0.2176925390958786,-0.12189592396851774,0.6058939945930218,-0.08518813862493219,0.1481145392589475,-0.4414733954297569,-0.7334730353996418,0.63635805806876,0.40195234778780076,-0.47834977595109907,0.4334285583895821,-0.04089372618292694,-0.19600053138709142,-1.3617018461227417,0.22517460584640503,0.9948621392250061,0.022170010954141617,0.4192320704460144,-0.8707701563835144,-1.066237211227417,0.34793832898139954,-0.5343528985977173,0.9003408551216125,-0.5691301226615906,-0.20590713620185852
0.8200000000000001,-0.5068516135215759,0.7901090979576111,0.20456922054290771,0.06808668375015259,-0.8885322213172913,-0.4311031401157379,0.8827040791511536,-0.0043513476848602295,-0.34367191791534424,-0.06538066267967224,-0.11611594259738922,-0.1029689610004425,-0.27510894214139336,0.702061507081536,-0.036816720522167536,0.2161974454537734,-0.7075569486076633,-0.5275088641450552,0.776813573388997,0.29991118009197193,-0.4310772099436119,0.4841764670990789,-0.05368109532110098,-0.18332508302909709,-0.8622062802314758,0.13617336750030518,1.4202182292938232,-0.5087026953697205,0.2092386782169342,-0.41187584400177,-1.7770644426345825,0.40913844108581543,-0.8537032604217529,1.2654081583023071,-0.3473438620567322,-0.4644637703895569
0.84,-0.5820946097373962,0.9229053854942322,0.2983502447605133,-0.1995253711938858,-1.2908416986465454,0.007370315492153168,1.244148850440979,-0.6099897027015686,-0.49538981914520264,-0.3003142178058624,-0.07130599766969681,0.22154277563095093,-0.40237186395165364,0.8205982979558616,-0.08010248291252071,0.2320622915290817,-1.0472117456908068,-0.1636877198069714,1.026076368623973,0.0692079689699294,-0.41852763176910734,0.4998804769929112,-0.051217026886719294,-0.10256755805000524,0.014740630984306335,-0.3990507423877716,1.6858108043670654,-1.7199794054031372,-0.26062843203544617,0.8861711025238037,-2.581683397293091,0.5967004895210266,-1.0041892528533936,1.988297700881958,-0.650779664516449,-0.28522399067878723
0.86,-0.251493901014328,0.9272828698158264,0.3429892957210541,-0.6674104928970337,-1.5513259172439575,0.24059465527534485,1.6304301023483276,-1.1885517835617065,-1.2357431650161743,-0.26119646430015564,0.20230698585510254,0.6086499094963074,-0.39285925686734435,0.8207792265042612,-0.1317989857422159,0.19704488374501458,-1.321654763500703,0.1618891494712626,1.4106329625596137,-0.16479649081560077,-0.6450464630335668,0.3062452882341011,0.04501790316452214,0.13962155297807802,0.4811893105506897,-1.3348209857940674,1.694565773010254,-2.877103567123413,-0.18239295482635498,2.4345996379852295,-3.102651834487915,0.6859785914421082,-0.3429877758026123,2.7608602046966553,-2.131486415863037,0.8092279434204102
0.88,0.13625404238700867,0.8906249403953552,-0.060526177287101746,-0.5630383491516113,-1.4282835721969604,-0.4517121911048889,1.3026158809661865,-0.6825087666511536,-1.5696091651916504,0.45253464579582214,0.5358687043190002,0.5686436295509338,-0.313708436402546,0.7054859984918308,-0.12207808275388342,0.1277554474727057,-1.40365292625317,-0.048825121706474545,1.5674915382989814,-0.15032002241090497,-0.9670433103305397,0.18301949954708002,0.24101040462487786,0.3294996180005625,-0.9034243822097778,-1.1260766983032227,1.6212499141693115,-1.8650175333023071,1.2450692653656006,2.2745745182037354,-2.856567144393921,-0.12105235457420349,0.43250808119773865,2.105231761932373,-2.7992184162139893,2.143474817276001
0.9,0.2795601785182953,0.7106596827507019,-0.27144932746887207,-0.2106138914823532,-0.9698972105979919,-0.9407172203063965,1.1214916706085205,-0.32027870416641235,-0.948405921459198,1.202046513557434,0.48394161462783813,0.34344878792762756,-0.17409767879404361,0.5846594441300251,-0.13705082637070667,-0.03751322098114692,-1.2439355846508224,-0.70847884916423,1.3756880850551523,-0.1019599609087323,-0.9994806417210204,0.475455430159509,0.33088270271180364,0.33291681939618184,-1.881434440612793,-0.4212277829647064,1.2613193988800049,-1.1405574083328247,2.7440929412841797,1.3737951517105103,-1.9397944211959839,-0.5428986549377441,0.7191203832626343,1.7429834604263306,-1.556811809539795,1.9357664585113525
0.92,0.20236317813396454,0.6231980323791504,-0.26221176981925964,-0.13076302409172058,-0.7504395246505737,-0.9907922744750977,1.1254221200942993,-0.33463507890701294,-0.5782337188720703,1.1114842891693115,0.4229186773300171,0.2535080313682556,-0.05113521217128422,0.5527945072290237,-0.12737680108354651,-0.21262923743105508,-0.8916410894135629,-0.9937334605919258,1.1378798411028652,-0.06414606379174069,-0.8565370812435732,0.6674358408161888,0.3169909478728166,0.30338630061124744,-1.9815845489501953,-0.26152604818344116,1.0863960981369019,-1.1692701578140259,2.5629684925079346,1.0140321254730225,-1.5008790493011475,-0.5244235396385193,0.5647263526916504,1.7508442401885986,-0.8164674043655396,1.6916747093200684
0.9400000000000001,0.18287359178066254,0.6352601647377014,-0.16081476211547852,-0.2509009540081024,-0.6163517832756042,-1.1103593111038208,1.0052282810211182,-0.20740142464637756,-1.1947903633117676,1.0244474411010742,0.28171950578689575,0.16490241885185242,-0.05033283562305556,0.5325800759203584,-0.16556373677582298,-0.46711937120105257,-0.5416280049976893,-1.0713118051639392,1.08594227915761,0.003066744043613747,-0.8840108053304432,0.6426779102363188,0.29429456934833453,0.2488572454050551,-2.2207186222076416,-0.5018019080162048,1.110520362854004,-0.9148028492927551,2.38889479637146,0.6596096754074097,-1.2327035665512085,-0.32162952423095703,0.5257471799850464,1.5104564428329468,-2.0495808124542236,1.126878023147583
0.96,0.6666882634162903,0.4375689923763275,0.06509049236774445,-0.10547143220901489,-0.6900404691696167,-1.376235008239746,0.906411349773407,0.010720059275627136,-0.7338886857032776,0.5913894772529602,0.1751640886068344,0.15873712301254272,0.03459482061322128,0.46329965732061706,-0.15152583227304986,-0.5857507441130068,-0.46630048331505675,-1.2929933309283166,1.1161005996867348,-0.008960774101735996,-0.8873216549896398,0.5948790518609883,0.27104679971636925,0.2052020887016113,-2.752470016479492,-0.21094286441802979,0.7151379585266113,-0.4785598814487457,1.5227789878845215,0.6349484920501709,-1.3800809383392334,0.1301809847354889,1.4933764934539795,1.312822699546814,-1.127777338027954,0.7006563544273376
0.98,0.6498412489891052,0.5249550342559814,0.37312352657318115,-0.20193620026111603,-0.4489282965660095,-1.8018312454223633,1.0914254188537598,0.10653115808963776,-0.6967548727989197,0.32939431071281433,0.08228133618831635,0.0006608245894312859,0.2156812207895143,0.4231295898117649,-0.005697818143302313,-0.534083114185176,-0.47542889532068483,-1.649583791939035,1.1503187260110304,-0.007483276824870423,-0.8086462496693763,0.482483563628143,0.2041225680313492,0.12674003343859055,-3.6036624908447266,-0.40387240052223206,0.889910101890564,-0.2869376838207245,0.998788595199585,0.0026432983577251434,-0.897856593132019,0.7462470531463623,1.4596824645996094,1.6828508377075195,-1.0535097122192383,0.3291253447532654
1.0,0.3723638653755188,0.32274389266967773,0.44427308440208435,-0.31025952100753784,-0.2314589023590088,-2.0621538162231445,1.0232572555541992,0.17235331237316132,-0.32409700751304626,0.23845480382442474,0.04591812938451767,-0.23487794399261475,0.3216226477623927,0.4119662048248371,0.24075410105133987,-0.4690564801908287,-0.3489518422076337,-1.7152285995358738,1.0900024625322613,0.07620968510435577,-0.6315174178703294,0.3485884628391031,0.12215841255399577,-0.010704189737205504,-4.124307632446289,-0.6205190420150757,0.48548778891563416,-0.15529337525367737,0.8169096112251282,-0.939511775970459,-0.4629178047180176,0.8885461688041687,0.9047277569770813,1.5465143918991089,-0.30819401144981384,0.18367251753807068
1.02,0.5325468182563782,0.3734068274497986,0.4056651294231415,-0.09694330394268036,-0.2555067837238312,-2.2470474243164062,1.1213386058807373,0.15535855293273926,-0.19516226649284363,0.2831785976886749,0.13112923502922058,-0.3833101987838745,0.44088526172352527,0.4230581794876024,0.43734730185963777,-0.3980886625954245,-0.299496181875576,-1.6864179809905204,1.0572196980761637,0.13665376199302948,-0.41955578417144207,0.29115514688292704,0.09767984016758466,-0.17933051116078166,-4.4940948486328125,-0.19388660788536072,0.5868136286735535,-0.18928290903568268,0.9063571691513062,-1.533240795135498,-0.5110135674476624,0.811330258846283,1.2250936031341553,1.7426773309707642,-0.050324536859989166,0.5245169401168823
1.04,0.5268248915672302,0.39944222569465637,0.2917764484882355,0.02776690199971199,-0.18446454405784607,-2.2889606952667236,1.2820414304733276,0.14123009145259857,-0.17679502069950104,0.3730359375476837,0.13773922622203827,-0.5220915079116821,0.5027006991441961,0.4395323445036211,0.53086938839195,-0.33514056010172516,-0.3599706809190392,-1.656861648671247,1.0223242910368793,0.1211578808417636,-0.30277267699545335,0.3078736593903825,0.1080921378403774,-0.31149624329595405,-4.577921390533447,0.05553380399942398,0.638884425163269,-0.21753981709480286,1.0860718488693237,-2.0883660316467285,-0.36892908811569214,0.583552896976471,1.2136497497558594,2.0640828609466553,-0.013590041548013687,0.5509569048881531
1.06,0.5867446064949036,0.5156163573265076,0.1009189635515213,0.0031973207369446754,-0.11552643775939941,-2.1834986209869385,1.3872114419937134,0.046855077147483826,-0.6803610920906067,0.4445025622844696,0.021373629570007324,-0.5261477828025818,0.5440500253387248,0.4753652026818294,0.5054786297722436,-0.2953293055739757,-0.3585343552928376,-1.6395401087340928,1.0906465683022577,0.04393185566758702,-0.3949103581983328,0.36124258758544603,0.06841146412601248,-0.3186996988883172,-4.366997241973877,0.006394641473889351,0.8712326884269714,-0.40628984570503235,1.2290050983428955,-2.104591131210327,-0.23105287551879883,0.2018379271030426,1.333489179611206,2.2744228839874268,-1.0207221508026123,0.0854945182800293
1.08,0.4932296574115753,0.5353378653526306,-0.049120571464300156,-0.18240216374397278,-0.10496361553668976,-1.8535212278366089,1.2902469635009766,0.040786728262901306,-1.3042563199996948,0.4743252098560333,-0.09467990696430206,-0.46949896216392517,0.5339157170814692,0.5630966589317579,0.38435360910351163,-0.3140599448269705,-0.25841126129520664,-1.6281965583202078,1.2334418645081726,-0.005729429902752684,-0.7233854792664803,0.4070754769148523,-0.009913343249326474,-0.30107760932052197,-3.7070424556732178,-0.36480432748794556,0.9106757640838623,-0.4184265434741974,1.288650393486023,-1.8779958486557007,-0.20992723107337952,-0.09824114292860031,1.1464593410491943,2.080493927001953,-2.268512725830078,-0.37871962785720825
1.1,0.38909733295440674,0.4367777407169342,-0.06523381918668747,-0.17797714471817017,-0.1351224035024643,-1.5662938356399536,1.1855292320251465,0.030341416597366333,-1.0145570039749146,0.4484056532382965,-0.1509956568479538,-0.4286438226699829,0.52007669448462,0.5982346630484063,0.24536613234852003,-0.3479307647920342,-0.15706332729558448,-1.5868405025444985,1.2825071845118345,-0.0122856501046581,-0.9353096176935858,0.42492837423792373,-0.07921674995636582,-0.2865933907464932,-3.1325876712799072,-0.35595428943634033,0.7135554552078247,-0.43931716680526733,1.2368112802505493,-1.7145752906799316,-0.2702448070049286,-0.13046763837337494,0.9381946921348572,1.8710583448410034,-1.6891140937805176,-0.6039826273918152
1.12,0.38790860772132874,0.46527668833732605,0.04673150181770325,-0.2587047815322876,-0.12280841171741486,-1.4466174840927124,1.1229747533798218,0.004036352038383484,-0.9517942070960999,0.42874160408973694,-0.14922505617141724,-0.4006444215774536,0.49514970519656487,0.5781734781901767,0.14590442722495114,-0.3508157895609096,-0.10457927512773202,-1.4855543863148106,1.2122461181412083,-0.008782769233527851,-0.9421074604506706,0.42520708957200276,-0.11904995808610327,-0.27777036234218055,-2.893234968185425,-0.5174095630645752,0.7705533504486084,-0.49192729592323303,1.1974831819534302,-1.6025776863098145,-0.2456168234348297,0.0934630036354065,0.9358172416687012,1.7459495067596436,-1.5635883808135986,-0.596900224685669
1.1400000000000001,0.3961929976940155,0.4378597140312195,0.09257151931524277,-0.2473210096359253,-0.14574161171913147,-1.483398199081421,1.188286542892456,-0.05008748173713684,-0.7891297340393066,0.3398198187351227,-0.13402059674263,-0.43050065636634827,0.4717982320684629,0.5372275651139505,0.09788121239710265,-0.30905523916851874,-0.10939523701172713,-1.4682173260509988,1.1549402084867195,-0.005679006422287724,-0.8905119596972432,0.4001178829438825,-0.13030517297937896,-0.2736295429061707,-2.966796398162842,-0.4946420192718506,0.7157194018363953,-0.6001749634742737,1.0196396112442017,-1.722002625465393,-0.29148322343826294,0.18514303863048553,0.9523860216140747,1.876573085784912,-1.2382594347000122,-0.53608238697052
1.16,0.4516846239566803,0.46668216586112976,0.14487497508525848,-0.2636522352695465,-0.13539913296699524,-1.6352277994155884,1.2393313646316528,-0.04749712347984314,-0.5932338833808899,0.3013073205947876,-0.09300452470779419,-0.4628196656703949,0.4532740552580351,0.495082497110253,0.08665872392201542,-0.2515340445405943,-0.11899483917542927,-1.5778291838829048,1.1716480828776414,-0.0037839846950393627,-0.7812977348522091,0.35965973082703595,-0.11892485146028042,-0.2725435352506825,-3.2704555988311768,-0.527304470539093,0.7733643054962158,-0.5949942469596863,0.9426146149635315,-1.8512786626815796,-0.2707982659339905,0.28974995017051697,1.0633692741394043,1.9786627292633057,-0.8464677929878235,-0.37201809883117676
1.18,0.5228885412216187,0.5021782517433167,0.14116275310516357,-0.14660371840000153,-0.14103913307189941,-1.8489049673080444,1.3069266080856323,0.013750061392784119,-0.3839491009712219,0.2910667955875397,-0.03448888286948204,-0.5007218718528748,0.45026404580304946,0.4653453813250542,0.09537319530131826,-0.18893323010429464,-0.11170744407348551,-1.619893548243432,1.2391880366056385,0.00776297794946884,-0.6170252935703942,0.32213349166389094,-0.08584026843620102,-0.2730033166166797,-3.697809934616089,-0.29320743680000305,0.8443564772605896,-0.47249987721443176,0.9221335649490356,-2.002887487411499,-0.28207826614379883,0.28232550621032715,1.2057770490646362,2.1138532161712646,-0.42789822816848755,-0.13795553147792816
1.2,0.4190640449523926,0.46597570180892944,0.0769387036561966,-0.09332409501075745,-0.10678000748157501,-1.9893059730529785,1.3234081268310547,0.01803712546825409,-0.648057222366333,0.3253884017467499,-0.045827630907297134,-0.5412682294845581,0.43954763012845804,0.46583390172790845,0.09731984819141744,-0.13381734358516456,-0.0765259381482562,-1.6249292328193765,1.2752246184388998,0.025060956876586535,-0.5583870605896608,0.31216634958686396,-0.058029373544552565,-0.2743320177807467,-3.978611946105957,-0.1866481900215149,0.7719513773918152,-0.4639257490634918,0.990776777267456,-2.1650729179382324,-0.21356001496315002,0.1538774073123932,0.9981281161308289,2.1468162536621094,-0.9561144709587097,-0.18331052362918854
1.22,0.3461754322052002,0.4555959403514862,-0.05352592468261719,-0.11558623611927032,-0.0685427263379097,-1.9180320501327515,1.271059513092041,-0.01130262017250061,-0.9300625324249268,0.5128836631774902,-0.07850378006696701,-0.5851148962974548,0.40353139414641453,0.477397246367196,0.0670886768866372,-0.11894240242462685,-0.04070994509820442,-1.6241827581948522,1.3003178346388649,0.015998831241865682,-0.66673830617715,0.37537480182389127,-0.05613420635538091,-0.27607338663755426,-3.836064100265503,-0.23117247223854065,0.7511918544769287,-0.5226052403450012,1.3657673597335815,-2.3404595851898193,-0.1370854526758194,-0.10705184936523438,0.8523508906364441,2.042119026184082,-1.5201250314712524,-0.31401512026786804
1.24,0.465638667345047,0.5031222701072693,-0.09009518474340439,-0.09421701729297638,-0.1371743083000183,-1.8078824281692505,1.3360202312469482,-0.04515475034713745,-0.9814053773880005,0.47859469056129456,-0.10391495376825333,-0.5337108373641968,0.3993192505102957,0.4517819438807053,0.03815111842118851,-0.11952149261499878,-0.019158655099552873,-1.6187164190859027,1.3322565942896802,-0.015834957759417498,-0.8182189579175951,0.43762014023059925,-0.0663707458949214,-0.2767251567475943,-3.615764856338501,-0.18843403458595276,0.8462445735931396,-0.5903095006942749,1.2971893548965454,-2.134843349456787,-0.2743486166000366,-0.18019036948680878,1.0912773609161377,2.1720404624938965,-1.6228107213974,-0.4156598150730133
1.26,0.4434829652309418,0.48829567432403564,-0.028925228863954544,-0.14122240245342255,-0.12172920256853104,-1.7969251871109009,1.3571785688400269,-0.07755157351493835,-0.929057240486145,0.47370049357414246,-0.12118807435035706,-0.5543229579925537,0.39669577987288734,0.440680568177826,0.017711307107063933,-0.12144011908690966,-0.034843432784197687,-1.6126718757310265,1.3695553064866508,-0.016217116001734106,-0.8967518376104474,0.4617461751156912,-0.08364305090582878,-0.2769858379612112,-3.5938503742218018,-0.2824448049068451,0.8165913224220276,-0.6551031470298767,1.2874009609222412,-2.217291831970215,-0.24345840513706207,-0.05785045772790909,1.0469659566879272,2.2143571376800537,-1.518114447593689,-0.4847522974014282
1.28,0.4217042624950409,0.4647059738636017,0.014061929658055305,-0.07635026425123215,-0.1062171459197998,-1.8524425029754639,1.3865656852722168,-0.07743734121322632,-0.8149232864379883,0.4413544833660126,-0.11965504288673401,-0.6093557476997375,0.3929358910120713,0.4332152260312026,0.008373937966663952,-0.12295968883232804,-0.06390838398934931,-1.611526669721489,1.4037902811848502,-0.011722689793875841,-0.8852482029119436,0.46183807387570464,-0.09939806628826595,-0.2780391451695248,-3.7048850059509277,-0.1527005285024643,0.7694119215011597,-0.6548746824264526,1.2227089405059814,-2.43742299079895,-0.2124342918395996,0.02812385931611061,1.0034085512161255,2.2731313705444336,-1.2898465394973755,-0.47862017154693604
1.3,0.42796215415000916,0.44810137152671814,0.03739241138100624,0.0013105296529829502,-0.10539073497056961,-1.9423983097076416,1.4522101879119873,-0.07034745812416077,-0.6942665576934814,0.39735814929008484,-0.11198621243238449,-0.6661978960037231,0.39445573445308757,0.4223533025431309,0.005694130774577515,-0.11585700945150385,-0.09970126580269674,-1.614572355052647,1.435703142582594,-0.008839204023634495,-0.8198481816206323,0.4383782880875546,-0.10757141439729426,-0.27998169747417023,-3.884796619415283,0.0026210593059659004,0.7362027168273926,-0.6406949162483215,1.134716272354126,-2.6647915840148926,-0.21078146994113922,0.07478482276201248,1.015924334526062,2.4044203758239746,-1.0485330820083618,-0.44794484972953796
1.32,0.42710158228874207,0.4258081912994385,0.0798870176076889,0.06937793642282486,-0.09430515766143799,-2.0622646808624268,1.5444620847702026,-0.06456682085990906,-0.5963346362113953,0.3134211599826813,-0.10389106720685959,-0.712437093257904,0.4007498223275532,0.4116338456192386,0.022602500165460223,-0.08848347120188024,-0.12204894940803929,-1.6177709903199984,1.4927446376646178,-0.007402932061064715,-0.7277479862196837,0.388757376531798,-0.10994486004873344,-0.28230017370940086,-4.1245293617248535,0.13875587284564972,0.6916163563728333,-0.6291336417198181,0.9668422937393188,-2.849748373031616,-0.18861031532287598,0.1597740352153778,1.0142031908035278,2.5889241695404053,-0.8526692390441895,-0.41556426882743835
1.34,0.4383886158466339,0.39491698145866394,0.14543694257736206,0.14091716706752777,-0.08745045214891434,-2.2182648181915283,1.661216139793396,-0.07794326543807983,-0.434564471244812,0.19020114839076996,-0.08836392313241959,-0.7724002003669739,0.4135546780696531,0.3977227741222495,0.06420710631136095,-0.040513472983937544,-0.12281760846569152,-1.6197297003769857,1.5858735562707214,-0.006906187591674564,-0.6110807103375624,0.30798525909992225,-0.10532516902810952,-0.28490375969617093,-4.436529636383057,0.28183433413505554,0.6298339366912842,-0.6558865308761597,0.7204023003578186,-3.0896008014678955,-0.17490090429782867,0.2908738851547241,1.0367772579193115,2.822432279586792,-0.5291289687156677,-0.35345569252967834
1.36,0.48211488127708435,0.39273613691329956,0.22620132565498352,0.21764054894447327,-0.08809547126293182,-2.386343002319336,1.7913362979888916,-0.09456562995910645,-0.3910561800003052,0.021496804431080818,-0.08301568776369095,-0.7876874208450317,0.43611130555997524,0.38507464085849163,0.1304029250493802,0.030625485014779887,-0.11529634051629557,-1.6207052234371324,1.7236903760468394,-0.007022833626149656,-0.5002737604299513,0.1903243680357703,-0.09858136712645925,-0.2871268353382444,-4.772686004638672,0.43528109788894653,0.6254722476005554,-0.6891312599182129,0.38299360871315,-3.150749683380127,-0.17619094252586365,0.45240265130996704,1.1242297887802124,3.082672595977783,-0.44211238622665405,-0.3320627510547638
1.3800000000000001,0.5646005868911743,0.38229718804359436,0.32217252254486084,0.29026803374290466,-0.10544196516275406,-2.555640935897827,1.9486058950424194,-0.1228533685207367,-0.3541453778743744,-0.15354183316230774,-0.0804760754108429,-0.7719618678092957,0.4788200602284847,0.37869207995672344,0.21791333928618348,0.11675014859613386,-0.10441010805088528,-1.6294275522323003,1.8894580010135942,0.0037365481528234706,-0.41918142280281007,0.07940037089752951,-0.09112335259000759,-0.24274050356773724,-5.111281871795654,0.5805360674858093,0.604594349861145,-0.7457067370414734,0.032916340976953506,-3.0878474712371826,-0.21088393032550812,0.6443450450897217,1.2892011404037476,3.397211790084839,-0.3682907819747925,-0.3219043016433716
1.4000000000000001,0.7341766953468323,0.49506044387817383,0.32983314990997314,0.30153417587280273,-0.16577120125293732,-2.6903414726257324,2.0499446392059326,-0.20713818073272705,-0.44741731882095337,-0.13849465548992157,-0.07858426123857498,-0.7290330529212952,0.5473277230173228,0.38478571203654915,0.2784733041094531,0.2058950413633863,-0.11725088829821576,-1.634679945358389,2.0297080818843285,-0.007915757686413099,-0.40054343053284547,0.07501190237939663,-0.0805588037265129,-0.29708379639890237,-5.380682945251465,0.6030683517456055,0.830120861530304,-0.9142763614654541,0.06301067769527435,-2.9161322116851807,-0.33154240250587463,0.6596662998199463,1.6283533573150635,3.5998892784118652,-0.5548346638679504,-0.3143370449542999
1.42,0.7287299633026123,0.5131908655166626,0.3284766972064972,0.2436540573835373,-0.12717491388320923,-2.7792108058929443,2.1905899047851562,-0.25558412075042725,-0.6457371115684509,-0.14531241357326508,-0.10855637490749359,-0.72647625207901,0.5876637291234594,0.4030725528436732,0.2915757527257988,0.23549750891842375,-0.10696832031495311,-1.6303273325423802,2.137013677152692,-0.0001687555272242222,-0.47250275848909273,0.028601695987303936,-0.08428094252019344,-0.30081812640515804,-5.558421611785889,0.4873081147670746,0.8663817644119263,-1.0111682415008545,0.04937517270445824,-2.90590500831604,-0.25434982776641846,0.6569533944129944,1.6174598932266235,3.8811798095703125,-0.9514742493629456,-0.43422549962997437
1.44,0.8466833829879761,0.6297482848167419,0.27337774634361267,0.2057005763053894,-0.22380267083644867,-2.770803689956665,2.2271852493286133,-0.2915112376213074,-1.1693968772888184,-0.14979033172130585,-0.18290923535823822,-0.6861952543258667,0.6179765286601997,0.4171993611391152,0.2677516801506046,0.23030149574548084,-0.1109448430451226,-1.6253999289560228,2.2275257067560235,-0.001847671318003957,-0.713986948115037,-0.022817054558555344,-0.1069634358878468,-0.2948368721951866,-5.54160737991333,0.4114011526107788,1.099496603012085,-1.0830224752426147,0.04041934758424759,-2.744781017303467,-0.44760534167289734,0.5467554926872253,1.853366732597351,3.9543704986572266,-1.9987937211990356,-0.7316369414329529
1.46,0.8282095193862915,0.6568411588668823,0.16773031651973724,0.08126721531152725,-0.2857411503791809,-2.7600719928741455,2.1560146808624268,-0.30874037742614746,-1.323970913887024,-0.06734147667884827,-0.19128264486789703,-0.6543180346488953,0.6360323775625022,0.44474978142600335,0.23543553312703033,0.21968384798698043,-0.18195264907824654,-1.6227410822220927,2.265093193231589,-0.0032167957361101994,-0.9607127070271755,-0.04839967592809141,-0.13713711534680875,-0.2895835191589536,-5.520143985748291,0.1625344306230545,1.1536823511123657,-1.117480754852295,0.20531705021858215,-2.617272138595581,-0.5714823007583618,0.3354606330394745,1.816419005393982,3.8120293617248535,-2.3079419136047363,-0.7651305794715881
1.48,0.7712975144386292,0.6922853589057922,0.2005440890789032,0.10055462270975113,-0.25744393467903137,-2.893012762069702,2.1279633045196533,-0.2395763397216797,-1.2320761680603027,0.027566926553845406,-0.11344747990369797,-0.7613497376441956,0.6348744390329077,0.4893609495616556,0.21784606895115405,0.1996362817713617,-0.24589514188021538,-1.6200755735270616,2.2267545710957664,-0.009722943608546185,-0.9751987627462922,-0.027251024280934552,-0.141876273130818,-0.28805183793491,-5.786025524139404,0.20110924541950226,1.2245707511901855,-0.9791526794433594,0.3951338529586792,-3.0453989505767822,-0.5148878693580627,0.4010881781578064,1.7025949954986572,3.7559266090393066,-2.124152421951294,-0.45378991961479187
1.5,0.7797201871871948,0.7305099368095398,0.22079940140247345,0.21556217968463898,-0.29758718609809875,-2.941206216812134,2.0637402534484863,-0.18805769085884094,-1.245644450187683,0.04346811771392822,-0.08817508816719055,-0.8218250870704651,0.6429454809826913,0.5368665691556422,0.2168636624288446,0.18457077567267102,-0.2954359704595966,-1.6201361539616452,2.1481174919682213,-0.013890642442592709,-0.9420193155735291,0.006837940122395912,-0.12268697037597422,-0.28905969767197537,-5.882412433624268,0.43112435936927795,1.3010199069976807,-0.8761153817176819,0.42693623900413513,-3.2873003482818604,-0.5951743721961975,0.4415988028049469,1.7194403409957886,3.6274807453155518,-2.1512889862060547,-0.3527003526687622
1.52,0.7441116571426392,0.7030794620513916,0.21694624423980713,0.22632504999637604,-0.2967873513698578,-2.9461231231689453,2.0189342498779297,-0.1802976429462433,-1.1264482736587524,0.08190996944904327,-0.09254211187362671,-0.863525927066803,0.6614026396847646,0.5813219036068827,0.2287364387580122,0.1782836252335577,-0.32521531132728043,-1.620634265068503,2.0599879509913936,-0.013905875526348116,-0.9152741487257895,0.03981502169072796,-0.10826501379233464,-0.2909556387634892,-5.892246246337891,0.4526500999927521,1.2461589574813843,-0.8605952858924866,0.5038199424743652,-3.454103708267212,-0.5935747027397156,0.43389248847961426,1.6482232809066772,3.5378687381744385,-1.9128965139389038,-0.37016844749450684
1.54,0.7249501347541809,0.6841341853141785,0.22189052402973175,0.23337829113006592,-0.28010162711143494,-2.904442548751831,2.0038747787475586,-0.1827641725540161,-1.0410176515579224,0.09206245839595795,-0.10761245340108871,-0.8843028545379639,0.6791325755318818,0.6155851445055346,0.24152880161630577,0.17242769357983978,-0.3305672870100297,-1.6210861635301956,1.9919812261867555,-0.013439061997147107,-0.8987615705899102,0.067029699978774,-0.10540943449806046,-0.2927115482860359,-5.808885097503662,0.46675658226013184,1.208268404006958,-0.8655283451080322,0.5241249203681946,-3.5372114181518555,-0.5602032542228699,0.4437810480594635,1.6099002361297607,3.507749557495117,-1.7420353889465332,-0.43044981360435486
1.56,0.7181076407432556,0.6997705101966858,0.19177304208278656,0.22169825434684753,-0.27232852578163147,-2.8600077629089355,1.9897027015686035,-0.17735397815704346,-1.0658793449401855,0.11029066145420074,-0.10972438007593155,-0.8785556554794312,0.6956409112729,0.6487650967619041,0.25013890667024724,0.16896279764695574,-0.3179572441847385,-1.6213297131000826,1.960623317726695,-0.013007540725347308,-0.8897448105503375,0.08796996687108845,-0.10991234391092222,-0.2937787490128315,-5.720015525817871,0.44339650869369507,1.2395410537719727,-0.8547079563140869,0.5605813264846802,-3.5142226219177246,-0.5446570515632629,0.3835460841655731,1.5962152481079102,3.479405403137207,-1.7917587757110596,-0.4388975203037262
1.58,0.7138906121253967,0.6930586695671082,0.19258850812911987,0.22742541134357452,-0.26354584097862244,-2.826354742050171,1.9916577339172363,-0.17676523327827454,-0.9781674742698669,0.1199968010187149,-0.11204826831817627,-0.9011987447738647,0.7095306893152644,0.6727376793442758,0.25041680694679347,0.17464983503813064,-0.29680640652034274,-1.6182954809818266,1.95670042197815,-0.0035087736023095995,-0.8845548824287108,0.1083942128764638,-0.1117855879121685,-0.29475415817431,-5.652709484100342,0.45485082268714905,1.2261173725128174,-0.8535304665565491,0.5799936056137085,-3.604794979095459,-0.5270916819572449,0.38517701625823975,1.5877811908721924,3.4833154678344727,-1.6163349151611328,-0.4481930732727051
1.6,0.7021570801734924,0.7052637338638306,0.18144822120666504,0.22854211926460266,-0.26325249671936035,-2.766385555267334,1.9964866638183594,-0.1732293963432312,-1.0194908380508423,0.0991683155298233,-0.12133267521858215,-0.8992584943771362,0.715886575557883,0.6934884707993798,0.2493177188353646,0.19222614481197348,-0.26693907125590627,-1.6184334125140551,1.9691133781787042,-0.0008541355164490793,-0.8817508490999707,0.11711978040194523,-0.1146206719215596,-0.295395084870415,-5.532771110534668,0.4570842385292053,1.2505275011062622,-0.8464587926864624,0.5383366346359253,-3.597033977508545,-0.5265049934387207,0.3628964424133301,1.5643141269683838,3.4929733276367188,-1.6989816427230835,-0.4853307008743286
1.62,0.6985593438148499,0.6953801512718201,0.18492791056632996,0.23005613684654236,-0.2692067623138428,-2.7440757751464844,1.9938011169433594,-0.17375421524047852,-0.9750506281852722,0.08125074207782745,-0.12827648222446442,-0.9122568964958191,0.7214402533629725,0.7075597865967185,0.2481056613040561,0.21561731381298557,-0.23771620433579285,-1.619140294937009,1.9839312551784885,-0.001160682396205314,-0.8799489768332629,0.11682124488689513,-0.11737407765034186,-0.29589046131721075,-5.488151550292969,0.4601122736930847,1.2307603359222412,-0.847508430480957,0.5025014877319336,-3.6490275859832764,-0.5384135246276855,0.3698558211326599,1.5571186542510986,3.4876022338867188,-1.6101012229919434,-0.5131059288978577
