time,cmd_L_hip_pitch,cmd_R_hip_pitch,cmd_L_hip_roll,cmd_R_hip_roll,cmd_L_hip_yaw,cmd_R_hip_yaw,cmd_L_knee,cmd_R_knee,cmd_L_foot_pitch,cmd_R_foot_pitch,cmd_L_foot_roll,cmd_R_foot_roll,pos_L_hip_pitch,pos_R_hip_pitch,pos_L_hip_roll,pos_R_hip_roll,pos_L_hip_yaw,pos_R_hip_yaw,pos_L_knee,pos_R_knee,pos_L_foot_pitch,pos_R_foot_pitch,pos_L_foot_roll,pos_R_foot_roll,act_R_hip_yaw,act_R_hip_roll,act_R_hip_pitch,act_R_knee,act_R_foot_pitch,act_R_foot_roll,act_L_hip_yaw,act_L_hip_roll,act_L_hip_pitch,act_L_knee,act_L_foot_pitch,act_L_foot_roll
0.0,-0.07067064195871353,0.07531312853097916,0.020522551611065865,-0.012118859216570854,-0.020717548206448555,0.0014199665747582912,0.23273172974586487,0.2301170974969864,-0.47102999687194824,-0.27464765310287476,-0.04011623188853264,0.11581775546073914,-0.06348040752680784,0.0629855796525009,0.007129541445866591,-0.003204926976558739,-0.021074358715986105,0.004233845884527135,0.2472265372023218,0.24560819861331204,-0.30393107498252747,-0.25192934267281897,-0.01752752150691771,0.04504666560982339,0.0028399331495165825,-0.02423771843314171,-0.009373739361763,-0.03976581618189812,-0.20929530262947083,0.46327102184295654,-0.04143509641289711,0.04104510322213173,0.018658721819519997,-0.034536536782979965,-0.6020600199699402,-0.16046492755413055
0.02,-0.03820962831377983,0.07430396974086761,-0.05153351649641991,-0.017409222200512886,0.006581885274499655,0.004334914498031139,0.3517891764640808,0.36542797088623047,0.1181061714887619,0.27922123670578003,0.03688938915729523,0.05915936082601547,-0.060471307800938345,0.06108240564309741,-0.0012981571741983655,-0.012844151390140274,-0.0026136588323496775,0.0016328925310726676,0.29233832591684383,0.2949765446778416,-0.244691369010523,-0.27122598912070633,0.00569802076979966,0.05100467618331169,0.008669828996062279,-0.03481844440102577,-0.011392062529921532,0.23085595667362213,0.8984424471855164,0.2366374433040619,0.01316377054899931,-0.10306703299283981,0.08358073979616165,0.20357835292816162,0.5762123465538025,0.1475575566291809
0.04,-0.017758039757609367,0.06906868517398834,-0.08417128026485443,-0.046448543667793274,0.010165408253669739,0.0030910915229469538,0.30919593572616577,0.41599440574645996,-0.1775951385498047,0.2767277956008911,-0.00043126335367560387,-0.029845697805285454,-0.04679754266287018,0.050684065071131705,-0.022910802034757753,-0.028051274504187665,0.009069068461712059,0.003506701751244638,0.3041649908724445,0.3456941180622432,-0.21208008258231936,-0.26606175870226667,0.0028729088235454553,0.015395414513754356,0.0061821830458939075,-0.09289708733558655,-0.021862633526325226,0.3319888412952423,0.8934555649757385,-0.11938279122114182,0.020330816507339478,-0.16834256052970886,0.12448392063379288,0.11839185655117035,-0.015190287493169308,-0.0017250534147024155
0.06,-0.017921002581715584,-0.07497675716876984,0.0034978222101926804,0.014668467454612255,-0.010594088584184647,0.006480459589511156,0.20262494683265686,0.39105087518692017,-0.5943001508712769,-0.3984684348106384,-0.10197864472866058,-0.08926720917224884,-0.03820131594491144,0.004153315119594892,-0.01507844961131664,-0.010248264521552738,-0.006408827195299981,0.0013379388664089143,0.2654283981071928,0.36871207129872924,-0.3552735381652216,-0.3185002052378619,-0.040777840947704765,-0.030788223942500696,0.012960919179022312,0.02933693490922451,-0.309953510761261,0.28210172057151794,-0.45693686604499817,-0.35706883668899536,-0.021188177168369293,0.006995644420385361,0.12415799498558044,-0.09475011378526688,-0.8486003279685974,-0.40791457891464233
0.08,0.10661610960960388,-0.04415857791900635,0.11362046003341675,0.03521426022052765,-0.01832558400928974,0.014505961909890175,0.16178786754608154,0.4151350259780884,-0.6495246291160583,-0.6238812208175659,-0.12294909358024597,-0.04753326624631882,0.01849813855300951,-0.02833682649343364,0.021850994260579706,0.009770724681815909,-0.010374884512282431,0.009308799019499894,0.24255595061530105,0.38880608083374507,-0.45025923793731737,-0.44272858046125874,-0.05112889960763602,-0.038133059685451276,0.02901192381978035,0.0704285204410553,-0.248317152261734,0.33027008175849915,-0.9077624678611755,-0.19013306498527527,-0.03665116801857948,0.2272409200668335,0.3732322156429291,-0.17642425000667572,-0.9590492844581604,-0.4917963743209839
0.1,-0.0920141413807869,-0.1821066290140152,0.04103616997599602,-0.009434491395950317,-0.004328910261392593,0.036260005086660385,0.31017953157424927,0.5735487341880798,-0.07281587272882462,-0.2521987557411194,-0.21108508110046387,0.04396580159664154,-0.022533018042279095,-0.07263598422371564,0.030804880604031387,0.0001729049909429434,-0.007449482267985462,0.03196220096716901,0.27236239396313094,0.47321895314380424,-0.2825395545244518,-0.3637381101057024,-0.0652965674752562,-0.0031428842237023412,0.07252001017332077,-0.018868982791900635,-0.5242132544517517,0.6470974683761597,-0.16439750790596008,0.17586320638656616,-0.008657820522785187,0.08207233995199203,-0.024028277024626732,0.12035908550024033,0.19436825811862946,-0.8443403244018555
0.12,0.21618454158306122,0.022464415058493614,0.14406819641590118,0.16422905027866364,-0.029558425769209862,-0.012674584053456783,0.24800549447536469,0.4959509074687958,-0.6297500133514404,-0.6286860108375549,-0.17330817878246307,-0.10712176561355591,-0.007453761440458669,-0.07032836271274301,0.0736013565028974,0.02258796996490084,-0.027927845327160628,0.000787054141640514,0.29311434622190047,0.4763313404027601,-0.30874210188555024,-0.45190230268544307,-0.03268398181030972,-0.04201265903430718,-0.025349168106913567,0.32845810055732727,-0.11507117003202438,0.49190181493759155,-0.9173720479011536,-0.42848706245422363,-0.059116851538419724,0.28813639283180237,0.5923690795898438,-0.003989019431173801,-0.9194999933242798,-0.6932327151298523
0.14,-0.10959205031394958,-0.322462797164917,0.05359340459108353,-0.14245852828025818,-0.0011255902936682105,0.031108248978853226,0.35203590989112854,0.6208465099334717,-0.21530403196811676,-0.5030415058135986,-0.23979821801185608,0.06452878564596176,0.010940265565774722,-0.14465450119634082,0.05292000578240758,-0.01927877642884911,-0.0071088401008327605,0.01809545529304913,0.3063761071561913,0.5422217755721745,-0.31024834729750195,-0.4688773569444526,-0.023065765103599735,-0.002053805502207783,0.06221649795770645,-0.28491705656051636,-0.8049256205558777,0.7416930794715881,-0.6660829782485962,0.25811514258384705,-0.002251180587336421,0.10718680918216705,-0.05918410047888756,0.20407183468341827,-0.09060806781053543,-0.9591928720474243
0.16,0.2348974198102951,0.047898225486278534,0.1648733764886856,0.09074621647596359,0.006514253094792366,-0.014402953907847404,0.49532550573349,0.3981929421424866,-0.2468762993812561,-0.502009391784668,-0.1824728548526764,0.13596293330192566,0.05711339214693528,-0.13486711170960286,0.08817767889768538,-0.010732431784125288,-0.0041473353835729965,-0.007269253121888561,0.3910823136039099,0.478847279624646,-0.3574459448978536,-0.4767488107467521,-0.018666389135526627,0.05814356636662681,-0.02880590781569481,0.18149243295192719,-0.06420354545116425,0.29638588428497314,-0.6640188097953796,0.5438517332077026,0.013028506189584732,0.3297467529773712,0.6297948360443115,0.49065104126930237,-0.15375261008739471,-0.7298914194107056
0.18,-0.0185405146330595,-0.2859436273574829,-0.046951208263635635,-0.10257437080144882,0.016722925007343292,0.016514504328370094,0.43950292468070984,0.43836337327957153,-0.3372896909713745,-0.33130595088005066,-0.14253494143486023,0.08043476194143295,0.048275137876297586,-0.16116806459373043,0.045590445595164585,-0.042206597672380046,0.013129166906332835,0.012390833843190967,0.4069606864291803,0.4674066700038112,-0.360328449620424,-0.40658862709272064,-0.053946025879051764,0.06776230002078162,0.03302900865674019,-0.20514874160289764,-0.7318872809410095,0.37672674655914307,-0.32261189818382263,0.3217390477657318,0.033445850014686584,-0.09390241652727127,0.12291897088289261,0.3790058493614197,-0.33457937836647034,-0.5701397657394409
0.2,0.3177787959575653,-0.026871947571635246,-0.050515297800302505,-0.20270825922489166,0.0392102412879467,-0.0002861850953195244,0.620407223701477,0.23637335002422333,-0.6617303490638733,-0.6627904772758484,-0.06153230369091034,0.2094952017068863,0.12352240125948329,-0.14974029935567998,0.006692422336976408,-0.08664742525069,0.027495272307802607,-0.001629998476771601,0.502556796307876,0.3745464845755338,-0.4739492356537535,-0.40732542281792433,-0.05795421754521563,-0.051810891224490035,-0.0005723701906390488,-0.4054165184497833,-0.2137438952922821,-0.027253298088908195,-0.9855809211730957,0.8379808068275452,0.0784204825758934,-0.10103059560060501,0.7955576181411743,0.7408143877983093,-0.9834607243537903,-0.24612921476364136
0.22,-0.012871967628598213,-0.30713969469070435,-0.06935852766036987,-0.27047616243362427,0.014658824540674686,0.04412611946463585,0.6483410596847534,0.29646554589271545,-0.6681410670280457,-0.17438866198062897,0.02655770257115364,0.22981059551239014,0.13812035856619892,-0.1763598807573091,-0.02893348509996245,-0.1324704427019454,0.022096384434895037,0.02821665533694899,0.5590399907333851,0.3602128229137184,-0.5536491561466123,-0.28699370178746636,-0.02103852973983917,-0.06638126815603616,0.0882522389292717,-0.5409523248672485,-0.7742794156074524,0.09293107688426971,-0.008777332492172718,0.9192423820495605,0.029317649081349373,-0.13871705532073975,0.13425606489181519,0.7966821193695068,-0.9962821006774902,0.10623081028461456
0.24,0.3307378888130188,0.05770140513777733,-0.0015653540613129735,-0.13261248171329498,0.0649643987417221,-0.00516295013949275,0.7408688068389893,0.20470589399337769,-0.669106125831604,-0.6451312899589539,-0.13076558709144592,0.23089192807674408,0.14008778083764,-0.1118950202952316,-0.012087838837198788,-0.13352079386710045,0.04900821163997096,0.00176675810679913,0.6398154338658966,0.29796213101147123,-0.5963871502931831,-0.32628506036790605,-0.06141573860063072,-0.08474949393068155,-0.0103259002789855,-0.26522496342658997,-0.044597186148166656,-0.09058821201324463,-0.9502625465393066,0.9235677123069763,0.1299287974834442,-0.003130708122625947,0.8214758038520813,0.9817376732826233,-0.9982122182846069,-0.5230623483657837
0.26,0.00602932833135128,-0.042498260736465454,-0.19677652418613434,-0.353065550327301,0.056454602628946304,0.025483475998044014,0.6968886852264404,0.43089455366134644,-0.6685150265693665,0.32754889130592346,-0.0297755915671587,0.2436167597770691,0.10679725731825493,-0.07405997831522732,-0.07666207484636706,-0.1983367495343433,0.05362149080635252,0.022545962020437214,0.656962566278883,0.3533221130989536,-0.6196917352111251,-0.26922724100923967,-0.04861973846402435,-0.04057859879379724,0.05096695199608803,-0.706131100654602,-0.24499651789665222,0.36178910732269287,0.9950977563858032,0.9744670391082764,0.11290920525789261,-0.3935530483722687,0.17205865681171417,0.8937773108482361,-0.9970300793647766,-0.1191023662686348
0.28,0.005689671263098717,-0.12969517707824707,-0.04500485584139824,-0.0672498419880867,0.028394900262355804,0.032177362591028214,0.5675030946731567,0.2733214795589447,-0.540816068649292,-0.5160831809043884,-0.014772728085517883,0.2397010326385498,0.07643052425390402,-0.09253817629561635,-0.06283469514531252,-0.17067007820346125,0.035162456965100085,0.0372619626771684,0.6126039442541883,0.335691807852467,-0.5763903449991958,-0.3515575568613339,-0.0328437742857215,0.04995095978160333,0.06435472518205643,-0.1344996839761734,-0.41939035058021545,0.046642985194921494,-0.6921663284301758,0.9588041305541992,0.05678980052471161,-0.09000971168279648,0.17137934267520905,0.6350061297416687,-0.7416321635246277,-0.05909091234207153
0.3,0.12868143618106842,0.13154035806655884,0.0706779882311821,-0.21495187282562256,0.033146195113658905,0.004216211847960949,0.4960229992866516,0.47966524958610535,-0.06298308074474335,0.18300996720790863,0.13063263893127441,0.23667219281196594,0.07295429893706887,-0.029442472823067185,-0.013108599891062073,-0.1351563586924075,0.03298313810865684,0.010000689976426216,0.568029815369507,0.3786029504938076,-0.3561821134925651,-0.23225638507478852,0.03484722156596002,0.12321210882885132,0.008432423695921898,-0.4299037456512451,0.10308071970939636,0.4593304991722107,0.706019937992096,0.9466887712478638,0.06629239022731781,0.1413559764623642,0.41736286878585815,0.49204596877098083,0.214033842086792,0.5225305557250977
0.32,-0.04455135017633438,-0.12799105048179626,-0.3303009271621704,-0.2845000922679901,0.053376153111457825,0.05110670626163483,0.15712597966194153,0.6091540455818176,-0.5587252974510193,0.3224395215511322,-0.13773465156555176,0.0068142288364470005,0.03683081434948938,-0.06309123686369222,-0.044984996960302566,-0.18624872932458927,0.044461872116129286,0.041491222570718946,0.40419148686073364,0.4720574140762487,-0.39413561415820586,-0.24067122977342398,-0.022077981225240365,0.02502111555868565,0.10221341252326965,-0.5690001845359802,-0.41598209738731384,0.7183080911636353,0.9848790168762207,0.027256915345788002,0.10675230622291565,-0.6606018543243408,0.07089729607105255,-0.18574802577495575,-0.7774505615234375,-0.550938606262207
0.34,-0.09910629689693451,0.002251075580716133,-0.09379421174526215,-0.09945271164178848,0.04132205620408058,0.05644416809082031,0.2413731813430786,0.7002354860305786,-0.011336175724864006,0.3034725487232208,-0.15812034904956818,-0.10109015554189682,-0.030634059507384407,-0.05000888167530455,-0.04306093671205845,-0.17629139240233943,0.0404119597443166,0.05341430859386925,0.34012236424310205,0.5618974533537666,-0.24771344891163366,-0.21592260436226995,-0.08225765236928598,-0.03359826995807671,0.11288833618164062,-0.19890542328357697,-0.15549784898757935,0.9004709720611572,0.946945071220398,-0.4043606221675873,0.08264411240816116,-0.1875884234905243,-0.038212601095438004,-0.017253637313842773,0.3173276484012604,-0.6324813961982727
0.36,-0.038989633321762085,-0.1269911825656891,0.07386855036020279,-0.006026148796081543,0.005623809061944485,0.01435424666851759,0.12082177400588989,0.7100999355316162,-0.5862389802932739,-0.6328339576721191,-0.10146728903055191,-0.1492043435573578,-0.02349082223984356,-0.08479104154124333,0.006100476723615421,-0.10888707730626256,0.013773953126016057,0.02311812038835859,0.2573019318801706,0.6263249645867108,-0.34516071256505615,-0.36263306911909005,-0.09013894428320485,-0.08380683756883975,0.02870849333703518,-0.012052297592163086,-0.4139823615550995,0.9201999306678772,-0.925667941570282,-0.5968173742294312,0.01124761812388897,0.14773710072040558,0.08202072978019714,-0.2583564519882202,-0.8324779272079468,-0.40586915612220764
0.38,-0.0018547790823504329,-0.18385489284992218,0.1085750162601471,0.14683544635772705,0.007712951395660639,0.023591982200741768,0.05806468427181244,0.726854681968689,-0.6491462588310242,-0.665837824344635,0.11744526773691177,0.008004944771528244,-0.02695668868019412,-0.12826235825774293,0.04748092973125448,-0.04604463325052974,0.009713902932116564,0.02492398320625382,0.2054336050311411,0.6678287288529199,-0.3103282704983996,-0.4920588002958082,-0.008933778081359494,-0.046972438149787396,0.047183964401483536,0.2936708927154541,-0.5277097821235657,0.9537094235420227,-0.991675615310669,0.032019779086112976,0.015425902791321278,0.2171500325202942,0.1562904417514801,-0.3838706314563751,-0.958292543888092,0.4697810709476471
0.4,-0.1482081115245819,-0.15354430675506592,0.17059464752674103,0.16340447962284088,0.024287447333335876,0.04276247322559357,0.3809008300304413,0.7456034421920776,0.240658238530159,-0.663985013961792,-0.022300129756331444,0.04407493397593498,-0.06840756255741563,-0.13128995923520095,0.09691107753621529,0.03664894161603664,0.01949428247331236,0.035667043922681635,0.2665562827022604,0.6985041037173152,-0.20393145422009226,-0.561136684548033,-0.016793587811670257,-0.005969656356714102,0.08552494645118713,0.32680895924568176,-0.46708860993385315,0.9912068843841553,-0.9879700541496277,0.17629973590373993,0.04857489466667175,0.34118929505348206,-0.1364162266254425,0.26180166006088257,0.8213164806365967,-0.08920051902532578
0.42,0.14160320162773132,-0.03048197738826275,0.03980882093310356,0.02588682994246483,0.002914456883445382,0.01881439797580242,0.2640162408351898,0.644700288772583,-0.5110396146774292,-0.590569019317627,-0.15904758870601654,0.014024573378264904,-0.0144590470033887,-0.09800602441278647,0.07963711932680916,0.03896751946492206,0.009498281931765322,0.022041072518948653,0.27560836716897136,0.6721760010782114,-0.33020496670816407,-0.5663156843571321,-0.074544272770317,0.0030888673050735583,0.03762879595160484,0.05177365988492966,-0.2209639549255371,0.7894006371498108,-0.8411380648612976,0.056098293513059616,0.005828913766890764,0.07961764186620712,0.44320639967918396,0.028032492846250534,-0.6820792555809021,-0.6361903548240662
0.44,-0.12297942489385605,-0.3770114481449127,-0.06765517592430115,-0.2138538360595703,0.016533251851797104,0.04787825047969818,0.23853453993797302,0.703443706035614,-0.6331595182418823,-0.6348233222961426,0.052514705806970596,-0.10088334232568741,-0.036998505226872314,-0.1163754734285925,0.009946197211623098,-0.024486809353029798,0.01702456485693043,0.04030612526476482,0.2611734210895757,0.6899132377355456,-0.43696467723655147,-0.5878051928071336,-0.01995754089064876,-0.039605688062429055,0.09575650095939636,-0.4277076721191406,-0.9140229225158691,0.906887412071228,-0.9296466708183289,-0.40353336930274963,0.03306650370359421,-0.1353103518486023,-0.08595884591341019,-0.02293093502521515,-0.9263190627098083,0.21005882322788239
0.46,0.2683294415473938,0.0434066504240036,0.07314170897006989,-0.1686873733997345,0.03658228740096092,0.006819127593189478,0.46234849095344543,0.4892508387565613,-0.3363756835460663,-0.49351415038108826,0.10781126469373703,0.1423167735338211,0.013135175863465225,-0.12036533649575588,0.0026204759345073033,-0.0818912734749211,0.03511446935673159,0.013296567104752974,0.3497966227692351,0.5968321885052509,-0.39311177901392974,-0.5384945635092652,0.0367068597185608,0.024983815157619268,0.013638255186378956,-0.337374746799469,-0.07318669557571411,0.47850167751312256,-0.6470283269882202,0.5692670941352844,0.07316457480192184,0.14628341794013977,0.6966589093208313,0.42469698190689087,-0.3327513635158539,0.4312450587749481
0.48,-0.04691920429468155,-0.3409210443496704,-0.2919771373271942,-0.22857873141765594,0.04898402839899063,0.034965526312589645,0.3555279076099396,0.4901905655860901,-0.6158381700515747,-0.0033014100044965744,0.08894383907318115,0.022497691214084625,0.03679349473502322,-0.14389755024573536,-0.042069336088799945,-0.15749001658992334,0.051969140374457976,0.03224133278773392,0.3503039856745952,0.5564992769325784,-0.44025032201952047,-0.3111027995796098,0.05502918237764753,0.02723442149863659,0.06993105262517929,-0.4571574628353119,-0.8418421149253845,0.4803811013698578,0.33339717984199524,0.0899907648563385,0.09796805679798126,-0.5839542746543884,0.06616158783435822,0.21105581521987915,-0.8916763067245483,0.3557753562927246
0.5,0.22745315730571747,-0.05482892692089081,0.003215411677956581,-0.21836073696613312,0.05567171424627304,0.0317205972969532,0.6432205438613892,0.33427295088768005,-0.6451369524002075,-0.6601231098175049,-0.08842989057302475,0.24062460660934448,0.09598715064215535,-0.12429075384651121,-0.05333697139444855,-0.17305011149550853,0.05257432050381855,0.02722197108781519,0.4689178108807804,0.46829660836422626,-0.5245960827962642,-0.3516013024932425,-0.004137780259073133,0.05734605534543789,0.0634411945939064,-0.43672147393226624,-0.26965785026550293,0.1685458868741989,-0.9802461862564087,0.9624984264373779,0.11134342849254608,0.006430823355913162,0.6149063110351562,0.7864410281181335,-0.950273871421814,-0.353719562292099
0.52,-0.0430070124566555,-0.17065484821796417,-0.2097926288843155,-0.31936582922935486,0.05404874309897423,0.05231688544154167,0.5372096300125122,0.4681642949581146,-0.6045711040496826,0.2067873328924179,-0.03778710961341858,0.24438759684562683,0.060238446766229345,-0.12892201414405755,-0.09362901607488706,-0.21842235798710607,0.05507737150910899,0.049069292533104956,0.49239176014547703,0.4773702643609007,-0.550281362153548,-0.24349496305759902,-0.019981833629062466,-0.03140531565289764,0.10463377088308334,-0.6387316584587097,-0.5013096928596497,0.43632858991622925,0.7535746693611145,0.9775503873825073,0.10809748619794846,-0.419585257768631,0.07398597151041031,0.5744193196296692,-0.8691421747207642,-0.15114843845367432
0.54,0.17196418344974518,0.15155565738677979,-0.01726699434220791,-0.18853503465652466,0.054348766803741455,0.009755557402968407,0.501305103302002,0.5538170337677002,-0.5641765594482422,0.04317350685596466,-0.0978550985455513,0.24825909733772278,0.05367210856100001,-0.07754184598383745,-0.06722055982222716,-0.20860427015638242,0.05244401816211373,0.02028410725329721,0.5109840932379374,0.4972763700113029,-0.5191304703609466,-0.24457550095214514,-0.045051057996917505,-0.04574948993616683,0.019511114805936813,-0.3770700693130493,0.14311130344867706,0.6076340675354004,0.426347017288208,0.9930363893508911,0.10869753360748291,-0.03453398868441582,0.5039283633232117,0.5026102066040039,-0.7883530855178833,-0.3914203941822052
0.56,-0.07863247394561768,-0.2088148444890976,-0.10036609321832657,-0.18978680670261383,0.00616090465337038,0.031219927594065666,0.20287252962589264,0.5241526365280151,-0.5065186023712158,-0.3595673739910126,-0.013148920610547066,-0.009955039247870445,0.00025650188533848234,-0.10167608482802214,-0.07790387876111006,-0.20426700909480341,0.021187962596386136,0.027431292115653504,0.3973807933087877,0.5101135425957288,-0.3647990279119021,-0.29189420165471486,-0.03621606674564406,-0.02587714121315333,0.06243985518813133,-0.37957361340522766,-0.5776296854019165,0.548305332660675,-0.37913477420806885,-0.03982015699148178,0.01232180930674076,-0.20073218643665314,0.0027350489981472492,-0.09425493329763412,-0.6730371713638306,-0.05259568244218826
0.58,0.06635774672031403,0.046504441648721695,0.17572084069252014,0.05274544656276703,0.005350535269826651,-0.0003288608859293163,0.2490212768316269,0.6659443974494934,-0.30968716740608215,-0.22772562503814697,0.009007737040519714,-0.08264099061489105,-0.012313749199821644,-0.06185509728570594,-0.006917827791775013,-0.12126764590094184,0.010278477010738273,0.006890288099962321,0.36237847188706573,0.5675507973776726,-0.28871261520411545,-0.2606077373246235,-0.04405034087268282,-0.049076901379330136,-0.0006577217718586326,0.10549089312553406,-0.06699111312627792,0.8318887948989868,-0.11545124650001526,-0.3305639624595642,0.010701070539653301,0.3514416813850403,0.29271548986434937,-0.001957458443939686,-0.279374361038208,0.03603094816207886
0.6,-0.17554885149002075,-0.3425597846508026,-0.12084150314331055,-0.10861103236675262,0.041103679686784744,0.02907077595591545,0.24876315891742706,0.7324707508087158,0.08933110535144806,-0.6020583510398865,-0.18476325273513794,0.024985460564494133,-0.05384164797404925,-0.08251542891547263,-0.0104658779508532,-0.10818140199228997,0.03613356589556039,0.02306440958218644,0.30774414898508073,0.6422553486868187,-0.18151700976609278,-0.38788321252808006,-0.08877874683680304,-0.018080489508520693,0.0581415519118309,-0.21722206473350525,-0.8451195955276489,0.9649414420127869,-0.8641166687011719,0.09994184225797653,0.08220735937356949,-0.2416830062866211,-0.191097691655159,-0.00247369147837162,0.5186622142791748,-0.7390530109405518
0.62,-0.03559983894228935,0.08174698054790497,0.22369757294654846,0.25103917717933655,0.033300239592790604,-0.01616252027451992,0.4687342643737793,0.7062627077102661,0.3228318393230438,-0.5953653454780579,-0.11521356552839279,-0.07307843118906021,-0.05383458549781037,-0.052920065201240755,0.042964296979157116,-0.018691536679062728,0.032773209992722895,-0.0030427635064809045,0.3768329879850024,0.6615749868989083,-0.2095738142724164,-0.47446125732785793,-0.07234043003815817,-0.03915804296658248,-0.03232504054903984,0.5020783543586731,0.0034939651377499104,0.912525475025177,-0.8507306575775146,-0.29231372475624084,0.06660047918558121,0.4473951458930969,0.08880031853914261,0.4374685287475586,0.985663652420044,-0.46085426211357117
0.64,-0.2447890043258667,-0.1809971183538437,0.029391087591648102,-0.005720475222915411,0.01773149147629738,0.011609671637415886,0.597871720790863,0.5922093391418457,0.329976350069046,-0.6046981811523438,0.13021688163280487,0.040006041526794434,-0.09645709272665716,-0.0312497574571829,0.045815514723998536,0.02052574965962605,0.024459662165928948,0.004497246636337686,0.4599843026707148,0.6365925753120809,-0.22417085161781394,-0.5250531542103032,0.012972992600548579,-0.006702824774007675,0.023219343274831772,-0.011440950445830822,-0.5219942331314087,0.6844187378883362,-0.8693963289260864,0.16002416610717773,0.03546298295259476,0.058782175183296204,-0.3295780122280121,0.6957434415817261,0.9999526739120483,0.5208675265312195
0.66,0.12024250626564026,0.17292392253875732,0.1309354603290558,0.2687741816043854,-0.00444201473146677,-0.03468633443117142,0.7207854390144348,0.3379215598106384,0.3267565369606018,-0.2639976739883423,0.11226644366979599,-0.0010271312203258276,-0.0438528366419671,-0.013260801929885005,0.07490576861550659,0.06184692602767779,0.003258977877393574,-0.02476016860621851,0.5721354169905685,0.5087272434031611,-0.2221692169687165,-0.4094426540756664,0.05787508739162207,-0.0036737088661338677,-0.06937266886234283,0.5375483632087708,0.18584784865379333,0.17584308981895447,-0.1879953294992447,-0.00410852488130331,-0.00888402946293354,0.2618709206581116,0.40048500895500183,0.9415708780288696,0.9935130476951599,0.44906577467918396
0.68,-0.017775708809494972,-0.21837325394153595,-0.020160792395472527,-0.12109995633363724,-0.01966879889369011,-0.008703161031007767,0.6625493764877319,0.22009281814098358,-0.210214763879776,-0.3211837410926819,0.09313037991523743,0.0006511726533062756,-0.01544180102935548,-0.034241140994068345,0.03363816071979906,0.042217089776892744,-0.010375707757570986,-0.012186268554231066,0.6042829673884449,0.3957079403410923,-0.2144641640865981,-0.3632408101138923,0.07265991130200443,-0.001817308990132798,-0.017406322062015533,-0.24219991266727448,-0.5967465043067932,-0.059814367443323135,-0.3023674786090851,0.0026046906132251024,-0.03933759778738022,-0.04032158479094505,0.12444858253002167,0.8250988125801086,-0.08042953908443451,0.3725215196609497
0.7000000000000001,0.32648909091949463,0.22776110470294952,0.007726115174591541,-0.2416381686925888,0.03897538781166077,-0.03367743268609047,0.7439780831336975,0.27318406105041504,-0.6669207811355591,-0.12306293100118637,-0.1509367674589157,0.2135992795228958,0.05602783989396054,-0.08108485758851741,0.016804311104673356,-0.015208646918224943,0.025990935104627997,-0.030364224712928687,0.6671314772634959,0.34008684777737197,-0.3832376814464805,-0.25472621544090385,-0.013108788732703896,0.07856489148183687,-0.06735486537218094,-0.4832763373851776,0.29552221298217773,0.04636814817786217,0.09387413412332535,0.8543971180915833,0.07795077562332153,0.015452230349183083,0.812978208065033,0.987956166267395,-0.9938415288925171,-0.6037470698356628
0.72,-0.016331279650330544,-0.0539250373840332,-0.2940482497215271,-0.1659473329782486,0.07970637828111649,-0.051220908761024475,0.7064694166183472,0.5374854803085327,-0.6697054505348206,0.3288622796535492,0.005483148153871298,0.06640627980232239,0.04941046342702998,-0.05678390096070756,-0.00376460131042819,-0.08257440379418365,0.06238747225982689,-0.04364708406835643,0.6856128873598986,0.41970831161047845,-0.5050698995664076,-0.01561605940040426,-0.011571024145207356,0.07689725232889028,-0.10244181752204895,-0.3318946659564972,-0.2678500711917877,0.5749709010124207,0.9977245330810547,0.26562511920928955,0.15941275656223297,-0.5880964994430542,0.12733744084835052,0.9129387736320496,-0.9994109272956848,0.02193259261548519
0.74,-0.047720473259687424,-0.08866985142230988,-0.04112611711025238,-0.13432730734348297,0.04431670159101486,-0.007997176609933376,0.5755608677864075,0.42195990681648254,-0.5694111585617065,-0.12143091857433319,0.03525002673268318,0.23352624475955963,0.01872885563311604,-0.07083128056267965,-0.017909020855757078,-0.1047269745386035,0.050860974850756364,-0.020919438291510026,0.6369331827101192,0.4243112303014671,-0.5266593132387705,-0.06284985343363743,0.009277100958422524,0.12209927666453274,-0.015994353219866753,-0.26865461468696594,-0.33733969926834106,0.3439198136329651,0.0971381664276123,0.9341049790382385,0.08863340318202972,-0.08225223422050476,0.06455904990434647,0.6511217355728149,-0.798822283744812,0.14100010693073273
0.76,0.09915167093276978,0.09668946266174316,-0.14075849950313568,-0.07063514739274979,0.07151581346988678,-0.006660537328571081,0.6012477874755859,0.4822162985801697,-0.45045849680900574,0.023945944383740425,0.01829277165234089,0.19503901898860931,0.028751426960895728,-0.02946992527366814,-0.0032622831842991883,-0.09404021203284564,0.06240845727686135,-0.01185468952123206,0.6227631234428874,0.44300215460095016,-0.4854526186519627,-0.150540007817847,0.013031692948880062,0.15071271383873155,-0.013321074657142162,-0.14127029478549957,0.033378925174474716,0.46443259716033936,0.38789188861846924,0.7801560759544373,0.14303162693977356,-0.28151699900627136,0.35830333828926086,0.7024955749511719,-0.5609170198440552,0.07317108660936356
0.78,-0.06733161211013794,-0.23537836968898773,-0.1545640379190445,-0.13383318483829498,0.007087014615535736,0.015497999265789986,0.2817763686180115,0.37767213582992554,-0.3449939787387848,-0.37093386054039,0.010497133247554302,-0.05828002095222473,0.018378489417592025,-0.06460453967223727,-0.0392644689496803,-0.10998566867539508,0.022894169906284595,0.012411596187632172,0.48164960742870927,0.4428288519420201,-0.41647817245202196,-0.17302816706310947,0.011638815034158872,0.034801895912175515,0.03099599853157997,-0.26766636967658997,-0.6307567358016968,0.2553442716598511,-0.40186774730682373,-0.23312008380889893,0.014174029231071472,-0.309128075838089,0.02533678151667118,0.06355272978544235,-0.3499879539012909,0.04198853299021721
0.8,0.13785402476787567,0.09475445002317429,0.14276789128780365,-0.042119938880205154,0.02410385198891163,-0.012823189608752728,0.38796013593673706,0.5221432447433472,-0.14844273030757904,-0.25144124031066895,-0.14464791119098663,-0.04495001584291458,0.04966142346562481,-0.05203889504320929,0.0030385463898256935,-0.07935040870487912,0.021247202545361377,-0.010499778096380728,0.46238755072472,0.46507478333813024,-0.2515149593992216,-0.2217367317927019,-0.03405960758000003,-0.028740727892694242,-0.025646379217505455,-0.08423987776041031,0.02950890362262726,0.5442864894866943,-0.162882462143898,-0.17980006337165833,0.04820770397782326,0.2855357825756073,0.43570804595947266,0.2759202718734741,0.04311453551054001,-0.5785916447639465
0.8200000000000001,-0.006902927532792091,-0.18367238342761993,0.0814761146903038,-0.0007093804306350648,-0.022624602541327477,-0.0024142481852322817,0.29758593440055847,0.5973731875419617,-0.5535525679588318,-0.5490947961807251,-0.08042372763156891,0.004818698391318321,0.044820693800150406,-0.08962949284146815,0.02666481274424129,-0.05707602654830284,-0.0021681253938884613,-0.005336957938611381,0.3992702168958181,0.5197024330023252,-0.21254455143904277,-0.3529648464532338,0.013435880578571579,-0.02739319387520379,-0.004828496370464563,-0.0014187608612701297,-0.5273447632789612,0.6947463750839233,-0.7581895589828491,0.019274793565273285,-0.04524920508265495,0.1629522293806076,0.14619414508342743,0.09517184644937515,-0.7671051025390625,-0.32169491052627563
0.84,0.11304304003715515,-0.0847371518611908,0.09406610578298569,0.04833194240927696,-0.02369525656104088,0.008552305400371552,0.20746491849422455,0.678399384021759,-0.6230990886688232,-0.5773084759712219,-0.11985896527767181,-0.004879258573055267,0.060284943912068185,-0.11194008723638474,0.05496883795810647,-0.016206748098434726,-0.020526847551940633,0.003571159811930138,0.3498203065862825,0.5837128820595966,-0.28138436825865926,-0.447768658967804,-0.004778214807610025,-0.016951063661195608,0.017104610800743103,0.09666388481855392,-0.3294743001461029,0.8567987680435181,-0.8146169781684875,-0.01951703429222107,-0.04739051312208176,0.18813221156597137,0.3860860764980316,-0.0850701630115509,-0.9061981439590454,-0.47943586111068726
0.86,-0.11842205375432968,-0.3095589876174927,0.04452752321958542,-0.09482543170452118,0.0035548782907426357,0.046371180564165115,0.2516211271286011,0.7239136695861816,-0.43940800428390503,-0.649685800075531,-0.18029163777828217,-0.014084560796618462,0.024732473729475256,-0.17706220803792205,0.04691854364693601,-0.026581059331027928,-0.0012065532351979813,0.031340861867873035,0.30843835447539086,0.6467994540556077,-0.34777546539986764,-0.5301243503345645,-0.07842155812680071,-0.015553695737331069,0.09274236112833023,-0.18965086340904236,-0.779118001461029,0.9478272795677185,-0.9593715667724609,-0.056338243186473846,0.0071097565814852715,0.08905504643917084,-0.07684411108493805,0.003242242382839322,-0.5388160347938538,-0.7211665511131287
0.88,-0.08105888217687607,0.02424970082938671,0.2827327251434326,0.24229592084884644,0.0019045051885768771,0.01281881332397461,0.5189201831817627,0.6900498270988464,0.3274930417537689,-0.1559298187494278,-0.2212381809949875,-0.11159577965736389,-0.03743719284618932,-0.11242471453449204,0.12726202180589363,0.02248193098879774,0.002497881940815554,0.01639390576056735,0.392804346825055,0.6594917123840421,-0.19874809472624153,-0.3756896482788521,-0.11440706572431333,-0.05499956888708819,0.02563762664794922,0.48459184169769287,-0.11150059849023819,0.8800996541976929,0.028140360489487648,-0.44638311862945557,0.0038090103771537542,0.5654654502868652,-0.0021177572198212147,0.5378403067588806,0.9949860572814941,-0.88495272397995
0.9,-0.19731920957565308,-0.2481178492307663,0.12644949555397034,-0.029235005378723145,0.01823631301522255,0.039668936282396317,0.5880287885665894,0.5505295991897583,0.3279423713684082,-0.6527351140975952,-0.23704586923122406,0.1048426553606987,-0.08344672895097567,-0.1008120357789092,0.13059268600848634,0.013870980376956617,0.015578602453366033,0.033360843567155275,0.46252287659094493,0.6203368149010713,-0.20278730972333475,-0.44414987773839976,-0.10757045315137857,0.004243536057289535,0.07933787256479263,-0.05847001075744629,-0.6562356948852539,0.6010591387748718,-0.9654702544212341,0.4193706214427948,0.0364726260304451,0.2528989911079407,-0.23463840782642365,0.6760575175285339,0.9958847165107727,-0.9481834769248962
0.92,-0.02617884986102581,0.14982333779335022,0.30023249983787537,0.3583671450614929,-0.013816519640386105,-0.05076591670513153,0.7287039756774902,0.41333410143852234,0.3183811604976654,-0.13515843451023102,-0.1582699865102768,0.035056889057159424,-0.07467107961837031,-0.026222019953863186,0.1909841034553972,0.041248936839626736,-0.010296930243892645,-0.02389591198515951,0.5766820873527105,0.5304474345420337,-0.20375242456633164,-0.32313566590549614,-0.08328660764115052,0.019237243226434643,-0.10153183341026306,0.7167342901229858,0.13964666426181793,0.3266682028770447,0.06968313455581665,0.1402275562286377,-0.02763303928077221,0.6004649996757507,0.10764230042695999,0.9574080109596252,0.9767622947692871,-0.6330799460411072
0.9400000000000001,0.07751354575157166,-0.13641178607940674,0.202748641371727,0.018491258844733238,-0.044209908694028854,-0.020838454365730286,0.5421674251556396,0.3366609811782837,-0.5812609791755676,-0.5368593335151672,-0.20653867721557617,0.09111416339874268,0.0001403420778080843,-0.06035333780752908,0.1955268787413297,0.03720112704437981,-0.03267850978889753,-0.024319702862982955,0.5659974478024871,0.4532880031271287,-0.3495662030956012,-0.38646176410444516,-0.1115998856808602,0.04989763125058491,-0.04167690873146057,0.036982517689466476,-0.4328235685825348,0.17332196235656738,-0.7337186336517334,0.3644566535949707,-0.08841981738805771,0.405497282743454,0.3150270879268646,0.5843349099159241,-0.822521984577179,-0.8261547088623047
0.96,0.06598524749279022,-0.0719861090183258,0.07182388007640839,0.05747870355844498,-0.014132266864180565,0.008955199271440506,0.7168099880218506,0.41922080516815186,0.19176431000232697,0.26320141553878784,0.04215160384774208,0.11652005463838577,0.02539393372967751,-0.0503745542976424,0.16857591430230112,0.019007195720662336,-0.020491056835893643,0.0015504715239645704,0.6325307646382272,0.4403243899129043,-0.1786092608379911,-0.15905327237804462,-0.0580622991358012,0.078711298257595,0.017910398542881012,0.11495740711688995,-0.3039722144603729,0.3384416401386261,0.866402804851532,0.4660802185535431,-0.02826453372836113,0.14364776015281677,0.29197049140930176,0.9336199760437012,0.7235286235809326,0.16860641539096832
0.98,0.12975560128688812,-0.07141566276550293,0.019229572266340256,-0.06545703858137131,0.016772406175732613,0.01479168701916933,0.7291253209114075,0.3262822926044464,-0.6111682653427124,-0.07319234311580658,0.012879163026809692,0.14044125378131866,0.05822425245085065,-0.046090181413990856,0.10940048890082599,-0.01910103922338654,0.0055239532148273,0.010810951480238865,0.6728175923389297,0.3949624892225237,-0.34645850043389903,-0.10451500014156455,-0.026205050637682012,0.10483861340409227,0.02958337403833866,-0.13091407716274261,-0.3028313219547272,0.15256458520889282,0.19361531734466553,0.5617650151252747,0.033544812351465225,0.03845914453268051,0.41951119899749756,0.9582506418228149,-0.8823364973068237,0.05151665210723877
1.0,0.11881887912750244,-0.10638889670372009,-0.08007176965475082,-0.13397979736328125,0.00894953217357397,0.03440718352794647,0.7221160531044006,0.20222684741020203,-0.6629627346992493,-0.5456855297088623,0.024359114468097687,0.1689017117023468,0.08718367924711858,-0.06293593785639118,0.03669108453095132,-0.06391877217014401,0.00733174240437886,0.03178510887188973,0.6954485702943304,0.32677172171325586,-0.4818141971825992,-0.2599842028527184,-0.0033392651524869893,0.1094743609887413,0.06881436705589294,-0.2679595947265625,-0.3727777898311615,-0.09554630517959595,-0.7513710856437683,0.6756068468093872,0.01789906434714794,-0.16014353930950165,0.3976377546787262,0.9442321062088013,-0.9859254956245422,0.09743645787239075
1.02,0.20711855590343475,0.12162382900714874,-0.03575931116938591,-0.15530338883399963,0.02098175510764122,0.019552068784832954,0.7369121313095093,0.41826480627059937,-0.668425440788269,0.08678849041461945,-0.05814149230718613,0.24609503149986267,0.11679782640688988,-0.01558542971119067,0.005754073260542257,-0.09881748214273539,0.015957339457160234,0.017880728906467813,0.7145089863078375,0.3513360481269298,-0.5574548992823469,-0.22974707551059567,-0.025835917819437716,0.00255920205921921,0.03910413756966591,-0.31060677766799927,0.08324765413999557,0.33652958273887634,0.5135769844055176,0.9843801259994507,0.04196351021528244,-0.07151862233877182,0.5742371082305908,0.9738242626190186,-0.9968509078025818,-0.2325659692287445
1.04,-0.09562598913908005,-0.11969643831253052,-0.18019062280654907,-0.30861446261405945,0.04807335510849953,0.0431441031396389,0.6286023259162903,0.4389854967594147,-0.661797285079956,0.30436089634895325,-0.07693810760974884,0.22849558293819427,0.06317769452128255,-0.0015315784765948925,-0.046584520331960505,-0.12780494544117163,0.03852887880554309,0.03743207915947465,0.6699834610857431,0.39966690436404156,-0.5957866189688575,-0.24659871091267727,-0.04812880705892685,-0.01689799710425423,0.0862882062792778,-0.6172289252281189,-0.39939287304878235,0.37797099351882935,0.9487217664718628,0.9139823317527771,0.09614671021699905,-0.36038124561309814,-0.03125197812914848,0.7572046518325806,-0.9835945963859558,-0.30775243043899536
1.06,0.23770134150981903,0.17601266503334045,0.08283114433288574,-0.12610813975334167,0.06156907603144646,-0.011977313086390495,0.6626955270767212,0.4377096891403198,-0.5973098278045654,-0.29696646332740784,-0.08279486000537872,0.2476489543914795,0.08651704019468551,0.032452727753844966,-0.05097184798018372,-0.12527094986628665,0.05498248822865731,-0.0005147951705022441,0.6699143794746281,0.41138508682537667,-0.5874353504249801,-0.27716366920020574,-0.0627942291496143,0.08031227791263944,-0.02395462617278099,-0.25221627950668335,0.1920253187417984,0.37541937828063965,-0.253932923078537,0.990595817565918,0.12313815206289291,0.16566228866577148,0.6354026794433594,0.8253911137580872,-0.8546196222305298,-0.3311794400215149
1.08,-0.11472030729055405,-0.2501843273639679,-0.28476592898368835,-0.2807675004005432,0.041146960109472275,0.011820094659924507,0.3537784516811371,0.4811647832393646,-0.6201308965682983,-0.007466329261660576,-0.03697376325726509,0.0511309951543808,0.10350017887561878,-0.03882691745764628,-0.09540103644473061,-0.1731248395518002,0.04663671146876079,0.013786401599369386,0.5365312080179709,0.44706460676007004,-0.5932868656129416,-0.2700061147086678,-0.0507033644893113,0.008719138547042496,0.023640189319849014,-0.5615350008010864,-0.6603686809539795,0.46232956647872925,0.32506734132766724,0.2045239806175232,0.08229392021894455,-0.5695318579673767,-0.06944061815738678,0.20755690336227417,-0.9002618193626404,-0.14789505302906036
1.1,0.1861504167318344,0.03587351366877556,0.09576154500246048,-0.030825063586235046,0.0475931391119957,-0.01780647411942482,0.42979946732521057,0.4352288842201233,-0.4152308404445648,-0.550591766834259,-0.12147291749715805,0.1487663984298706,0.1122751040117556,-0.02949428917255189,-0.05188581414884184,-0.126022658116987,0.04899540047556349,-0.008575098389255869,0.4955663289490144,0.4387577282468458,-0.50813890902027,-0.373611708612009,-0.07868720383007669,0.030709165554456876,-0.03561294823884964,-0.06165012717247009,-0.0882529690861702,0.3704577684402466,-0.7611835598945618,0.5950655937194824,0.0951862782239914,0.19152309000492096,0.5323008298873901,0.35959893465042114,-0.49046167731285095,-0.4858916699886322
1.12,-0.04621225222945213,-0.1439569890499115,-0.1168379858136177,-0.12033754587173462,0.025270387530326843,0.0077744037844240665,0.3736794590950012,0.5501828193664551,0.0710199624300003,0.2538037598133087,0.07596540451049805,0.16063089668750763,0.06837675609316948,-0.05627300105652037,-0.03724113411710796,-0.11690274630280079,0.032388008033214816,0.005848623291412417,0.4413726283973656,0.49043596094555025,-0.26182383917277474,-0.25769844467721403,-0.018093796465347776,0.045966444038678556,0.015548807568848133,-0.24067509174346924,-0.4479139745235443,0.6003656983375549,0.8476074934005737,0.6425235867500305,0.050540775060653687,-0.2336759716272354,0.06757549196481705,0.24735888838768005,0.4820399284362793,0.3038616180419922
1.1400000000000001,0.20217283070087433,0.015234680846333504,0.15534093976020813,0.06623969227075577,0.01246526651084423,-0.03602181002497673,0.28087136149406433,0.45233970880508423,-0.4642243981361389,-0.5437961220741272,-0.1417316496372223,-0.11779440939426422,0.0854928085778485,-0.05297631255913334,0.027443898209922574,-0.04713553197686257,0.022723098865195246,-0.0276078370771831,0.38084896037431737,0.4726827503695031,-0.30180615004505135,-0.369070148845292,-0.05570309026649101,-0.027333457213871048,-0.07204362004995346,0.13247938454151154,-0.1295306384563446,0.40467944741249084,-0.7475922107696533,-0.4711776375770569,0.02493053302168846,0.31068187952041626,0.56434565782547,0.061742741614580154,-0.5884488224983215,-0.5669265985488892
1.16,-0.10585171729326248,-0.15078125894069672,0.08020266145467758,0.08788992464542389,-0.012174954637885094,-0.009636730886995792,0.45081326365470886,0.611538827419281,0.29839229583740234,-0.030637038871645927,-0.07835207134485245,0.013699667528271675,0.050593846043050714,-0.06677402508985188,0.06029620415731413,-0.006224073662538922,0.004866709684747227,-0.012019613132789245,0.39457606200943174,0.5375755778690273,-0.2262201266401426,-0.28467045422917886,-0.0628824672902613,-0.01297767651490427,-0.019273461773991585,0.17577984929084778,-0.46156251430511475,0.723077654838562,0.27872592210769653,0.0547986701130867,-0.024349909275770187,0.16040532290935516,-0.05170344188809395,0.4016265273094177,0.936784565448761,-0.3134082853794098
1.18,0.2376949042081833,0.12580017745494843,0.20996502041816711,0.29336708784103394,-0.03855434060096741,-0.04326305910944939,0.5713727474212646,0.4138000011444092,0.279211163520813,-0.587128758430481,-0.13279464840888977,-0.08443102985620499,0.10563527689786507,-0.031464039436844914,0.11434168254197742,0.0647833006104803,-0.029093703893178207,-0.03473598651766871,0.47356558811172267,0.48226362104713943,-0.2604339043400213,-0.4050181667253557,0.03608969737992209,-0.041653808162071405,-0.08652611821889877,0.5867341756820679,0.09160034358501434,0.32760000228881836,-0.8342574834823608,-0.33772411942481995,-0.07710868120193481,0.41993004083633423,0.6353898048400879,0.6427454948425293,0.8984223008155823,-0.5311785936355591
1.2,-0.015103364363312721,-0.2765458822250366,0.14249175786972046,0.003522847779095173,-0.03934936597943306,-0.014153195545077324,0.6017134189605713,0.4207390546798706,-0.18215374648571014,-0.3316478133201599,-0.22792819142341614,0.08880168944597244,0.07788497719736974,0.014352892050478485,0.12234641373731231,0.0777233097757568,-0.032032241130928854,-0.022320449004077564,0.5166042265160724,0.46290972413181186,-0.27315901805875537,-0.37123968074092734,0.045668274711034046,0.008694467493321315,-0.028306391090154648,0.007045695558190346,-0.7130917906761169,0.3414781093597412,-0.32329562306404114,0.35520675778388977,-0.07869873195886612,0.2849835157394409,0.12979327142238617,0.7034268975257874,-0.0243074893951416,-0.9117127656936646
1.22,0.3514723479747772,0.019373731687664986,0.004164005629718304,0.00779687101021409,-0.015088510699570179,-0.029056686908006668,0.7067887783050537,0.26572346687316895,-0.6500471830368042,-0.561630129814148,-0.20558102428913116,0.07954289764165878,0.1530449769794058,-0.0009841261054673862,0.09512837789153741,0.05166226143408356,-0.02311851879898454,-0.030297860448559182,0.600747382306568,0.38831167219624313,-0.4260102212093938,-0.3109985926250669,-0.06385491195169136,0.04940931785821185,-0.058113373816013336,0.01559374202042818,-0.12125253677368164,0.03144695982336998,-0.7832602858543396,0.31817159056663513,-0.030177021399140358,0.008328011259436607,0.8629447221755981,0.9135776162147522,-0.9600943326950073,-0.8223240971565247
1.24,0.22795827686786652,-0.13852933049201965,0.0009077991126105189,-0.15643808245658875,-0.05212797969579697,-0.01131432969123125,0.7161461114883423,0.18036364018917084,-0.6638171672821045,-0.6282921433448792,0.039145808666944504,0.17854318022727966,0.2012461934784765,-0.052119902223501914,0.053179354674972174,0.006862245725310846,-0.03958829873921582,-0.016592693900297276,0.6440773522173878,0.35817194565721583,-0.5256490562808552,-0.27250155036168394,-0.03169404631194641,0.04022047890826893,-0.0226286593824625,-0.3128761649131775,-0.4370586574077606,-0.13927271962165833,-0.916584312915802,0.7141727209091187,-0.10425595939159393,0.0018155982252210379,0.6159165501594543,0.9322922825813293,-0.9876343011856079,0.15658323466777802
1.26,0.36609384417533875,0.34431228041648865,-0.07651813328266144,-0.09639424085617065,0.019392436370253563,-0.07375958561897278,0.7486307621002197,0.35650143027305603,-0.6698469519615173,0.3072020709514618,-0.07619455456733704,0.211514413356781,0.24791702122511194,-0.03324305624950586,0.01262879098859793,-0.036509253135324604,-0.0021899733434491775,-0.05706930206794167,0.6933315848991898,0.3454803810313999,-0.5817031609185056,-0.22306918036399676,-0.04696844387956324,0.06862254234859505,-0.14751917123794556,-0.1927884817123413,0.5286245346069336,0.21300284564495087,0.9544041156768799,0.846057653427124,0.038784872740507126,-0.15303626656532288,0.8921877145767212,0.9972615242004395,-0.9996938705444336,-0.30477821826934814
1.28,-0.026098506525158882,-0.1159132868051529,-0.0698038712143898,-0.17294050753116608,-0.014231028966605663,-0.06914068758487701,0.6735670566558838,0.3228963315486908,-0.664895236492157,0.22919322550296783,0.003706192597746849,0.10264044255018234,0.22595968440293765,-0.022739970840550988,-0.02446447443501301,-0.07814844242969134,-0.007135248812101258,-0.06375771240291889,0.6802609013829208,0.343336919121772,-0.6103573397062436,-0.18747215972409229,-0.024880887068418935,0.05027184716563749,-0.13828137516975403,-0.34588101506233215,-0.3918265700340271,0.14579267799854279,0.7983864545822144,0.41056177020072937,-0.028462057933211327,-0.1396077424287796,0.10780298709869385,0.8471341729164124,-0.9897904992103577,0.014824770390987396
1.3,0.3451324701309204,0.16256284713745117,0.03176882863044739,-0.0874946191906929,0.03912174329161644,-0.07519426196813583,0.7432628870010376,0.16677290201187134,-0.666810154914856,-0.5896490812301636,-0.17135311663150787,0.201034814119339,0.22587454909027582,0.018181314084598763,-0.00412750111382794,-0.07955935730026058,0.022977233341814084,-0.08024520777025472,0.7107037962714594,0.27205544597578396,-0.6260796200006874,-0.3161841905797432,-0.07873210196941946,0.0912572304733853,-0.15038852393627167,-0.1749892383813858,0.16512569785118103,-0.16645418107509613,-0.8392981886863708,0.804139256477356,0.07824348658323288,0.06353765726089478,0.8502649664878845,0.98652583360672,-0.9936202764511108,-0.6854124665260315
1.32,0.07614833116531372,-0.1717512160539627,0.04024377092719078,-0.09624437987804413,-0.02790423110127449,-0.04705836623907089,0.691308856010437,0.19040390849113464,-0.650910496711731,-0.3654991686344147,0.06718612462282181,0.09768642485141754,0.20442504255062333,0.003197962066174321,0.01537526162125478,-0.08408891042905337,-0.011783532638075715,-0.054709275628315276,0.6943153931468073,0.2492839537010725,-0.6280849975207056,-0.32959759189992954,-0.025412842479084437,0.0708366535691104,-0.09411673247814178,-0.19248875975608826,-0.5035024285316467,-0.11919219046831131,-0.39099836349487305,0.39074569940567017,-0.05580846220254898,0.08048754185438156,0.31229665875434875,0.882617712020874,-0.9618209600448608,0.26874449849128723
1.34,0.3801420032978058,0.04878995567560196,0.07271172851324081,-0.024253297597169876,0.02247110940515995,-0.07474186271429062,0.744228184223175,0.03768099844455719,-0.6694623231887817,-0.6607913970947266,-0.18868006765842438,-0.12903974950313568,0.2530084253766076,-0.003379489294307822,0.040256388958263986,-0.06083129334690275,0.008876556455810555,-0.07144598618269697,0.7203907447006358,0.17238524835472901,-0.6369756579885172,-0.4111311365348058,-0.07511432208197596,0.021796780327372166,-0.14948372542858124,-0.04850659519433975,-0.062420085072517395,-0.4246380031108856,-0.981582760810852,-0.5161589980125427,0.0449422188103199,0.14542345702648163,0.9202840328216553,0.9884563684463501,-0.9989246129989624,-0.7547202706336975
1.36,0.28062596917152405,-0.14074508845806122,0.24221408367156982,0.13169384002685547,-0.06105370074510574,-0.06914808601140976,0.7016972303390503,0.135402113199234,-0.6685996651649475,-0.6475859880447388,-0.09427321702241898,-0.22271642088890076,0.26268837329559186,-0.04573629719673845,0.1139489077326026,0.008496092963024489,-0.03877033421776697,-0.07079981184826065,0.7034784192329879,0.16454419708545753,-0.6417050546395705,-0.5097209628054655,-0.08413608315505271,-0.0650990045872308,-0.13829617202281952,0.26338768005371094,-0.44149017333984375,-0.22919577360153198,-0.9551720023155212,-0.890865683555603,-0.12210740149021149,0.48442816734313965,0.7212519645690918,0.9033944606781006,-0.997199296951294,-0.3770928680896759
1.3800000000000001,0.3706229329109192,0.12068378180265427,0.32438719272613525,0.23536787927150726,-0.07667984068393707,-0.06164946407079697,0.7347279787063599,0.31382232904434204,-0.6670742630958557,-0.5185323357582092,-0.08659065514802933,-0.20613570511341095,0.2803817042781285,-0.010601458743266677,0.20067358166233298,0.09466998847221136,-0.0687644367382323,-0.06669287553855326,0.7154533490165634,0.22526079781752034,-0.6432551526539164,-0.5073243567298031,-0.08399927308853865,-0.1268378031192838,-0.12329892814159393,0.4707357585430145,0.08136755973100662,0.12764468789100647,-0.6970646381378174,-0.8245428204536438,-0.15335968136787415,0.6487743854522705,0.9012458920478821,0.969455897808075,-0.9941484928131104,-0.3463626205921173
1.4000000000000001,0.198667511343956,-0.12038005888462067,0.23077845573425293,0.12584370374679565,-0.12052345275878906,-0.03930964693427086,0.5343822836875916,0.4486207664012909,-0.6538995504379272,-0.6527799367904663,0.1989138424396515,0.07227345556020737,0.2619136955518289,-0.024245891724908875,0.215822829669211,0.10805900973436298,-0.10661120171933892,-0.043512043469729936,0.6327360472338783,0.3241836890208404,-0.6384445183619332,-0.5610717387873487,0.022999829758962045,-0.05323237197103519,-0.07861929386854172,0.2516874074935913,-0.40076011419296265,0.3972415328025818,-0.9655598402023315,0.28909382224082947,-0.24104690551757812,0.46155691146850586,0.5573350191116333,0.5687645673751831,-0.9677990674972534,0.795655369758606
1.42,0.2901757061481476,0.010994376614689827,0.1709747314453125,0.1276366114616394,-0.10298115015029907,-0.022401360794901848,0.6584936380386353,0.46012574434280396,-0.5862842202186584,-0.5555099844932556,-0.08197416365146637,-0.006024045869708061,0.25877890987590846,-0.0039110694650526315,0.2025629327986771,0.11111969772771726,-0.10484268693187744,-0.027772342641166025,0.6482660244532534,0.3824695754065999,-0.60582836057672,-0.5502843405213476,-0.001923034474771858,-0.024395998605130285,-0.044802721589803696,0.2552732229232788,-0.13801124691963196,0.4202514588832855,-0.7710199356079102,-0.024096183478832245,-0.20596230030059814,0.341949462890625,0.7403514385223389,0.8169872164726257,-0.8325684666633606,-0.3278966546058655
1.44,0.22548748552799225,-0.09181936085224152,0.1693507879972458,0.022215789183974266,-0.12534235417842865,-0.00787587370723486,0.5836035013198853,0.4814738631248474,-0.6413502097129822,-0.6201648116111755,0.09453506767749786,-0.030232418328523636,0.24217229653449934,-0.027493937458176583,0.18744261095499434,0.11489466293747434,-0.11953111395644543,-0.01713584334578686,0.6150019833233066,0.42799025277164426,-0.6114925690473366,-0.5183636339802932,0.031296136360158266,0.04400699038603201,-0.01575174741446972,0.04443157836794853,-0.34363871812820435,0.4629477560520172,-0.90032958984375,-0.12092967331409454,-0.2506847083568573,0.3387015759944916,0.6109749674797058,0.6672069430351257,-0.9427004456520081,0.37814027070999146
1.46,0.34453344345092773,-0.10836948454380035,0.15557830035686493,-0.04936138913035393,-0.1201993077993393,-0.022641761228442192,0.5116238594055176,0.4499000012874603,-0.6686949133872986,-0.6433877348899841,0.08983641862869263,-0.07317668199539185,0.2695404407662092,-0.07805614573685711,0.17154244442970035,0.09350619550571651,-0.12222344945359583,-0.024742577809059328,0.5755426691178623,0.4382755138608651,-0.6018938813768431,-0.4931714661971578,0.06208374116226015,0.0021222040026151853,-0.045283522456884384,-0.09872277826070786,-0.376738965511322,0.39980000257492065,-0.946775496006012,-0.2927067279815674,-0.2403986155986786,0.31115660071372986,0.8490669131278992,0.5232477188110352,-0.9973897933959961,0.3593456745147705
1.48,0.24339763820171356,-0.08125533163547516,0.02354482188820839,-0.11770153790712357,-0.1017071083188057,-0.00586564838886261,0.5852569937705994,0.46158286929130554,-0.5892019867897034,-0.33387628197669983,0.03841006010770798,0.03650370612740517,0.2454258714982137,-0.06458092139607241,0.11051696710661704,0.019097360029690688,-0.1050480332801784,-0.015748863777444853,0.5744961922098238,0.45288902442417833,-0.5874322512229742,-0.4160590634206451,0.05110791188963004,-0.0013541332589056738,-0.01173129677772522,-0.23540307581424713,-0.32251065969467163,0.4231657385826111,-0.32775259017944336,0.14601482450962067,-0.2034142166376114,0.04708964377641678,0.6467952728271484,0.6705139875411987,-0.8384039998054504,0.1536402404308319
1.5,0.2520184814929962,-0.036088258028030396,-0.02861667424440384,-0.1492898017168045,-0.07321953028440475,-0.00578599888831377,0.6685304641723633,0.33106058835983276,-0.6122115254402161,-0.5295342803001404,-0.0632152259349823,0.2196066975593567,0.23238631667805193,-0.04093736768621196,0.052261282960336386,-0.046287239349866616,-0.08056736550919565,-0.0120000637690879,0.603130309864097,0.4092460660331055,-0.5895753273714724,-0.3156220888966819,0.001807806310023575,-0.01898245612748027,-0.01157199777662754,-0.298579603433609,-0.2321765124797821,0.16212114691734314,-0.7190685868263245,0.8784267902374268,-0.1464390605688095,-0.05723334848880768,0.6640369892120361,0.8370608687400818,-0.884423017501831,-0.2528609037399292
1.52,0.22177870571613312,-0.04680788516998291,-0.003768181661143899,-0.11368826776742935,-0.057212285697460175,-0.014983628876507282,0.7080310583114624,0.2975548207759857,-0.6258820295333862,-0.517672598361969,-0.04627104848623276,0.23528318107128143,0.22967618768007952,-0.03063022084797022,0.031927810922811425,-0.07448724018815733,-0.06431357182811691,-0.015937536905240274,0.6437692788795594,0.3680741183790736,-0.5970524912521951,-0.36397904499004136,-0.01965020339359331,-0.006390368680927773,-0.029967257753014565,-0.2273765355348587,-0.25361576676368713,0.09510966390371323,-0.6953452229499817,0.9411327242851257,-0.11442457139492035,-0.007536363322287798,0.6035574078559875,0.91606205701828,-0.9117640256881714,-0.18508419394493103
1.54,0.28627127408981323,-0.08427630364894867,0.07040468603372574,-0.10129421949386597,-0.05825560912489891,-0.023614032194018364,0.7037714719772339,0.1963454782962799,-0.6558119058609009,-0.6290558576583862,-0.0930066928267479,0.11879107356071472,0.2655170621199686,-0.0599334369098418,0.04270210673773599,-0.07937714521128526,-0.05928660009617236,-0.023939060119921893,0.6599561620830767,0.304465689216589,-0.6141609805206202,-0.4655479425211063,-0.051307137422285855,0.03369421046484262,-0.04722806438803673,-0.20258843898773193,-0.32855260372161865,-0.10730905830860138,-0.9181117415428162,0.4751642942428589,-0.11651121824979782,0.14080937206745148,0.7325425744056702,0.9075430035591125,-0.9716237783432007,-0.3720267713069916
1.56,0.32471907138824463,0.28896021842956543,0.00947590172290802,-0.112815260887146,-0.019780142232775688,-0.05877402797341347,0.746202826499939,0.36936891078948975,-0.6636126041412354,0.2849193513393402,0.06500700861215591,0.2226792275905609,0.27324744961231506,0.027035060126922403,0.030461266389268472,-0.09278153912209278,-0.03089244855682569,-0.052255157745261446,0.6980019580952631,0.32761714112827495,-0.6268199433613431,-0.2087105175063958,-0.0053964576447162,0.1131016198019359,-0.11754805594682693,-0.225630521774292,0.41792044043540955,0.23873783648014069,0.9098386764526367,0.8907169103622437,-0.039560284465551376,0.01895180344581604,0.809438169002533,0.9924056529998779,-0.9872251749038696,0.26002803444862366
1.58,-0.04914721101522446,-0.19667918980121613,-0.06834705919027328,-0.2955392599105835,-0.032438524067401886,-0.02662840113043785,0.549096405506134,0.2888534367084503,-0.6482036113739014,-0.46883222460746765,-0.0014784032246097922,0.17531076073646545,0.2131166211245899,0.05386452597268992,-0.007415823306374209,-0.16509282816024823,-0.029819448924270162,-0.03170888401363917,0.6271637428808182,0.3226584932857803,-0.6273395679773918,-0.23778452048422413,-0.0023282126556762495,0.1393612694743094,-0.0532568022608757,-0.591078519821167,-0.5533583760261536,0.07770689576864243,-0.597664475440979,0.7012430429458618,-0.06487704813480377,-0.13669411838054657,0.0617055781185627,0.5981928110122681,-0.9564071893692017,-0.005913612898439169
